[
    {
        "coordinates": {
            "lat": 51.424,
            "long": 5.5605395
        },
        "type": "town",
        "name": "Geldrop",
        "country": {
            "name": "The Netherlands",
            "code": "NL",
            "continent": "Europe"
        }
    },
    {
        "coordinates": {
            "lat": 52.9953538,
            "long": 6.560553
        },
        "type": "city",
        "name": "Assen",
        "country": {
            "name": "The Netherlands",
            "code": "NL",
            "continent": "Europe"
        }
    },
    {
        "coordinates": {
            "lat": 53.0524541,
            "long": 6.5748629
        },
        "type": "village",
        "name": "Ubbena",
        "country": {
            "name": "The Netherlands",
            "code": "NL",
            "continent": "Europe"
        }
    },
    {
        "coordinates": {
            "lat": 53.032865,
            "long": 6.626009
        },
        "type": "village",
        "name": "Taarlo",
        "country": {
            "name": "The Netherlands",
            "code": "NL",
            "continent": "Europe"
        }
    },
    {
        "coordinates": {
            "lat": 53.0489497,
            "long": 6.6385719
        },
        "type": "village",
        "name": "Oudemolen",
        "country": {
            "name": "The Netherlands",
            "code": "NL",
            "continent": "Europe"
        }
    },
    {
        "coordinates": {
            "lat": 53.0494696,
            "long": 6.5458937
        },
        "type": "village",
        "name": "Zeijen",
        "country": {
            "name": "The Netherlands",
            "code": "NL",
            "continent": "Europe"
        }
    },
    {
        "coordinates": {
            "lat": 50.8512438,
            "long": 5.6909768
        },
        "type": "city",
        "name": "Maastricht",
        "country": {
            "name": "The Netherlands",
            "code": "NL",
            "continent": "Europe"
        }
    },
    {
        "coordinates": {
            "lat": 50.8647531,
            "long": 5.8312518
        },
        "type": "town",
        "name": "Valkenburg",
        "country": {
            "name": "The Netherlands",
            "code": "NL",
            "continent": "Europe"
        }
    },
    {
        "coordinates": {
            "lat": 50.923979,
            "long": 5.9293385
        },
        "type": "town",
        "name": "Hoensbroek",
        "country": {
            "name": "The Netherlands",
            "code": "NL",
            "continent": "Europe"
        }
    },
    {
        "coordinates": {
            "lat": 51.0121234,
            "long": 5.837593
        },
        "type": "village",
        "name": "Limbricht",
        "country": {
            "name": "The Netherlands",
            "code": "NL",
            "continent": "Europe"
        }
    },
    {
        "coordinates": {
            "lat": 51.03383,
            "long": 5.80965
        },
        "type": "village",
        "name": "Born",
        "country": {
            "name": "The Netherlands",
            "code": "NL",
            "continent": "Europe"
        }
    },
    {
        "coordinates": {
            "lat": 51.0402299,
            "long": 5.8103167
        },
        "type": "village",
        "name": "Buchten",
        "country": {
            "name": "The Netherlands",
            "code": "NL",
            "continent": "Europe"
        }
    },
    {
        "coordinates": {
            "lat": 51.0522376,
            "long": 5.9563225
        },
        "type": "village",
        "name": "Koningsbosch",
        "country": {
            "name": "The Netherlands",
            "code": "NL",
            "continent": "Europe"
        }
    },
    {
        "coordinates": {
            "lat": 51.0654871,
            "long": 5.8519349
        },
        "type": "village",
        "name": "Susteren",
        "country": {
            "name": "The Netherlands",
            "code": "NL",
            "continent": "Europe"
        }
    },
    {
        "coordinates": {
            "lat": 51.089781,
            "long": 5.9702056
        },
        "type": "village",
        "name": "Maria Hoop",
        "country": {
            "name": "The Netherlands",
            "code": "NL",
            "continent": "Europe"
        }
    },
    {
        "coordinates": {
            "lat": 51.1184075,
            "long": 6.0388593
        },
        "type": "village",
        "name": "Posterholt",
        "country": {
            "name": "The Netherlands",
            "code": "NL",
            "continent": "Europe"
        }
    },
    {
        "coordinates": {
            "lat": 51.1172126,
            "long": 5.8994169
        },
        "type": "village",
        "name": "Sint Joost",
        "country": {
            "name": "The Netherlands",
            "code": "NL",
            "continent": "Europe"
        }
    },
    {
        "coordinates": {
            "lat": 51.1293871,
            "long": 5.9451811
        },
        "type": "village",
        "name": "Montfort",
        "country": {
            "name": "The Netherlands",
            "code": "NL",
            "continent": "Europe"
        }
    },
    {
        "coordinates": {
            "lat": 51.1316961,
            "long": 5.8446334
        },
        "type": "village",
        "name": "Stevensweert",
        "country": {
            "name": "The Netherlands",
            "code": "NL",
            "continent": "Europe"
        }
    },
    {
        "coordinates": {
            "lat": 51.1322147,
            "long": 6.0780886
        },
        "type": "village",
        "name": "Vlodrop",
        "country": {
            "name": "The Netherlands",
            "code": "NL",
            "continent": "Europe"
        }
    },
    {
        "coordinates": {
            "lat": 51.1428567,
            "long": 5.8830683
        },
        "type": "village",
        "name": "Maasbracht",
        "country": {
            "name": "The Netherlands",
            "code": "NL",
            "continent": "Europe"
        }
    },
    {
        "coordinates": {
            "lat": 51.1548292,
            "long": 6.0659756
        },
        "type": "village",
        "name": "Herkenbosch",
        "country": {
            "name": "The Netherlands",
            "code": "NL",
            "continent": "Europe"
        }
    },
    {
        "coordinates": {
            "lat": 51.1553621,
            "long": 5.9408886
        },
        "type": "village",
        "name": "Linne",
        "country": {
            "name": "The Netherlands",
            "code": "NL",
            "continent": "Europe"
        }
    },
    {
        "coordinates": {
            "lat": 51.15688,
            "long": 6.0136
        },
        "type": "village",
        "name": "Melick",
        "country": {
            "name": "The Netherlands",
            "code": "NL",
            "continent": "Europe"
        }
    },
    {
        "coordinates": {
            "lat": 51.16114,
            "long": 5.88012
        },
        "type": "village",
        "name": "Wessem",
        "country": {
            "name": "The Netherlands",
            "code": "NL",
            "continent": "Europe"
        }
    },
    {
        "coordinates": {
            "lat": 51.16388,
            "long": 5.83942
        },
        "type": "village",
        "name": "Thorn",
        "country": {
            "name": "The Netherlands",
            "code": "NL",
            "continent": "Europe"
        }
    },
    {
        "coordinates": {
            "lat": 51.1644464,
            "long": 5.8050596
        },
        "type": "village",
        "name": "Neeritter",
        "country": {
            "name": "The Netherlands",
            "code": "NL",
            "continent": "Europe"
        }
    },
    {
        "coordinates": {
            "lat": 51.1702698,
            "long": 5.8236526
        },
        "type": "village",
        "name": "Ittervoort",
        "country": {
            "name": "The Netherlands",
            "code": "NL",
            "continent": "Europe"
        }
    },
    {
        "coordinates": {
            "lat": 51.18917,
            "long": 5.81301
        },
        "type": "village",
        "name": "Hunsel",
        "country": {
            "name": "The Netherlands",
            "code": "NL",
            "continent": "Europe"
        }
    },
    {
        "coordinates": {
            "lat": 51.1911846,
            "long": 5.9196708
        },
        "type": "village",
        "name": "Beegden",
        "country": {
            "name": "The Netherlands",
            "code": "NL",
            "continent": "Europe"
        }
    },
    {
        "coordinates": {
            "lat": 51.191611,
            "long": 5.8573061
        },
        "type": "village",
        "name": "Grathem",
        "country": {
            "name": "The Netherlands",
            "code": "NL",
            "continent": "Europe"
        }
    },
    {
        "coordinates": {
            "lat": 51.1933926,
            "long": 5.7245131
        },
        "type": "village",
        "name": "Stramproy",
        "country": {
            "name": "The Netherlands",
            "code": "NL",
            "continent": "Europe"
        }
    },
    {
        "coordinates": {
            "lat": 51.2075685,
            "long": 5.9462674
        },
        "type": "village",
        "name": "Horn",
        "country": {
            "name": "The Netherlands",
            "code": "NL",
            "continent": "Europe"
        }
    },
    {
        "coordinates": {
            "lat": 51.219807,
            "long": 5.7950926
        },
        "type": "village",
        "name": "Ell",
        "country": {
            "name": "The Netherlands",
            "code": "NL",
            "continent": "Europe"
        }
    },
    {
        "coordinates": {
            "lat": 51.2265017,
            "long": 5.8832374
        },
        "type": "village",
        "name": "Baexem",
        "country": {
            "name": "The Netherlands",
            "code": "NL",
            "continent": "Europe"
        }
    },
    {
        "coordinates": {
            "lat": 51.2269076,
            "long": 3.7942627
        },
        "type": "village",
        "name": "Sas van Gent",
        "country": {
            "name": "The Netherlands",
            "code": "NL",
            "continent": "Europe"
        }
    },
    {
        "coordinates": {
            "lat": 51.231394,
            "long": 6.0356507
        },
        "type": "village",
        "name": "Swalmen",
        "country": {
            "name": "The Netherlands",
            "code": "NL",
            "continent": "Europe"
        }
    },
    {
        "coordinates": {
            "lat": 51.228964,
            "long": 3.9702146
        },
        "type": "village",
        "name": "Koewacht",
        "country": {
            "name": "The Netherlands",
            "code": "NL",
            "continent": "Europe"
        }
    },
    {
        "coordinates": {
            "lat": 51.2303083,
            "long": 3.8238654
        },
        "type": "village",
        "name": "Westdorpe",
        "country": {
            "name": "The Netherlands",
            "code": "NL",
            "continent": "Europe"
        }
    },
    {
        "coordinates": {
            "lat": 51.2337603,
            "long": 5.9768469
        },
        "type": "village",
        "name": "Buggenum",
        "country": {
            "name": "The Netherlands",
            "code": "NL",
            "continent": "Europe"
        }
    },
    {
        "coordinates": {
            "lat": 51.2360044,
            "long": 3.9052799
        },
        "type": "village",
        "name": "Zuiddorpe",
        "country": {
            "name": "The Netherlands",
            "code": "NL",
            "continent": "Europe"
        }
    },
    {
        "coordinates": {
            "lat": 51.2365874,
            "long": 5.9541047
        },
        "type": "village",
        "name": "Haelen",
        "country": {
            "name": "The Netherlands",
            "code": "NL",
            "continent": "Europe"
        }
    },
    {
        "coordinates": {
            "lat": 51.23927,
            "long": 5.573
        },
        "type": "village",
        "name": "Budel-Dorplein",
        "country": {
            "name": "The Netherlands",
            "code": "NL",
            "continent": "Europe"
        }
    },
    {
        "coordinates": {
            "lat": 51.24994,
            "long": 5.56611
        },
        "type": "village",
        "name": "Budel-Schoot",
        "country": {
            "name": "The Netherlands",
            "code": "NL",
            "continent": "Europe"
        }
    },
    {
        "coordinates": {
            "lat": 51.25014,
            "long": 5.84488
        },
        "type": "village",
        "name": "Leveroy",
        "country": {
            "name": "The Netherlands",
            "code": "NL",
            "continent": "Europe"
        }
    },
    {
        "coordinates": {
            "lat": 51.2525685,
            "long": 4.0658019
        },
        "type": "village",
        "name": "Kapellebrug",
        "country": {
            "name": "The Netherlands",
            "code": "NL",
            "continent": "Europe"
        }
    },
    {
        "coordinates": {
            "lat": 51.2639,
            "long": 5.9258
        },
        "type": "village",
        "name": "Roggel",
        "country": {
            "name": "The Netherlands",
            "code": "NL",
            "continent": "Europe"
        }
    },
    {
        "coordinates": {
            "lat": 51.2620493,
            "long": 5.9883704
        },
        "type": "village",
        "name": "Neer",
        "country": {
            "name": "The Netherlands",
            "code": "NL",
            "continent": "Europe"
        }
    },
    {
        "coordinates": {
            "lat": 51.26737,
            "long": 3.90712
        },
        "type": "village",
        "name": "Axel",
        "country": {
            "name": "The Netherlands",
            "code": "NL",
            "continent": "Europe"
        }
    },
    {
        "coordinates": {
            "lat": 51.2686092,
            "long": 4.0893179
        },
        "type": "village",
        "name": "Clinge",
        "country": {
            "name": "The Netherlands",
            "code": "NL",
            "continent": "Europe"
        }
    },
    {
        "coordinates": {
            "lat": 51.2727618,
            "long": 3.4947825
        },
        "type": "village",
        "name": "Sint Kruis",
        "country": {
            "name": "The Netherlands",
            "code": "NL",
            "continent": "Europe"
        }
    },
    {
        "coordinates": {
            "lat": 51.2758,
            "long": 3.44035
        },
        "type": "village",
        "name": "Aardenburg",
        "country": {
            "name": "The Netherlands",
            "code": "NL",
            "continent": "Europe"
        }
    },
    {
        "coordinates": {
            "lat": 51.28117,
            "long": 3.8355
        },
        "type": "village",
        "name": "Sluiskil",
        "country": {
            "name": "The Netherlands",
            "code": "NL",
            "continent": "Europe"
        }
    },
    {
        "coordinates": {
            "lat": 51.2811644,
            "long": 3.7579092
        },
        "type": "village",
        "name": "Philippine",
        "country": {
            "name": "The Netherlands",
            "code": "NL",
            "continent": "Europe"
        }
    },
    {
        "coordinates": {
            "lat": 51.283652,
            "long": 6.078339
        },
        "type": "village",
        "name": "Reuver",
        "country": {
            "name": "The Netherlands",
            "code": "NL",
            "continent": "Europe"
        }
    },
    {
        "coordinates": {
            "lat": 51.2855709,
            "long": 5.5563692
        },
        "type": "village",
        "name": "Gastel",
        "country": {
            "name": "The Netherlands",
            "code": "NL",
            "continent": "Europe"
        }
    },
    {
        "coordinates": {
            "lat": 51.2982411,
            "long": 5.7841022
        },
        "type": "village",
        "name": "Ospel",
        "country": {
            "name": "The Netherlands",
            "code": "NL",
            "continent": "Europe"
        }
    },
    {
        "coordinates": {
            "lat": 51.30093,
            "long": 5.89519
        },
        "type": "village",
        "name": "Heibloem",
        "country": {
            "name": "The Netherlands",
            "code": "NL",
            "continent": "Europe"
        }
    },
    {
        "coordinates": {
            "lat": 51.3097693,
            "long": 3.3848221
        },
        "type": "village",
        "name": "Sluis",
        "country": {
            "name": "The Netherlands",
            "code": "NL",
            "continent": "Europe"
        }
    },
    {
        "coordinates": {
            "lat": 51.3099361,
            "long": 3.782402
        },
        "type": "village",
        "name": "Hoek",
        "country": {
            "name": "The Netherlands",
            "code": "NL",
            "continent": "Europe"
        }
    },
    {
        "coordinates": {
            "lat": 51.3110115,
            "long": 6.1125855
        },
        "type": "village",
        "name": "Belfeld",
        "country": {
            "name": "The Netherlands",
            "code": "NL",
            "continent": "Europe"
        }
    },
    {
        "coordinates": {
            "lat": 51.3160604,
            "long": 4.0361963
        },
        "type": "village",
        "name": "Terhole",
        "country": {
            "name": "The Netherlands",
            "code": "NL",
            "continent": "Europe"
        }
    },
    {
        "coordinates": {
            "lat": 51.3177621,
            "long": 3.5556356
        },
        "type": "village",
        "name": "Waterlandkerkje",
        "country": {
            "name": "The Netherlands",
            "code": "NL",
            "continent": "Europe"
        }
    },
    {
        "coordinates": {
            "lat": 51.3207911,
            "long": 5.999173
        },
        "type": "village",
        "name": "Helden",
        "country": {
            "name": "The Netherlands",
            "code": "NL",
            "continent": "Europe"
        }
    },
    {
        "coordinates": {
            "lat": 51.3216031,
            "long": 3.6156341
        },
        "type": "village",
        "name": "IJzendijke",
        "country": {
            "name": "The Netherlands",
            "code": "NL",
            "continent": "Europe"
        }
    },
    {
        "coordinates": {
            "lat": 51.3249192,
            "long": 3.9723356
        },
        "type": "village",
        "name": "Vogelwaarde",
        "country": {
            "name": "The Netherlands",
            "code": "NL",
            "continent": "Europe"
        }
    },
    {
        "coordinates": {
            "lat": 51.3284919,
            "long": 3.6854246
        },
        "type": "village",
        "name": "Biervliet",
        "country": {
            "name": "The Netherlands",
            "code": "NL",
            "continent": "Europe"
        }
    },
    {
        "coordinates": {
            "lat": 51.3307501,
            "long": 4.1040403
        },
        "type": "village",
        "name": "Graauw",
        "country": {
            "name": "The Netherlands",
            "code": "NL",
            "continent": "Europe"
        }
    },
    {
        "coordinates": {
            "lat": 51.3321977,
            "long": 6.1212609
        },
        "type": "village",
        "name": "Steyl",
        "country": {
            "name": "The Netherlands",
            "code": "NL",
            "continent": "Europe"
        }
    },
    {
        "coordinates": {
            "lat": 51.33311,
            "long": 5.39633
        },
        "type": "village",
        "name": "Westerhoven",
        "country": {
            "name": "The Netherlands",
            "code": "NL",
            "continent": "Europe"
        }
    },
    {
        "coordinates": {
            "lat": 51.3413262,
            "long": 3.4506465
        },
        "type": "village",
        "name": "Zuidzande",
        "country": {
            "name": "The Netherlands",
            "code": "NL",
            "continent": "Europe"
        }
    },
    {
        "coordinates": {
            "lat": 51.341763,
            "long": 4.0340532
        },
        "type": "village",
        "name": "Kuitaart",
        "country": {
            "name": "The Netherlands",
            "code": "NL",
            "continent": "Europe"
        }
    },
    {
        "coordinates": {
            "lat": 51.3427973,
            "long": 6.1362837
        },
        "type": "town",
        "name": "Tegelen",
        "country": {
            "name": "The Netherlands",
            "code": "NL",
            "continent": "Europe"
        }
    },
    {
        "coordinates": {
            "lat": 51.3439946,
            "long": 3.9929222
        },
        "type": "village",
        "name": "Hengstdijk",
        "country": {
            "name": "The Netherlands",
            "code": "NL",
            "continent": "Europe"
        }
    },
    {
        "coordinates": {
            "lat": 51.3442546,
            "long": 5.8855232
        },
        "type": "village",
        "name": "Meijel",
        "country": {
            "name": "The Netherlands",
            "code": "NL",
            "continent": "Europe"
        }
    },
    {
        "coordinates": {
            "lat": 51.34875,
            "long": 3.38586
        },
        "type": "village",
        "name": "Retranchement",
        "country": {
            "name": "The Netherlands",
            "code": "NL",
            "continent": "Europe"
        }
    },
    {
        "coordinates": {
            "lat": 51.35099,
            "long": 5.61197
        },
        "type": "village",
        "name": "Sterksel",
        "country": {
            "name": "The Netherlands",
            "code": "NL",
            "continent": "Europe"
        }
    },
    {
        "coordinates": {
            "lat": 51.350688,
            "long": 5.4594497
        },
        "type": "town",
        "name": "Valkenswaard",
        "country": {
            "name": "The Netherlands",
            "code": "NL",
            "continent": "Europe"
        }
    },
    {
        "coordinates": {
            "lat": 51.3586071,
            "long": 6.0474169
        },
        "type": "village",
        "name": "Maasbree",
        "country": {
            "name": "The Netherlands",
            "code": "NL",
            "continent": "Europe"
        }
    },
    {
        "coordinates": {
            "lat": 51.359447,
            "long": 4.3956996
        },
        "type": "village",
        "name": "Putte",
        "country": {
            "name": "The Netherlands",
            "code": "NL",
            "continent": "Europe"
        }
    },
    {
        "coordinates": {
            "lat": 51.3675563,
            "long": 4.0105076
        },
        "type": "village",
        "name": "Kloosterzande",
        "country": {
            "name": "The Netherlands",
            "code": "NL",
            "continent": "Europe"
        }
    },
    {
        "coordinates": {
            "lat": 51.36916,
            "long": 3.46828
        },
        "type": "village",
        "name": "Nieuwvliet",
        "country": {
            "name": "The Netherlands",
            "code": "NL",
            "continent": "Europe"
        }
    },
    {
        "coordinates": {
            "lat": 51.3697185,
            "long": 5.2993186
        },
        "type": "village",
        "name": "Duizel",
        "country": {
            "name": "The Netherlands",
            "code": "NL",
            "continent": "Europe"
        }
    },
    {
        "coordinates": {
            "lat": 51.37023,
            "long": 5.26219
        },
        "type": "village",
        "name": "Hapert",
        "country": {
            "name": "The Netherlands",
            "code": "NL",
            "continent": "Europe"
        }
    },
    {
        "coordinates": {
            "lat": 51.3788407,
            "long": 5.3545631
        },
        "type": "village",
        "name": "Steensel",
        "country": {
            "name": "The Netherlands",
            "code": "NL",
            "continent": "Europe"
        }
    },
    {
        "coordinates": {
            "lat": 51.38203,
            "long": 4.02716
        },
        "type": "village",
        "name": "Walsoorden",
        "country": {
            "name": "The Netherlands",
            "code": "NL",
            "continent": "Europe"
        }
    },
    {
        "coordinates": {
            "lat": 51.3858887,
            "long": 5.7133677
        },
        "type": "town",
        "name": "Someren",
        "country": {
            "name": "The Netherlands",
            "code": "NL",
            "continent": "Europe"
        }
    },
    {
        "coordinates": {
            "lat": 51.3876404,
            "long": 5.4476871
        },
        "type": "village",
        "name": "Waalre",
        "country": {
            "name": "The Netherlands",
            "code": "NL",
            "continent": "Europe"
        }
    },
    {
        "coordinates": {
            "lat": 51.3883662,
            "long": 3.9778566
        },
        "type": "village",
        "name": "Ossenisse",
        "country": {
            "name": "The Netherlands",
            "code": "NL",
            "continent": "Europe"
        }
    },
    {
        "coordinates": {
            "lat": 51.39022,
            "long": 5.9175
        },
        "type": "village",
        "name": "Helenaveen",
        "country": {
            "name": "The Netherlands",
            "code": "NL",
            "continent": "Europe"
        }
    },
    {
        "coordinates": {
            "lat": 51.39542,
            "long": 5.23835
        },
        "type": "village",
        "name": "Casteren",
        "country": {
            "name": "The Netherlands",
            "code": "NL",
            "continent": "Europe"
        }
    },
    {
        "coordinates": {
            "lat": 51.396709,
            "long": 5.2679083
        },
        "type": "village",
        "name": "Hoogeloon",
        "country": {
            "name": "The Netherlands",
            "code": "NL",
            "continent": "Europe"
        }
    },
    {
        "coordinates": {
            "lat": 51.3996182,
            "long": 5.344907
        },
        "type": "village",
        "name": "Knegsel",
        "country": {
            "name": "The Netherlands",
            "code": "NL",
            "continent": "Europe"
        }
    },
    {
        "coordinates": {
            "lat": 51.4037383,
            "long": 5.9591274
        },
        "type": "village",
        "name": "Evertsoord",
        "country": {
            "name": "The Netherlands",
            "code": "NL",
            "continent": "Europe"
        }
    },
    {
        "coordinates": {
            "lat": 51.4043498,
            "long": 5.7449218
        },
        "type": "town",
        "name": "Asten",
        "country": {
            "name": "The Netherlands",
            "code": "NL",
            "continent": "Europe"
        }
    },
    {
        "coordinates": {
            "lat": 51.4066691,
            "long": 5.1491649
        },
        "type": "village",
        "name": "Lage Mierde",
        "country": {
            "name": "The Netherlands",
            "code": "NL",
            "continent": "Europe"
        }
    },
    {
        "coordinates": {
            "lat": 51.408282,
            "long": 3.8530763
        },
        "type": "village",
        "name": "Oudelande",
        "country": {
            "name": "The Netherlands",
            "code": "NL",
            "continent": "Europe"
        }
    },
    {
        "coordinates": {
            "lat": 51.4155984,
            "long": 6.163293
        },
        "type": "village",
        "name": "Velden",
        "country": {
            "name": "The Netherlands",
            "code": "NL",
            "continent": "Europe"
        }
    },
    {
        "coordinates": {
            "lat": 51.41577,
            "long": 5.99952
        },
        "type": "village",
        "name": "Kronenberg",
        "country": {
            "name": "The Netherlands",
            "code": "NL",
            "continent": "Europe"
        }
    },
    {
        "coordinates": {
            "lat": 51.4159007,
            "long": 5.82029
        },
        "type": "village",
        "name": "Liessel",
        "country": {
            "name": "The Netherlands",
            "code": "NL",
            "continent": "Europe"
        }
    },
    {
        "coordinates": {
            "lat": 51.419252,
            "long": 5.2882066
        },
        "type": "village",
        "name": "Vessem",
        "country": {
            "name": "The Netherlands",
            "code": "NL",
            "continent": "Europe"
        }
    },
    {
        "coordinates": {
            "lat": 51.4196626,
            "long": 4.068992
        },
        "type": "village",
        "name": "Waarde",
        "country": {
            "name": "The Netherlands",
            "code": "NL",
            "continent": "Europe"
        }
    },
    {
        "coordinates": {
            "lat": 51.42549,
            "long": 3.73795
        },
        "type": "village",
        "name": "Borssele",
        "country": {
            "name": "The Netherlands",
            "code": "NL",
            "continent": "Europe"
        }
    },
    {
        "coordinates": {
            "lat": 51.4288303,
            "long": 3.8243529
        },
        "type": "village",
        "name": "Ovezande",
        "country": {
            "name": "The Netherlands",
            "code": "NL",
            "continent": "Europe"
        }
    },
    {
        "coordinates": {
            "lat": 51.4325784,
            "long": 3.8776854
        },
        "type": "village",
        "name": "Kwadendamme",
        "country": {
            "name": "The Netherlands",
            "code": "NL",
            "continent": "Europe"
        }
    },
    {
        "coordinates": {
            "lat": 51.4328925,
            "long": 4.3768981
        },
        "type": "village",
        "name": "Huijbergen",
        "country": {
            "name": "The Netherlands",
            "code": "NL",
            "continent": "Europe"
        }
    },
    {
        "coordinates": {
            "lat": 51.4368367,
            "long": 5.9836339
        },
        "type": "village",
        "name": "America",
        "country": {
            "name": "The Netherlands",
            "code": "NL",
            "continent": "Europe"
        }
    },
    {
        "coordinates": {
            "lat": 51.4437373,
            "long": 4.0771995
        },
        "type": "village",
        "name": "Oostdijk",
        "country": {
            "name": "The Netherlands",
            "code": "NL",
            "continent": "Europe"
        }
    },
    {
        "coordinates": {
            "lat": 51.44415,
            "long": 5.75956
        },
        "type": "village",
        "name": "Vlierden",
        "country": {
            "name": "The Netherlands",
            "code": "NL",
            "continent": "Europe"
        }
    },
    {
        "coordinates": {
            "lat": 51.44437,
            "long": 5.88895
        },
        "type": "village",
        "name": "Griendtsveen",
        "country": {
            "name": "The Netherlands",
            "code": "NL",
            "continent": "Europe"
        }
    },
    {
        "coordinates": {
            "lat": 51.4457,
            "long": 6.16918
        },
        "type": "village",
        "name": "Lomm",
        "country": {
            "name": "The Netherlands",
            "code": "NL",
            "continent": "Europe"
        }
    },
    {
        "coordinates": {
            "lat": 51.4536144,
            "long": 3.7690429
        },
        "type": "village",
        "name": "'s-Heerenhoek",
        "country": {
            "name": "The Netherlands",
            "code": "NL",
            "continent": "Europe"
        }
    },
    {
        "coordinates": {
            "lat": 51.4542236,
            "long": 4.6423877
        },
        "type": "village",
        "name": "Wernhout",
        "country": {
            "name": "The Netherlands",
            "code": "NL",
            "continent": "Europe"
        }
    },
    {
        "coordinates": {
            "lat": 51.4549782,
            "long": 4.5848555
        },
        "type": "village",
        "name": "Achtmaal",
        "country": {
            "name": "The Netherlands",
            "code": "NL",
            "continent": "Europe"
        }
    },
    {
        "coordinates": {
            "lat": 51.45579,
            "long": 6.02438
        },
        "type": "village",
        "name": "Meterik",
        "country": {
            "name": "The Netherlands",
            "code": "NL",
            "continent": "Europe"
        }
    },
    {
        "coordinates": {
            "lat": 51.4572509,
            "long": 3.8537096
        },
        "type": "village",
        "name": "Nisse",
        "country": {
            "name": "The Netherlands",
            "code": "NL",
            "continent": "Europe"
        }
    },
    {
        "coordinates": {
            "lat": 51.4578726,
            "long": 4.8564757
        },
        "type": "village",
        "name": "Ulicoten",
        "country": {
            "name": "The Netherlands",
            "code": "NL",
            "continent": "Europe"
        }
    },
    {
        "coordinates": {
            "lat": 51.4591042,
            "long": 3.9023508
        },
        "type": "village",
        "name": "'s-Gravenpolder",
        "country": {
            "name": "The Netherlands",
            "code": "NL",
            "continent": "Europe"
        }
    },
    {
        "coordinates": {
            "lat": 51.4615912,
            "long": 6.085512
        },
        "type": "village",
        "name": "Melderslo",
        "country": {
            "name": "The Netherlands",
            "code": "NL",
            "continent": "Europe"
        }
    },
    {
        "coordinates": {
            "lat": 51.4621186,
            "long": 5.1374926
        },
        "type": "village",
        "name": "Esbeek",
        "country": {
            "name": "The Netherlands",
            "code": "NL",
            "continent": "Europe"
        }
    },
    {
        "coordinates": {
            "lat": 51.4628262,
            "long": 3.9990057
        },
        "type": "village",
        "name": "Schore",
        "country": {
            "name": "The Netherlands",
            "code": "NL",
            "continent": "Europe"
        }
    },
    {
        "coordinates": {
            "lat": 51.4708172,
            "long": 3.8807753
        },
        "type": "village",
        "name": "'s-Heer Abtskerke",
        "country": {
            "name": "The Netherlands",
            "code": "NL",
            "continent": "Europe"
        }
    },
    {
        "coordinates": {
            "lat": 51.47259,
            "long": 5.17585
        },
        "type": "village",
        "name": "Diessen",
        "country": {
            "name": "The Netherlands",
            "code": "NL",
            "continent": "Europe"
        }
    },
    {
        "coordinates": {
            "lat": 51.4754702,
            "long": 3.9599069
        },
        "type": "village",
        "name": "Biezelinge",
        "country": {
            "name": "The Netherlands",
            "code": "NL",
            "continent": "Europe"
        }
    },
    {
        "coordinates": {
            "lat": 51.4794602,
            "long": 4.6567217
        },
        "type": "village",
        "name": "Klein Zundert",
        "country": {
            "name": "The Netherlands",
            "code": "NL",
            "continent": "Europe"
        }
    },
    {
        "coordinates": {
            "lat": 51.4824036,
            "long": 3.5575862
        },
        "type": "village",
        "name": "Koudekerke",
        "country": {
            "name": "The Netherlands",
            "code": "NL",
            "continent": "Europe"
        }
    },
    {
        "coordinates": {
            "lat": 51.4834018,
            "long": 4.461211
        },
        "type": "village",
        "name": "Nispen",
        "country": {
            "name": "The Netherlands",
            "code": "NL",
            "continent": "Europe"
        }
    },
    {
        "coordinates": {
            "lat": 51.48776,
            "long": 6.16323
        },
        "type": "village",
        "name": "Broekhuizen",
        "country": {
            "name": "The Netherlands",
            "code": "NL",
            "continent": "Europe"
        }
    },
    {
        "coordinates": {
            "lat": 51.4903425,
            "long": 5.8961145
        },
        "type": "village",
        "name": "Ysselsteyn",
        "country": {
            "name": "The Netherlands",
            "code": "NL",
            "continent": "Europe"
        }
    },
    {
        "coordinates": {
            "lat": 51.49513,
            "long": 6.09469
        },
        "type": "village",
        "name": "Tienray",
        "country": {
            "name": "The Netherlands",
            "code": "NL",
            "continent": "Europe"
        }
    },
    {
        "coordinates": {
            "lat": 51.49586,
            "long": 6.15681
        },
        "type": "village",
        "name": "Broekhuizenvorst",
        "country": {
            "name": "The Netherlands",
            "code": "NL",
            "continent": "Europe"
        }
    },
    {
        "coordinates": {
            "lat": 51.4975519,
            "long": 4.5616806
        },
        "type": "village",
        "name": "Schijf",
        "country": {
            "name": "The Netherlands",
            "code": "NL",
            "continent": "Europe"
        }
    },
    {
        "coordinates": {
            "lat": 51.4995602,
            "long": 3.5257678
        },
        "type": "village",
        "name": "Biggekerke",
        "country": {
            "name": "The Netherlands",
            "code": "NL",
            "continent": "Europe"
        }
    },
    {
        "coordinates": {
            "lat": 51.5000162,
            "long": 3.6761329
        },
        "type": "village",
        "name": "Arnemuiden",
        "country": {
            "name": "The Netherlands",
            "code": "NL",
            "continent": "Europe"
        }
    },
    {
        "coordinates": {
            "lat": 51.5036525,
            "long": 5.7397091
        },
        "type": "village",
        "name": "Bakel",
        "country": {
            "name": "The Netherlands",
            "code": "NL",
            "continent": "Europe"
        }
    },
    {
        "coordinates": {
            "lat": 51.50574,
            "long": 5.9511
        },
        "type": "village",
        "name": "Heide",
        "country": {
            "name": "The Netherlands",
            "code": "NL",
            "continent": "Europe"
        }
    },
    {
        "coordinates": {
            "lat": 51.5055105,
            "long": 4.8605732
        },
        "type": "village",
        "name": "Chaam",
        "country": {
            "name": "The Netherlands",
            "code": "NL",
            "continent": "Europe"
        }
    },
    {
        "coordinates": {
            "lat": 51.5089714,
            "long": 5.1551528
        },
        "type": "village",
        "name": "Biest-Houtakker",
        "country": {
            "name": "The Netherlands",
            "code": "NL",
            "continent": "Europe"
        }
    },
    {
        "coordinates": {
            "lat": 51.51099,
            "long": 6.03641
        },
        "type": "village",
        "name": "Oirlo",
        "country": {
            "name": "The Netherlands",
            "code": "NL",
            "continent": "Europe"
        }
    },
    {
        "coordinates": {
            "lat": 51.5098121,
            "long": 5.6378748
        },
        "type": "village",
        "name": "Aarle-Rixtel",
        "country": {
            "name": "The Netherlands",
            "code": "NL",
            "continent": "Europe"
        }
    },
    {
        "coordinates": {
            "lat": 51.5143395,
            "long": 3.5102105
        },
        "type": "village",
        "name": "Meliskerke",
        "country": {
            "name": "The Netherlands",
            "code": "NL",
            "continent": "Europe"
        }
    },
    {
        "coordinates": {
            "lat": 51.5183153,
            "long": 3.9951359
        },
        "type": "village",
        "name": "Wemeldinge",
        "country": {
            "name": "The Netherlands",
            "code": "NL",
            "continent": "Europe"
        }
    },
    {
        "coordinates": {
            "lat": 51.52296,
            "long": 4.38818
        },
        "type": "village",
        "name": "Wouw",
        "country": {
            "name": "The Netherlands",
            "code": "NL",
            "continent": "Europe"
        }
    },
    {
        "coordinates": {
            "lat": 51.5256962,
            "long": 5.0229532
        },
        "type": "village",
        "name": "Riel",
        "country": {
            "name": "The Netherlands",
            "code": "NL",
            "continent": "Europe"
        }
    },
    {
        "coordinates": {
            "lat": 51.53545,
            "long": 6.13883
        },
        "type": "village",
        "name": "Wellerlooi",
        "country": {
            "name": "The Netherlands",
            "code": "NL",
            "continent": "Europe"
        }
    },
    {
        "coordinates": {
            "lat": 51.53722,
            "long": 4.59689
        },
        "type": "village",
        "name": "Sprundel",
        "country": {
            "name": "The Netherlands",
            "code": "NL",
            "continent": "Europe"
        }
    },
    {
        "coordinates": {
            "lat": 51.5373721,
            "long": 6.0769201
        },
        "type": "village",
        "name": "Wanssum",
        "country": {
            "name": "The Netherlands",
            "code": "NL",
            "continent": "Europe"
        }
    },
    {
        "coordinates": {
            "lat": 51.5392871,
            "long": 3.6565959
        },
        "type": "village",
        "name": "Zanddijk",
        "country": {
            "name": "The Netherlands",
            "code": "NL",
            "continent": "Europe"
        }
    },
    {
        "coordinates": {
            "lat": 51.5403294,
            "long": 5.7089062
        },
        "type": "village",
        "name": "De Mortel",
        "country": {
            "name": "The Netherlands",
            "code": "NL",
            "continent": "Europe"
        }
    },
    {
        "coordinates": {
            "lat": 51.5406414,
            "long": 5.5709651
        },
        "type": "village",
        "name": "Mariahout",
        "country": {
            "name": "The Netherlands",
            "code": "NL",
            "continent": "Europe"
        }
    },
    {
        "coordinates": {
            "lat": 51.5407246,
            "long": 4.3425938
        },
        "type": "village",
        "name": "Moerstraten",
        "country": {
            "name": "The Netherlands",
            "code": "NL",
            "continent": "Europe"
        }
    },
    {
        "coordinates": {
            "lat": 51.5456154,
            "long": 4.1447012
        },
        "type": "village",
        "name": "Poortvliet",
        "country": {
            "name": "The Netherlands",
            "code": "NL",
            "continent": "Europe"
        }
    },
    {
        "coordinates": {
            "lat": 51.5482327,
            "long": 4.2729161
        },
        "type": "village",
        "name": "Lepelstraat",
        "country": {
            "name": "The Netherlands",
            "code": "NL",
            "continent": "Europe"
        }
    },
    {
        "coordinates": {
            "lat": 51.5490074,
            "long": 4.7980967
        },
        "type": "village",
        "name": "Ulvenhout",
        "country": {
            "name": "The Netherlands",
            "code": "NL",
            "continent": "Europe"
        }
    },
    {
        "coordinates": {
            "lat": 51.5506829,
            "long": 6.0501116
        },
        "type": "village",
        "name": "Geijsteren",
        "country": {
            "name": "The Netherlands",
            "code": "NL",
            "continent": "Europe"
        }
    },
    {
        "coordinates": {
            "lat": 51.55606,
            "long": 4.5164
        },
        "type": "village",
        "name": "Zegge",
        "country": {
            "name": "The Netherlands",
            "code": "NL",
            "continent": "Europe"
        }
    },
    {
        "coordinates": {
            "lat": 51.5618073,
            "long": 4.5441863
        },
        "type": "village",
        "name": "Bosschenhoofd",
        "country": {
            "name": "The Netherlands",
            "code": "NL",
            "continent": "Europe"
        }
    },
    {
        "coordinates": {
            "lat": 51.5621648,
            "long": 3.4943701
        },
        "type": "village",
        "name": "Domburg",
        "country": {
            "name": "The Netherlands",
            "code": "NL",
            "continent": "Europe"
        }
    },
    {
        "coordinates": {
            "lat": 51.56565,
            "long": 4.82961
        },
        "type": "village",
        "name": "Bavel",
        "country": {
            "name": "The Netherlands",
            "code": "NL",
            "continent": "Europe"
        }
    },
    {
        "coordinates": {
            "lat": 51.5659134,
            "long": 5.4657052
        },
        "type": "town",
        "name": "Sint-Oedenrode",
        "country": {
            "name": "The Netherlands",
            "code": "NL",
            "continent": "Europe"
        }
    },
    {
        "coordinates": {
            "lat": 51.5662934,
            "long": 6.0040474
        },
        "type": "village",
        "name": "Smakt",
        "country": {
            "name": "The Netherlands",
            "code": "NL",
            "continent": "Europe"
        }
    },
    {
        "coordinates": {
            "lat": 51.5687338,
            "long": 4.406126
        },
        "type": "village",
        "name": "Kruisland",
        "country": {
            "name": "The Netherlands",
            "code": "NL",
            "continent": "Europe"
        }
    },
    {
        "coordinates": {
            "lat": 51.57017,
            "long": 4.19884
        },
        "type": "village",
        "name": "Oud-Vossemeer",
        "country": {
            "name": "The Netherlands",
            "code": "NL",
            "continent": "Europe"
        }
    },
    {
        "coordinates": {
            "lat": 51.57239,
            "long": 5.36949
        },
        "type": "village",
        "name": "Liempde",
        "country": {
            "name": "The Netherlands",
            "code": "NL",
            "continent": "Europe"
        }
    },
    {
        "coordinates": {
            "lat": 51.5740182,
            "long": 6.0050546
        },
        "type": "village",
        "name": "Holthees",
        "country": {
            "name": "The Netherlands",
            "code": "NL",
            "continent": "Europe"
        }
    },
    {
        "coordinates": {
            "lat": 51.5778784,
            "long": 4.5901693
        },
        "type": "village",
        "name": "Hoeven",
        "country": {
            "name": "The Netherlands",
            "code": "NL",
            "continent": "Europe"
        }
    },
    {
        "coordinates": {
            "lat": 51.5813308,
            "long": 5.7686983
        },
        "type": "village",
        "name": "Elsendorp",
        "country": {
            "name": "The Netherlands",
            "code": "NL",
            "continent": "Europe"
        }
    },
    {
        "coordinates": {
            "lat": 51.5823448,
            "long": 5.8643478
        },
        "type": "village",
        "name": "Westerbeek",
        "country": {
            "name": "The Netherlands",
            "code": "NL",
            "continent": "Europe"
        }
    },
    {
        "coordinates": {
            "lat": 51.58586,
            "long": 5.14118
        },
        "type": "village",
        "name": "Berkel-Enschot",
        "country": {
            "name": "The Netherlands",
            "code": "NL",
            "continent": "Europe"
        }
    },
    {
        "coordinates": {
            "lat": 51.5859296,
            "long": 4.0126394
        },
        "type": "village",
        "name": "Stavenisse",
        "country": {
            "name": "The Netherlands",
            "code": "NL",
            "continent": "Europe"
        }
    },
    {
        "coordinates": {
            "lat": 51.58902,
            "long": 4.22041
        },
        "type": "village",
        "name": "Nieuw-Vossemeer",
        "country": {
            "name": "The Netherlands",
            "code": "NL",
            "continent": "Europe"
        }
    },
    {
        "coordinates": {
            "lat": 51.59025,
            "long": 4.85912
        },
        "type": "village",
        "name": "Dorst",
        "country": {
            "name": "The Netherlands",
            "code": "NL",
            "continent": "Europe"
        }
    },
    {
        "coordinates": {
            "lat": 51.6012568,
            "long": 6.0469005
        },
        "type": "village",
        "name": "Bergen",
        "country": {
            "name": "The Netherlands",
            "code": "NL",
            "continent": "Europe"
        }
    },
    {
        "coordinates": {
            "lat": 51.6004767,
            "long": 5.6064592
        },
        "type": "village",
        "name": "Erp",
        "country": {
            "name": "The Netherlands",
            "code": "NL",
            "continent": "Europe"
        }
    },
    {
        "coordinates": {
            "lat": 51.6020032,
            "long": 4.104364
        },
        "type": "village",
        "name": "Sint Annaland",
        "country": {
            "name": "The Netherlands",
            "code": "NL",
            "continent": "Europe"
        }
    },
    {
        "coordinates": {
            "lat": 51.6081069,
            "long": 5.738597
        },
        "type": "village",
        "name": "Venhorst",
        "country": {
            "name": "The Netherlands",
            "code": "NL",
            "continent": "Europe"
        }
    },
    {
        "coordinates": {
            "lat": 51.6072179,
            "long": 5.8740641
        },
        "type": "village",
        "name": "Oploo",
        "country": {
            "name": "The Netherlands",
            "code": "NL",
            "continent": "Europe"
        }
    },
    {
        "coordinates": {
            "lat": 51.6081157,
            "long": 5.9980445
        },
        "type": "village",
        "name": "Groeningen",
        "country": {
            "name": "The Netherlands",
            "code": "NL",
            "continent": "Europe"
        }
    },
    {
        "coordinates": {
            "lat": 51.610319,
            "long": 4.8219471
        },
        "type": "village",
        "name": "Teteringen",
        "country": {
            "name": "The Netherlands",
            "code": "NL",
            "continent": "Europe"
        }
    },
    {
        "coordinates": {
            "lat": 51.610346,
            "long": 4.5153685
        },
        "type": "village",
        "name": "Standdaarbuiten",
        "country": {
            "name": "The Netherlands",
            "code": "NL",
            "continent": "Europe"
        }
    },
    {
        "coordinates": {
            "lat": 51.6123525,
            "long": 4.4390554
        },
        "type": "village",
        "name": "Stampersgat",
        "country": {
            "name": "The Netherlands",
            "code": "NL",
            "continent": "Europe"
        }
    },
    {
        "coordinates": {
            "lat": 51.618554,
            "long": 5.3549579
        },
        "type": "village",
        "name": "Gemonde",
        "country": {
            "name": "The Netherlands",
            "code": "NL",
            "continent": "Europe"
        }
    },
    {
        "coordinates": {
            "lat": 51.62069,
            "long": 5.97794
        },
        "type": "village",
        "name": "Vortum-Mullem",
        "country": {
            "name": "The Netherlands",
            "code": "NL",
            "continent": "Europe"
        }
    },
    {
        "coordinates": {
            "lat": 51.6238393,
            "long": 5.1784928
        },
        "type": "village",
        "name": "Biezenmortel",
        "country": {
            "name": "The Netherlands",
            "code": "NL",
            "continent": "Europe"
        }
    },
    {
        "coordinates": {
            "lat": 51.6237905,
            "long": 5.0136593
        },
        "type": "village",
        "name": "De Moer",
        "country": {
            "name": "The Netherlands",
            "code": "NL",
            "continent": "Europe"
        }
    },
    {
        "coordinates": {
            "lat": 51.6264405,
            "long": 5.0687815
        },
        "type": "village",
        "name": "Loon op Zand",
        "country": {
            "name": "The Netherlands",
            "code": "NL",
            "continent": "Europe"
        }
    },
    {
        "coordinates": {
            "lat": 51.63197,
            "long": 6.01358
        },
        "type": "village",
        "name": "Afferden",
        "country": {
            "name": "The Netherlands",
            "code": "NL",
            "continent": "Europe"
        }
    },
    {
        "coordinates": {
            "lat": 51.63339,
            "long": 4.3666083
        },
        "type": "village",
        "name": "Dinteloord",
        "country": {
            "name": "The Netherlands",
            "code": "NL",
            "continent": "Europe"
        }
    },
    {
        "coordinates": {
            "lat": 51.6336388,
            "long": 5.2290649
        },
        "type": "village",
        "name": "Helvoirt",
        "country": {
            "name": "The Netherlands",
            "code": "NL",
            "continent": "Europe"
        }
    },
    {
        "coordinates": {
            "lat": 51.63913,
            "long": 4.12687
        },
        "type": "village",
        "name": "Anna Jacobapolder",
        "country": {
            "name": "The Netherlands",
            "code": "NL",
            "continent": "Europe"
        }
    },
    {
        "coordinates": {
            "lat": 51.642956,
            "long": 4.5335682
        },
        "type": "village",
        "name": "Noordhoek",
        "country": {
            "name": "The Netherlands",
            "code": "NL",
            "continent": "Europe"
        }
    },
    {
        "coordinates": {
            "lat": 51.6440771,
            "long": 5.6557033
        },
        "type": "village",
        "name": "Volkel",
        "country": {
            "name": "The Netherlands",
            "code": "NL",
            "continent": "Europe"
        }
    },
    {
        "coordinates": {
            "lat": 51.644061,
            "long": 5.7035012
        },
        "type": "village",
        "name": "Odiliapeel",
        "country": {
            "name": "The Netherlands",
            "code": "NL",
            "continent": "Europe"
        }
    },
    {
        "coordinates": {
            "lat": 51.64481,
            "long": 4.90013
        },
        "type": "village",
        "name": "Oosteind",
        "country": {
            "name": "The Netherlands",
            "code": "NL",
            "continent": "Europe"
        }
    },
    {
        "coordinates": {
            "lat": 51.646097,
            "long": 3.9997177
        },
        "type": "village",
        "name": "Nieuwerkerk",
        "country": {
            "name": "The Netherlands",
            "code": "NL",
            "continent": "Europe"
        }
    },
    {
        "coordinates": {
            "lat": 51.648682,
            "long": 4.6666696
        },
        "type": "village",
        "name": "Langeweg",
        "country": {
            "name": "The Netherlands",
            "code": "NL",
            "continent": "Europe"
        }
    },
    {
        "coordinates": {
            "lat": 51.6493851,
            "long": 6.1066524
        },
        "type": "village",
        "name": "Siebengewald",
        "country": {
            "name": "The Netherlands",
            "code": "NL",
            "continent": "Europe"
        }
    },
    {
        "coordinates": {
            "lat": 51.6495687,
            "long": 5.4723294
        },
        "type": "village",
        "name": "Heeswijk-Dinther",
        "country": {
            "name": "The Netherlands",
            "code": "NL",
            "continent": "Europe"
        }
    },
    {
        "coordinates": {
            "lat": 51.6521966,
            "long": 5.5512521
        },
        "type": "village",
        "name": "Vorstenbosch",
        "country": {
            "name": "The Netherlands",
            "code": "NL",
            "continent": "Europe"
        }
    },
    {
        "coordinates": {
            "lat": 51.6553303,
            "long": 5.7739021
        },
        "type": "village",
        "name": "Wilbertoord",
        "country": {
            "name": "The Netherlands",
            "code": "NL",
            "continent": "Europe"
        }
    },
    {
        "coordinates": {
            "lat": 51.6565328,
            "long": 5.8209882
        },
        "type": "village",
        "name": "Wanroij",
        "country": {
            "name": "The Netherlands",
            "code": "NL",
            "continent": "Europe"
        }
    },
    {
        "coordinates": {
            "lat": 51.6571654,
            "long": 4.4102911
        },
        "type": "village",
        "name": "Heijningen",
        "country": {
            "name": "The Netherlands",
            "code": "NL",
            "continent": "Europe"
        }
    },
    {
        "coordinates": {
            "lat": 51.6572588,
            "long": 4.8136211
        },
        "type": "village",
        "name": "Den Hout",
        "country": {
            "name": "The Netherlands",
            "code": "NL",
            "continent": "Europe"
        }
    },
    {
        "coordinates": {
            "lat": 51.6572559,
            "long": 5.8850488
        },
        "type": "village",
        "name": "Rijkevoort",
        "country": {
            "name": "The Netherlands",
            "code": "NL",
            "continent": "Europe"
        }
    },
    {
        "coordinates": {
            "lat": 51.66269,
            "long": 4.53515
        },
        "type": "village",
        "name": "Klundert",
        "country": {
            "name": "The Netherlands",
            "code": "NL",
            "continent": "Europe"
        }
    },
    {
        "coordinates": {
            "lat": 51.6656953,
            "long": 5.3701422
        },
        "type": "village",
        "name": "Den Dungen",
        "country": {
            "name": "The Netherlands",
            "code": "NL",
            "continent": "Europe"
        }
    },
    {
        "coordinates": {
            "lat": 51.6706233,
            "long": 5.0254534
        },
        "type": "village",
        "name": "Sprang-Capelle",
        "country": {
            "name": "The Netherlands",
            "code": "NL",
            "continent": "Europe"
        }
    },
    {
        "coordinates": {
            "lat": 51.67368,
            "long": 5.93993
        },
        "type": "village",
        "name": "Beugen",
        "country": {
            "name": "The Netherlands",
            "code": "NL",
            "continent": "Europe"
        }
    },
    {
        "coordinates": {
            "lat": 51.6740946,
            "long": 5.9772829
        },
        "type": "village",
        "name": "Heijen",
        "country": {
            "name": "The Netherlands",
            "code": "NL",
            "continent": "Europe"
        }
    },
    {
        "coordinates": {
            "lat": 51.6757955,
            "long": 4.0320758
        },
        "type": "village",
        "name": "Sirjansland",
        "country": {
            "name": "The Netherlands",
            "code": "NL",
            "continent": "Europe"
        }
    },
    {
        "coordinates": {
            "lat": 51.6770378,
            "long": 5.8100337
        },
        "type": "village",
        "name": "Sint Hubert",
        "country": {
            "name": "The Netherlands",
            "code": "NL",
            "continent": "Europe"
        }
    },
    {
        "coordinates": {
            "lat": 51.678681,
            "long": 5.398937
        },
        "type": "village",
        "name": "Berlicum",
        "country": {
            "name": "The Netherlands",
            "code": "NL",
            "continent": "Europe"
        }
    },
    {
        "coordinates": {
            "lat": 51.6798981,
            "long": 5.5095561
        },
        "type": "village",
        "name": "Loosbroek",
        "country": {
            "name": "The Netherlands",
            "code": "NL",
            "continent": "Europe"
        }
    },
    {
        "coordinates": {
            "lat": 51.6823494,
            "long": 4.3473064
        },
        "type": "village",
        "name": "Ooltgensplaat",
        "country": {
            "name": "The Netherlands",
            "code": "NL",
            "continent": "Europe"
        }
    },
    {
        "coordinates": {
            "lat": 51.68415,
            "long": 4.74952
        },
        "type": "village",
        "name": "Hooge Zwaluwe",
        "country": {
            "name": "The Netherlands",
            "code": "NL",
            "continent": "Europe"
        }
    },
    {
        "coordinates": {
            "lat": 51.6862488,
            "long": 3.8983053
        },
        "type": "village",
        "name": "Kerkwerve",
        "country": {
            "name": "The Netherlands",
            "code": "NL",
            "continent": "Europe"
        }
    },
    {
        "coordinates": {
            "lat": 51.688347,
            "long": 4.9090688
        },
        "type": "village",
        "name": "Raamsdonk",
        "country": {
            "name": "The Netherlands",
            "code": "NL",
            "continent": "Europe"
        }
    },
    {
        "coordinates": {
            "lat": 51.68855,
            "long": 5.86257
        },
        "type": "village",
        "name": "Haps",
        "country": {
            "name": "The Netherlands",
            "code": "NL",
            "continent": "Europe"
        }
    },
    {
        "coordinates": {
            "lat": 51.68898,
            "long": 3.9814
        },
        "type": "village",
        "name": "Dreischor",
        "country": {
            "name": "The Netherlands",
            "code": "NL",
            "continent": "Europe"
        }
    },
    {
        "coordinates": {
            "lat": 51.6935265,
            "long": 3.9382644
        },
        "type": "village",
        "name": "Noordgouwe",
        "country": {
            "name": "The Netherlands",
            "code": "NL",
            "continent": "Europe"
        }
    },
    {
        "coordinates": {
            "lat": 51.6985165,
            "long": 5.9299991
        },
        "type": "village",
        "name": "Oeffelt",
        "country": {
            "name": "The Netherlands",
            "code": "NL",
            "continent": "Europe"
        }
    },
    {
        "coordinates": {
            "lat": 51.7020471,
            "long": 3.8144165
        },
        "type": "village",
        "name": "Serooskerke",
        "country": {
            "name": "The Netherlands",
            "code": "NL",
            "continent": "Europe"
        }
    },
    {
        "coordinates": {
            "lat": 51.7033761,
            "long": 4.6259107
        },
        "type": "village",
        "name": "Moerdijk",
        "country": {
            "name": "The Netherlands",
            "code": "NL",
            "continent": "Europe"
        }
    },
    {
        "coordinates": {
            "lat": 51.7050721,
            "long": 5.7275638
        },
        "type": "village",
        "name": "Langenboom",
        "country": {
            "name": "The Netherlands",
            "code": "NL",
            "continent": "Europe"
        }
    },
    {
        "coordinates": {
            "lat": 51.7055171,
            "long": 5.4614965
        },
        "type": "village",
        "name": "Vinkel",
        "country": {
            "name": "The Netherlands",
            "code": "NL",
            "continent": "Europe"
        }
    },
    {
        "coordinates": {
            "lat": 51.70543,
            "long": 5.56094
        },
        "type": "village",
        "name": "Nistelrode",
        "country": {
            "name": "The Netherlands",
            "code": "NL",
            "continent": "Europe"
        }
    },
    {
        "coordinates": {
            "lat": 51.7083004,
            "long": 4.7034908
        },
        "type": "village",
        "name": "Lage Zwaluwe",
        "country": {
            "name": "The Netherlands",
            "code": "NL",
            "continent": "Europe"
        }
    },
    {
        "coordinates": {
            "lat": 51.71016,
            "long": 5.20009
        },
        "type": "village",
        "name": "Haarsteeg",
        "country": {
            "name": "The Netherlands",
            "code": "NL",
            "continent": "Europe"
        }
    },
    {
        "coordinates": {
            "lat": 51.7132458,
            "long": 3.9524814
        },
        "type": "village",
        "name": "Zonnemaire",
        "country": {
            "name": "The Netherlands",
            "code": "NL",
            "continent": "Europe"
        }
    },
    {
        "coordinates": {
            "lat": 51.7138014,
            "long": 5.9104517
        },
        "type": "village",
        "name": "Sint Agatha",
        "country": {
            "name": "The Netherlands",
            "code": "NL",
            "continent": "Europe"
        }
    },
    {
        "coordinates": {
            "lat": 51.7142233,
            "long": 4.5860482
        },
        "type": "village",
        "name": "Strijensas",
        "country": {
            "name": "The Netherlands",
            "code": "NL",
            "continent": "Europe"
        }
    },
    {
        "coordinates": {
            "lat": 51.71603,
            "long": 5.0553
        },
        "type": "village",
        "name": "Drongelen",
        "country": {
            "name": "The Netherlands",
            "code": "NL",
            "continent": "Europe"
        }
    },
    {
        "coordinates": {
            "lat": 51.7170642,
            "long": 4.280785
        },
        "type": "village",
        "name": "Den Bommel",
        "country": {
            "name": "The Netherlands",
            "code": "NL",
            "continent": "Europe"
        }
    },
    {
        "coordinates": {
            "lat": 51.7177828,
            "long": 5.8572731
        },
        "type": "village",
        "name": "Vianen",
        "country": {
            "name": "The Netherlands",
            "code": "NL",
            "continent": "Europe"
        }
    },
    {
        "coordinates": {
            "lat": 51.7235212,
            "long": 5.9514906
        },
        "type": "village",
        "name": "Milsbeek",
        "country": {
            "name": "The Netherlands",
            "code": "NL",
            "continent": "Europe"
        }
    },
    {
        "coordinates": {
            "lat": 51.7240439,
            "long": 5.9156266
        },
        "type": "village",
        "name": "Middelaar",
        "country": {
            "name": "The Netherlands",
            "code": "NL",
            "continent": "Europe"
        }
    },
    {
        "coordinates": {
            "lat": 51.7255728,
            "long": 5.8318086
        },
        "type": "village",
        "name": "Beers",
        "country": {
            "name": "The Netherlands",
            "code": "NL",
            "continent": "Europe"
        }
    },
    {
        "coordinates": {
            "lat": 51.7268012,
            "long": 3.9098163
        },
        "type": "village",
        "name": "Brouwershaven",
        "country": {
            "name": "The Netherlands",
            "code": "NL",
            "continent": "Europe"
        }
    },
    {
        "coordinates": {
            "lat": 51.7281801,
            "long": 5.00824
        },
        "type": "village",
        "name": "Meeuwen",
        "country": {
            "name": "The Netherlands",
            "code": "NL",
            "continent": "Europe"
        }
    },
    {
        "coordinates": {
            "lat": 51.7291669,
            "long": 5.1549603
        },
        "type": "village",
        "name": "Herpt",
        "country": {
            "name": "The Netherlands",
            "code": "NL",
            "continent": "Europe"
        }
    },
    {
        "coordinates": {
            "lat": 51.7292859,
            "long": 4.9631598
        },
        "type": "village",
        "name": "Dussen",
        "country": {
            "name": "The Netherlands",
            "code": "NL",
            "continent": "Europe"
        }
    },
    {
        "coordinates": {
            "lat": 51.7298882,
            "long": 3.816077
        },
        "type": "village",
        "name": "Ellemeet",
        "country": {
            "name": "The Netherlands",
            "code": "NL",
            "continent": "Europe"
        }
    },
    {
        "coordinates": {
            "lat": 51.73071,
            "long": 5.05402
        },
        "type": "village",
        "name": "Eethen",
        "country": {
            "name": "The Netherlands",
            "code": "NL",
            "continent": "Europe"
        }
    },
    {
        "coordinates": {
            "lat": 51.73181,
            "long": 4.89344
        },
        "type": "village",
        "name": "Hank",
        "country": {
            "name": "The Netherlands",
            "code": "NL",
            "continent": "Europe"
        }
    },
    {
        "coordinates": {
            "lat": 51.73407,
            "long": 5.186
        },
        "type": "village",
        "name": "Hedikhuizen",
        "country": {
            "name": "The Netherlands",
            "code": "NL",
            "continent": "Europe"
        }
    },
    {
        "coordinates": {
            "lat": 51.73429,
            "long": 5.87416
        },
        "type": "town",
        "name": "Cuijk",
        "country": {
            "name": "The Netherlands",
            "code": "NL",
            "continent": "Europe"
        }
    },
    {
        "coordinates": {
            "lat": 51.7357872,
            "long": 3.8394418
        },
        "type": "village",
        "name": "Scharendijke",
        "country": {
            "name": "The Netherlands",
            "code": "NL",
            "continent": "Europe"
        }
    },
    {
        "coordinates": {
            "lat": 51.73784,
            "long": 5.08957
        },
        "type": "village",
        "name": "Genderen",
        "country": {
            "name": "The Netherlands",
            "code": "NL",
            "continent": "Europe"
        }
    },
    {
        "coordinates": {
            "lat": 51.7379773,
            "long": 5.9245029
        },
        "type": "village",
        "name": "Plasmolen",
        "country": {
            "name": "The Netherlands",
            "code": "NL",
            "continent": "Europe"
        }
    },
    {
        "coordinates": {
            "lat": 51.74139,
            "long": 5.7482
        },
        "type": "village",
        "name": "Escharen",
        "country": {
            "name": "The Netherlands",
            "code": "NL",
            "continent": "Europe"
        }
    },
    {
        "coordinates": {
            "lat": 51.74254,
            "long": 5.02516
        },
        "type": "village",
        "name": "Babyloninbroek",
        "country": {
            "name": "The Netherlands",
            "code": "NL",
            "continent": "Europe"
        }
    },
    {
        "coordinates": {
            "lat": 51.7431309,
            "long": 4.5537144
        },
        "type": "village",
        "name": "Strijen",
        "country": {
            "name": "The Netherlands",
            "code": "NL",
            "continent": "Europe"
        }
    },
    {
        "coordinates": {
            "lat": 51.7448491,
            "long": 5.2053264
        },
        "type": "village",
        "name": "Well",
        "country": {
            "name": "The Netherlands",
            "code": "NL",
            "continent": "Europe"
        }
    },
    {
        "coordinates": {
            "lat": 51.74658,
            "long": 5.68286
        },
        "type": "village",
        "name": "Reek",
        "country": {
            "name": "The Netherlands",
            "code": "NL",
            "continent": "Europe"
        }
    },
    {
        "coordinates": {
            "lat": 51.7486689,
            "long": 5.2249065
        },
        "type": "village",
        "name": "Ammerzoden",
        "country": {
            "name": "The Netherlands",
            "code": "NL",
            "continent": "Europe"
        }
    },
    {
        "coordinates": {
            "lat": 51.7486824,
            "long": 5.8286842
        },
        "type": "village",
        "name": "Linden",
        "country": {
            "name": "The Netherlands",
            "code": "NL",
            "continent": "Europe"
        }
    },
    {
        "coordinates": {
            "lat": 51.7492875,
            "long": 4.0990136
        },
        "type": "village",
        "name": "Dirksland",
        "country": {
            "name": "The Netherlands",
            "code": "NL",
            "continent": "Europe"
        }
    },
    {
        "coordinates": {
            "lat": 51.7519607,
            "long": 4.5957315
        },
        "type": "village",
        "name": "Mookhoek",
        "country": {
            "name": "The Netherlands",
            "code": "NL",
            "continent": "Europe"
        }
    },
    {
        "coordinates": {
            "lat": 51.7532625,
            "long": 5.3288715
        },
        "type": "village",
        "name": "Hoenzadriel",
        "country": {
            "name": "The Netherlands",
            "code": "NL",
            "continent": "Europe"
        }
    },
    {
        "coordinates": {
            "lat": 51.7615454,
            "long": 5.7164206
        },
        "type": "village",
        "name": "Velp",
        "country": {
            "name": "The Netherlands",
            "code": "NL",
            "continent": "Europe"
        }
    },
    {
        "coordinates": {
            "lat": 51.7616131,
            "long": 5.7881613
        },
        "type": "village",
        "name": "Overasselt",
        "country": {
            "name": "The Netherlands",
            "code": "NL",
            "continent": "Europe"
        }
    },
    {
        "coordinates": {
            "lat": 51.7699359,
            "long": 5.1876338
        },
        "type": "village",
        "name": "Delwijnen",
        "country": {
            "name": "The Netherlands",
            "code": "NL",
            "continent": "Europe"
        }
    },
    {
        "coordinates": {
            "lat": 51.7702627,
            "long": 5.3041796
        },
        "type": "village",
        "name": "Velddriel",
        "country": {
            "name": "The Netherlands",
            "code": "NL",
            "continent": "Europe"
        }
    },
    {
        "coordinates": {
            "lat": 51.7709706,
            "long": 5.5718961
        },
        "type": "village",
        "name": "Berghem",
        "country": {
            "name": "The Netherlands",
            "code": "NL",
            "continent": "Europe"
        }
    },
    {
        "coordinates": {
            "lat": 51.7713552,
            "long": 5.3372055
        },
        "type": "village",
        "name": "Kerkdriel",
        "country": {
            "name": "The Netherlands",
            "code": "NL",
            "continent": "Europe"
        }
    },
    {
        "coordinates": {
            "lat": 51.7717531,
            "long": 4.9646471
        },
        "type": "village",
        "name": "Almkerk",
        "country": {
            "name": "The Netherlands",
            "code": "NL",
            "continent": "Europe"
        }
    },
    {
        "coordinates": {
            "lat": 51.7731048,
            "long": 5.6433726
        },
        "type": "village",
        "name": "Herpen",
        "country": {
            "name": "The Netherlands",
            "code": "NL",
            "continent": "Europe"
        }
    },
    {
        "coordinates": {
            "lat": 51.77418,
            "long": 5.93065
        },
        "type": "town",
        "name": "Groesbeek",
        "country": {
            "name": "The Netherlands",
            "code": "NL",
            "continent": "Europe"
        }
    },
    {
        "coordinates": {
            "lat": 51.77476,
            "long": 5.67241
        },
        "type": "village",
        "name": "Overlangel",
        "country": {
            "name": "The Netherlands",
            "code": "NL",
            "continent": "Europe"
        }
    },
    {
        "coordinates": {
            "lat": 51.77691,
            "long": 5.00635
        },
        "type": "village",
        "name": "Waardhuizen",
        "country": {
            "name": "The Netherlands",
            "code": "NL",
            "continent": "Europe"
        }
    },
    {
        "coordinates": {
            "lat": 51.7785362,
            "long": 5.108323
        },
        "type": "village",
        "name": "Veen",
        "country": {
            "name": "The Netherlands",
            "code": "NL",
            "continent": "Europe"
        }
    },
    {
        "coordinates": {
            "lat": 51.7836599,
            "long": 5.1293419
        },
        "type": "village",
        "name": "Aalst",
        "country": {
            "name": "The Netherlands",
            "code": "NL",
            "continent": "Europe"
        }
    },
    {
        "coordinates": {
            "lat": 51.7856875,
            "long": 5.0068536
        },
        "type": "village",
        "name": "Uitwijk",
        "country": {
            "name": "The Netherlands",
            "code": "NL",
            "continent": "Europe"
        }
    },
    {
        "coordinates": {
            "lat": 51.7874265,
            "long": 5.0798426
        },
        "type": "village",
        "name": "Poederoijen",
        "country": {
            "name": "The Netherlands",
            "code": "NL",
            "continent": "Europe"
        }
    },
    {
        "coordinates": {
            "lat": 51.7879656,
            "long": 5.3444265
        },
        "type": "village",
        "name": "Alem",
        "country": {
            "name": "The Netherlands",
            "code": "NL",
            "continent": "Europe"
        }
    },
    {
        "coordinates": {
            "lat": 51.7877888,
            "long": 4.4737754
        },
        "type": "village",
        "name": "Westmaas",
        "country": {
            "name": "The Netherlands",
            "code": "NL",
            "continent": "Europe"
        }
    },
    {
        "coordinates": {
            "lat": 51.78946,
            "long": 5.67529
        },
        "type": "village",
        "name": "Neerloon",
        "country": {
            "name": "The Netherlands",
            "code": "NL",
            "continent": "Europe"
        }
    },
    {
        "coordinates": {
            "lat": 51.7897189,
            "long": 5.0336603
        },
        "type": "village",
        "name": "Giessen",
        "country": {
            "name": "The Netherlands",
            "code": "NL",
            "continent": "Europe"
        }
    },
    {
        "coordinates": {
            "lat": 51.7871821,
            "long": 5.2363614
        },
        "type": "village",
        "name": "Bruchem",
        "country": {
            "name": "The Netherlands",
            "code": "NL",
            "continent": "Europe"
        }
    },
    {
        "coordinates": {
            "lat": 51.7802241,
            "long": 5.8539184
        },
        "type": "village",
        "name": "Malden",
        "country": {
            "name": "The Netherlands",
            "code": "NL",
            "continent": "Europe"
        }
    },
    {
        "coordinates": {
            "lat": 51.79349,
            "long": 4.3122334
        },
        "type": "village",
        "name": "Piershil",
        "country": {
            "name": "The Netherlands",
            "code": "NL",
            "continent": "Europe"
        }
    },
    {
        "coordinates": {
            "lat": 51.7948859,
            "long": 5.6506023
        },
        "type": "village",
        "name": "Ravenstein",
        "country": {
            "name": "The Netherlands",
            "code": "NL",
            "continent": "Europe"
        }
    },
    {
        "coordinates": {
            "lat": 51.7961343,
            "long": 4.273768
        },
        "type": "village",
        "name": "Goudswaard",
        "country": {
            "name": "The Netherlands",
            "code": "NL",
            "continent": "Europe"
        }
    },
    {
        "coordinates": {
            "lat": 51.7965465,
            "long": 5.3918864
        },
        "type": "village",
        "name": "Maren-Kessel",
        "country": {
            "name": "The Netherlands",
            "code": "NL",
            "continent": "Europe"
        }
    },
    {
        "coordinates": {
            "lat": 51.7984549,
            "long": 5.0237445
        },
        "type": "village",
        "name": "Rijswijk",
        "country": {
            "name": "The Netherlands",
            "code": "NL",
            "continent": "Europe"
        }
    },
    {
        "coordinates": {
            "lat": 51.7987621,
            "long": 4.4875338
        },
        "type": "village",
        "name": "Mijnsheerenland",
        "country": {
            "name": "The Netherlands",
            "code": "NL",
            "continent": "Europe"
        }
    },
    {
        "coordinates": {
            "lat": 51.79952,
            "long": 5.46054
        },
        "type": "village",
        "name": "Lithoijen",
        "country": {
            "name": "The Netherlands",
            "code": "NL",
            "continent": "Europe"
        }
    },
    {
        "coordinates": {
            "lat": 51.8001242,
            "long": 5.2059443
        },
        "type": "village",
        "name": "Gameren",
        "country": {
            "name": "The Netherlands",
            "code": "NL",
            "continent": "Europe"
        }
    },
    {
        "coordinates": {
            "lat": 51.80195,
            "long": 5.33185
        },
        "type": "village",
        "name": "Rossum",
        "country": {
            "name": "The Netherlands",
            "code": "NL",
            "continent": "Europe"
        }
    },
    {
        "coordinates": {
            "lat": 51.8049941,
            "long": 5.5446883
        },
        "type": "village",
        "name": "Macharen",
        "country": {
            "name": "The Netherlands",
            "code": "NL",
            "continent": "Europe"
        }
    },
    {
        "coordinates": {
            "lat": 51.8066578,
            "long": 5.2411204
        },
        "type": "town",
        "name": "Zaltbommel",
        "country": {
            "name": "The Netherlands",
            "code": "NL",
            "continent": "Europe"
        }
    },
    {
        "coordinates": {
            "lat": 51.80728,
            "long": 5.1791
        },
        "type": "village",
        "name": "Nieuwaal",
        "country": {
            "name": "The Netherlands",
            "code": "NL",
            "continent": "Europe"
        }
    },
    {
        "coordinates": {
            "lat": 51.81003,
            "long": 5.13683
        },
        "type": "village",
        "name": "Zuilichem",
        "country": {
            "name": "The Netherlands",
            "code": "NL",
            "continent": "Europe"
        }
    },
    {
        "coordinates": {
            "lat": 51.8107615,
            "long": 3.936321
        },
        "type": "village",
        "name": "Ouddorp",
        "country": {
            "name": "The Netherlands",
            "code": "NL",
            "continent": "Europe"
        }
    },
    {
        "coordinates": {
            "lat": 51.81187,
            "long": 5.31258
        },
        "type": "village",
        "name": "Hurwenen",
        "country": {
            "name": "The Netherlands",
            "code": "NL",
            "continent": "Europe"
        }
    },
    {
        "coordinates": {
            "lat": 51.8140186,
            "long": 4.9520242
        },
        "type": "village",
        "name": "Sleeuwijk",
        "country": {
            "name": "The Netherlands",
            "code": "NL",
            "continent": "Europe"
        }
    },
    {
        "coordinates": {
            "lat": 51.815508,
            "long": 5.6286715
        },
        "type": "village",
        "name": "Demen",
        "country": {
            "name": "The Netherlands",
            "code": "NL",
            "continent": "Europe"
        }
    },
    {
        "coordinates": {
            "lat": 51.8173438,
            "long": 5.8910711
        },
        "type": "village",
        "name": "Heilig Landstichting",
        "country": {
            "name": "The Netherlands",
            "code": "NL",
            "continent": "Europe"
        }
    },
    {
        "coordinates": {
            "lat": 51.8182082,
            "long": 5.3894088
        },
        "type": "village",
        "name": "Heerewaarden",
        "country": {
            "name": "The Netherlands",
            "code": "NL",
            "continent": "Europe"
        }
    },
    {
        "coordinates": {
            "lat": 51.8188276,
            "long": 3.9766887
        },
        "type": "village",
        "name": "Goedereede",
        "country": {
            "name": "The Netherlands",
            "code": "NL",
            "continent": "Europe"
        }
    },
    {
        "coordinates": {
            "lat": 51.8197899,
            "long": 5.2104122
        },
        "type": "village",
        "name": "Haaften",
        "country": {
            "name": "The Netherlands",
            "code": "NL",
            "continent": "Europe"
        }
    },
    {
        "coordinates": {
            "lat": 51.8205699,
            "long": 5.5629817
        },
        "type": "village",
        "name": "Megen",
        "country": {
            "name": "The Netherlands",
            "code": "NL",
            "continent": "Europe"
        }
    },
    {
        "coordinates": {
            "lat": 51.8236456,
            "long": 5.240333
        },
        "type": "village",
        "name": "Tuil",
        "country": {
            "name": "The Netherlands",
            "code": "NL",
            "continent": "Europe"
        }
    },
    {
        "coordinates": {
            "lat": 51.82348,
            "long": 5.36783
        },
        "type": "village",
        "name": "Varik",
        "country": {
            "name": "The Netherlands",
            "code": "NL",
            "continent": "Europe"
        }
    },
    {
        "coordinates": {
            "lat": 51.82494,
            "long": 5.50195
        },
        "type": "village",
        "name": "Oijen",
        "country": {
            "name": "The Netherlands",
            "code": "NL",
            "continent": "Europe"
        }
    },
    {
        "coordinates": {
            "lat": 51.82747,
            "long": 5.18036
        },
        "type": "village",
        "name": "Hellouw",
        "country": {
            "name": "The Netherlands",
            "code": "NL",
            "continent": "Europe"
        }
    },
    {
        "coordinates": {
            "lat": 51.8275984,
            "long": 5.1300965
        },
        "type": "village",
        "name": "Herwijnen",
        "country": {
            "name": "The Netherlands",
            "code": "NL",
            "continent": "Europe"
        }
    },
    {
        "coordinates": {
            "lat": 51.8281504,
            "long": 5.3003459
        },
        "type": "village",
        "name": "Opijnen",
        "country": {
            "name": "The Netherlands",
            "code": "NL",
            "continent": "Europe"
        }
    },
    {
        "coordinates": {
            "lat": 51.8372216,
            "long": 5.9047024
        },
        "type": "village",
        "name": "Ubbergen",
        "country": {
            "name": "The Netherlands",
            "code": "NL",
            "continent": "Europe"
        }
    },
    {
        "coordinates": {
            "lat": 51.8377676,
            "long": 5.9918849
        },
        "type": "village",
        "name": "Leuth",
        "country": {
            "name": "The Netherlands",
            "code": "NL",
            "continent": "Europe"
        }
    },
    {
        "coordinates": {
            "lat": 51.84418,
            "long": 5.38679
        },
        "type": "village",
        "name": "Ophemert",
        "country": {
            "name": "The Netherlands",
            "code": "NL",
            "continent": "Europe"
        }
    },
    {
        "coordinates": {
            "lat": 51.8457022,
            "long": 4.9242523
        },
        "type": "village",
        "name": "Schelluinen",
        "country": {
            "name": "The Netherlands",
            "code": "NL",
            "continent": "Europe"
        }
    },
    {
        "coordinates": {
            "lat": 51.8531599,
            "long": 6.1026538
        },
        "type": "village",
        "name": "Tolkamer",
        "country": {
            "name": "The Netherlands",
            "code": "NL",
            "continent": "Europe"
        }
    },
    {
        "coordinates": {
            "lat": 51.854477,
            "long": 5.9389964
        },
        "type": "village",
        "name": "Ooij",
        "country": {
            "name": "The Netherlands",
            "code": "NL",
            "continent": "Europe"
        }
    },
    {
        "coordinates": {
            "lat": 51.8582,
            "long": 4.7034
        },
        "type": "village",
        "name": "Oud-Alblas",
        "country": {
            "name": "The Netherlands",
            "code": "NL",
            "continent": "Europe"
        }
    },
    {
        "coordinates": {
            "lat": 51.85859,
            "long": 5.76749
        },
        "type": "town",
        "name": "Beuningen",
        "country": {
            "name": "The Netherlands",
            "code": "NL",
            "continent": "Europe"
        }
    },
    {
        "coordinates": {
            "lat": 51.8589,
            "long": 5.0511
        },
        "type": "village",
        "name": "Kedichem",
        "country": {
            "name": "The Netherlands",
            "code": "NL",
            "continent": "Europe"
        }
    },
    {
        "coordinates": {
            "lat": 51.8615431,
            "long": 6.1176754
        },
        "type": "village",
        "name": "Lobith",
        "country": {
            "name": "The Netherlands",
            "code": "NL",
            "continent": "Europe"
        }
    },
    {
        "coordinates": {
            "lat": 51.8631852,
            "long": 4.9970135
        },
        "type": "village",
        "name": "Arkel",
        "country": {
            "name": "The Netherlands",
            "code": "NL",
            "continent": "Europe"
        }
    },
    {
        "coordinates": {
            "lat": 51.8640682,
            "long": 6.0075357
        },
        "type": "village",
        "name": "Kekerdom",
        "country": {
            "name": "The Netherlands",
            "code": "NL",
            "continent": "Europe"
        }
    },
    {
        "coordinates": {
            "lat": 51.8690957,
            "long": 5.7392754
        },
        "type": "village",
        "name": "Ewijk",
        "country": {
            "name": "The Netherlands",
            "code": "NL",
            "continent": "Europe"
        }
    },
    {
        "coordinates": {
            "lat": 51.87189,
            "long": 5.07596
        },
        "type": "village",
        "name": "Heukelum",
        "country": {
            "name": "The Netherlands",
            "code": "NL",
            "continent": "Europe"
        }
    },
    {
        "coordinates": {
            "lat": 51.8722029,
            "long": 6.375004
        },
        "type": "village",
        "name": "Gendringen",
        "country": {
            "name": "The Netherlands",
            "code": "NL",
            "continent": "Europe"
        }
    },
    {
        "coordinates": {
            "lat": 51.8747223,
            "long": 5.3734749
        },
        "type": "village",
        "name": "Wadenoijen",
        "country": {
            "name": "The Netherlands",
            "code": "NL",
            "continent": "Europe"
        }
    },
    {
        "coordinates": {
            "lat": 51.8777644,
            "long": 6.2553339
        },
        "type": "village",
        "name": "'s-Heerenberg",
        "country": {
            "name": "The Netherlands",
            "code": "NL",
            "continent": "Europe"
        }
    },
    {
        "coordinates": {
            "lat": 51.8782731,
            "long": 4.8280241
        },
        "type": "village",
        "name": "Molenaarsgraaf",
        "country": {
            "name": "The Netherlands",
            "code": "NL",
            "continent": "Europe"
        }
    },
    {
        "coordinates": {
            "lat": 51.8799104,
            "long": 5.2877621
        },
        "type": "town",
        "name": "Geldermalsen",
        "country": {
            "name": "The Netherlands",
            "code": "NL",
            "continent": "Europe"
        }
    },
    {
        "coordinates": {
            "lat": 51.8800155,
            "long": 5.9707861
        },
        "type": "village",
        "name": "Gendt",
        "country": {
            "name": "The Netherlands",
            "code": "NL",
            "continent": "Europe"
        }
    },
    {
        "coordinates": {
            "lat": 51.8804,
            "long": 4.9462
        },
        "type": "village",
        "name": "Hoornaar",
        "country": {
            "name": "The Netherlands",
            "code": "NL",
            "continent": "Europe"
        }
    },
    {
        "coordinates": {
            "lat": 51.8805299,
            "long": 5.3731622
        },
        "type": "village",
        "name": "Kapel-Avezaath",
        "country": {
            "name": "The Netherlands",
            "code": "NL",
            "continent": "Europe"
        }
    },
    {
        "coordinates": {
            "lat": 51.884022,
            "long": 6.2666965
        },
        "type": "village",
        "name": "Lengel",
        "country": {
            "name": "The Netherlands",
            "code": "NL",
            "continent": "Europe"
        }
    },
    {
        "coordinates": {
            "lat": 51.88472,
            "long": 5.1745
        },
        "type": "village",
        "name": "Rumpt",
        "country": {
            "name": "The Netherlands",
            "code": "NL",
            "continent": "Europe"
        }
    },
    {
        "coordinates": {
            "lat": 51.8873662,
            "long": 5.925182
        },
        "type": "village",
        "name": "Haalderen",
        "country": {
            "name": "The Netherlands",
            "code": "NL",
            "continent": "Europe"
        }
    },
    {
        "coordinates": {
            "lat": 51.8895509,
            "long": 6.4911649
        },
        "type": "village",
        "name": "De Heurne",
        "country": {
            "name": "The Netherlands",
            "code": "NL",
            "continent": "Europe"
        }
    },
    {
        "coordinates": {
            "lat": 51.8899512,
            "long": 4.8591289
        },
        "type": "village",
        "name": "Ottoland",
        "country": {
            "name": "The Netherlands",
            "code": "NL",
            "continent": "Europe"
        }
    },
    {
        "coordinates": {
            "lat": 51.89018,
            "long": 6.0015114
        },
        "type": "village",
        "name": "Doornenburg",
        "country": {
            "name": "The Netherlands",
            "code": "NL",
            "continent": "Europe"
        }
    },
    {
        "coordinates": {
            "lat": 51.8914652,
            "long": 5.8984553
        },
        "type": "village",
        "name": "Bemmel",
        "country": {
            "name": "The Netherlands",
            "code": "NL",
            "continent": "Europe"
        }
    },
    {
        "coordinates": {
            "lat": 51.8918909,
            "long": 5.2951144
        },
        "type": "village",
        "name": "Buurmalsen",
        "country": {
            "name": "The Netherlands",
            "code": "NL",
            "continent": "Europe"
        }
    },
    {
        "coordinates": {
            "lat": 51.8950346,
            "long": 5.0917334
        },
        "type": "town",
        "name": "Leerdam",
        "country": {
            "name": "The Netherlands",
            "code": "NL",
            "continent": "Europe"
        }
    },
    {
        "coordinates": {
            "lat": 51.8954296,
            "long": 4.6374995
        },