[{"country":"tc","city":"Back Salina","coordinates":{"lat":"21.45","long":"-71.1333333"}},{"country":"tc","city":"Balfour Town","coordinates":{"lat":"21.3166667","long":"-71.2166667"}},{"country":"tc","city":"Bambarra","coordinates":{"lat":"21.8166667","long":"-71.7166667"}},{"country":"tc","city":"Blue Hills","coordinates":{"lat":"21.8","long":"-72.2833333"}},{"country":"tc","city":"Blue Hills Settlements","coordinates":{"lat":"21.8","long":"-72.2833333"}},{"country":"tc","city":"Bottle Creek Settlements","coordinates":{"lat":"21.8833333","long":"-71.9166667"}},{"country":"tc","city":"Cockburn Harbour","coordinates":{"lat":"21.4833333","long":"-71.5333333"}},{"country":"tc","city":"Cockburn Town","coordinates":{"lat":"21.4666667","long":"-71.1333333"}},{"country":"tc","city":"Conch Bar","coordinates":{"lat":"21.8333333","long":"-71.7833333"}},{"country":"tc","city":"Five Cays Settlement","coordinates":{"lat":"21.75","long":"-72.25"}},{"country":"tc","city":"Grand Turk","coordinates":{"lat":"21.4666667","long":"-71.1333333"}},{"country":"tc","city":"Greenwich","coordinates":{"lat":"21.95","long":"-71.9333333"}},{"country":"tc","city":"Kew","coordinates":{"lat":"21.9","long":"-72.0333333"}},{"country":"tc","city":"Lorimers","coordinates":{"lat":"21.7833333","long":"-71.6833333"}},{"country":"tc","city":"Over Back The Damp","coordinates":{"lat":"21.4666667","long":"-71.1333333"}},{"country":"tc","city":"Sandy Point","coordinates":{"lat":"21.95","long":"-72.0333333"}},{"country":"tc","city":"The Bight Settlements","coordinates":{"lat":"21.7833333","long":"-72.2"}},{"country":"tc","city":"The Bight","coordinates":{"lat":"21.7833333","long":"-72.2"}},{"country":"tc","city":"West Road","coordinates":{"lat":"21.4666667","long":"-71.1333333"}},{"country":"tc","city":"Whitby","coordinates":{"lat":"21.95","long":"-71.9666667"}},{"country":"tc","city":"Yankee Town","coordinates":{"lat":"21.65","long":"-72.4666667"}}]