[{"country":"bg","city":"Abdallar","coordinates":{"lat":"42.9166667","long":"26.1833333"}},{"country":"bg","city":"Abdikioy","coordinates":{"lat":"42.9333333","long":"27.8666667"}},{"country":"bg","city":"Abdi K'oy","coordinates":{"lat":"42.9333333","long":"27.8666667"}},{"country":"bg","city":"Abdi K'y","coordinates":{"lat":"42.9333333","long":"27.8666667"}},{"country":"bg","city":"Abdioglu K'oy","coordinates":{"lat":"42.75","long":"26.7"}},{"country":"bg","city":"Abdul","coordinates":{"lat":"43.6","long":"26.8166667"}},{"country":"bg","city":"Abdulare","coordinates":{"lat":"42.3166667","long":"24.2833333"}},{"country":"bg","city":"Abdul Kadir","coordinates":{"lat":"41.6166667","long":"25.6666667"}},{"country":"bg","city":"Abdulkioi","coordinates":{"lat":"43.6","long":"26.8166667"}},{"country":"bg","city":"Abdulrakhmanlar","coordinates":{"lat":"42.9833333","long":"26.55"}},{"country":"bg","city":"Ablanica","coordinates":{"lat":"43.0333333","long":"24.6833333"}},{"country":"bg","city":"Ablanitsa","coordinates":{"lat":"43.0313889","long":"24.1127778"}},{"country":"bg","city":"Ablanitsa","coordinates":{"lat":"41.5333333","long":"23.9333333"}},{"country":"bg","city":"Ablaniza","coordinates":{"lat":"43.0333333","long":"24.6833333"}},{"country":"bg","city":"Ablaniza","coordinates":{"lat":"41.5333333","long":"23.9333333"}},{"country":"bg","city":"Aboba","coordinates":{"lat":"43.3666667","long":"27.1166667"}},{"country":"bg","city":"Abrashlare","coordinates":{"lat":"42.35","long":"25.0833333"}},{"country":"bg","city":"Abraslare","coordinates":{"lat":"42.35","long":"25.0833333"}},{"country":"bg","city":"Abrid","coordinates":{"lat":"43.9","long":"27.8"}},{"country":"bg","city":"Abrit","coordinates":{"lat":"43.9","long":"27.8"}},{"country":"bg","city":"Abtarazak","coordinates":{"lat":"42.7333333","long":"27.3"}},{"country":"bg","city":"Acadanlar","coordinates":{"lat":"43.8166667","long":"27.15"}},{"country":"bg","city":"Acangiz","coordinates":{"lat":"43.7333333","long":"28.5"}},{"country":"bg","city":"Acbunar","coordinates":{"lat":"43.85","long":"27.3833333"}},{"country":"bg","city":"Acbunarul Mic","coordinates":{"lat":"43.7833333","long":"27.4666667"}},{"country":"bg","city":"Accadânlar","coordinates":{"lat":"43.8166667","long":"27.15"}},{"country":"bg","city":"Achijane","coordinates":{"lat":"41.6166667","long":"25.0666667"}},{"country":"bg","city":"Achlare","coordinates":{"lat":"42.5333333","long":"26.9833333"}},{"country":"bg","city":"Achlari","coordinates":{"lat":"42.5333333","long":"26.9833333"}},{"country":"bg","city":"Achmatowo","coordinates":{"lat":"42.1","long":"25.05"}},{"country":"bg","city":"Achrjansko","coordinates":{"lat":"41.6","long":"25.1166667"}},{"country":"bg","city":"Achtepol","coordinates":{"lat":"42.1","long":"27.95"}},{"country":"bg","city":"Achtopol","coordinates":{"lat":"42.1","long":"27.95"}},{"country":"bg","city":"Aclare","coordinates":{"lat":"42.5333333","long":"26.9833333"}},{"country":"bg","city":"Aclari","coordinates":{"lat":"42.5333333","long":"26.9833333"}},{"country":"bg","city":"Aclart","coordinates":{"lat":"42.5333333","long":"26.9833333"}},{"country":"bg","city":"Ada Chala","coordinates":{"lat":"41.6666667","long":"25.9333333"}},{"country":"bg","city":"Ada Chalu","coordinates":{"lat":"41.6666667","long":"25.9333333"}},{"country":"bg","city":"Ada Ibaylu","coordinates":{"lat":"41.6","long":"25.6666667"}},{"country":"bg","city":"Ada Izir","coordinates":{"lat":"41.6","long":"25.6833333"}},{"country":"bg","city":"Adakiöj","coordinates":{"lat":"43.6833333","long":"26.6"}},{"country":"bg","city":"Adakioy","coordinates":{"lat":"42.15","long":"24.55"}},{"country":"bg","city":"Adakioy","coordinates":{"lat":"43.6833333","long":"26.6"}},{"country":"bg","city":"Ada K'oy","coordinates":{"lat":"41.4","long":"25.3833333"}},{"country":"bg","city":"Ada-K'oy","coordinates":{"lat":"41.6","long":"25.6833333"}},{"country":"bg","city":"Adamovo","coordinates":{"lat":"42.9666667","long":"25.3166667"}},{"country":"bg","city":"Ada Tepe","coordinates":{"lat":"42.4666667","long":"25.4666667"}},{"country":"bg","city":"Adlijo","coordinates":{"lat":"43.8877778","long":"22.5213889"}},{"country":"bg","city":"Adlye","coordinates":{"lat":"43.8877778","long":"22.5213889"}},{"country":"bg","city":"Adumovo","coordinates":{"lat":"42.9666667","long":"25.3166667"}},{"country":"bg","city":"Adunkioy","coordinates":{"lat":"42.0833333","long":"24.4333333"}},{"country":"bg","city":"Adzar","coordinates":{"lat":"42.5","long":"25.0166667"}},{"country":"bg","city":"Adzemler","coordinates":{"lat":"43.25","long":"27.8166667"}},{"country":"bg","city":"Adzhar","coordinates":{"lat":"42.5","long":"25.0166667"}},{"country":"bg","city":"Adzhemler","coordinates":{"lat":"43.25","long":"27.8166667"}},{"country":"bg","city":"Adzhievo","coordinates":{"lat":"42.1333333","long":"24.45"}},{"country":"bg","city":"Adzhilare","coordinates":{"lat":"42.15","long":"24.2833333"}},{"country":"bg","city":"Adzhiliy","coordinates":{"lat":"42.2333333","long":"24.2666667"}},{"country":"bg","city":"Adzhioluk","coordinates":{"lat":"41.55","long":"25.55"}},{"country":"bg","city":"Aekioy","coordinates":{"lat":"42.5333333","long":"26.2666667"}},{"country":"bg","city":"Aftane","coordinates":{"lat":"42.4666667","long":"26.8333333"}},{"country":"bg","city":"Agathopolis","coordinates":{"lat":"42.1","long":"27.95"}},{"country":"bg","city":"Agatovo","coordinates":{"lat":"43.1333333","long":"25.0"}},{"country":"bg","city":"Agatowo","coordinates":{"lat":"43.1333333","long":"25.0"}},{"country":"bg","city":"Agios Nikolo","coordinates":{"lat":"42.45","long":"27.65"}},{"country":"bg","city":"Aglen","coordinates":{"lat":"43.2","long":"24.3166667"}},{"country":"bg","city":"Ahiolo","coordinates":{"lat":"42.55","long":"27.65"}},{"country":"bg","city":"Ahmatlar","coordinates":{"lat":"43.9","long":"26.7333333"}},{"country":"bg","city":"Ahtapolu","coordinates":{"lat":"42.1","long":"27.95"}},{"country":"bg","city":"Ahtopol","coordinates":{"lat":"42.1","long":"27.95"}},{"country":"bg","city":"Aïazlar","coordinates":{"lat":"43.3166667","long":"26.2833333"}},{"country":"bg","city":"Aibatkioi","coordinates":{"lat":"43.8166667","long":"26.9333333"}},{"country":"bg","city":"Aidanbet","coordinates":{"lat":"43.75","long":"27.9666667"}},{"country":"bg","city":"Aidan-Ciufa","coordinates":{"lat":"43.55","long":"27.9333333"}},{"country":"bg","city":"Aidantschucha","coordinates":{"lat":"43.55","long":"27.9333333"}},{"country":"bg","city":"Aidenur","coordinates":{"lat":"44.1","long":"27.1666667"}},{"country":"bg","city":"Aidinevo","coordinates":{"lat":"42.0833333","long":"24.4333333"}},{"country":"bg","city":"Aidogdu","coordinates":{"lat":"44.0","long":"26.9666667"}},{"country":"bg","city":"Aidordu","coordinates":{"lat":"43.5833333","long":"27.0"}},{"country":"bg","city":"Aievo","coordinates":{"lat":"42.65","long":"24.7333333"}},{"country":"bg","city":"Aimcha","coordinates":{"lat":"43.2166667","long":"25.2"}},{"country":"bg","city":"Aiorman","coordinates":{"lat":"43.4833333","long":"28.25"}},{"country":"bg","city":"Aiten","coordinates":{"lat":"43.8166667","long":"27.9"}},{"country":"bg","city":"Aitos","coordinates":{"lat":"42.7","long":"27.25"}},{"country":"bg","city":"Aivadzhik","coordinates":{"lat":"42.45","long":"24.3833333"}},{"country":"bg","city":"Aivadzhik","coordinates":{"lat":"42.8666667","long":"27.7166667"}},{"country":"bg","city":"Aivadzik","coordinates":{"lat":"42.4","long":"27.1666667"}},{"country":"bg","city":"Aivadzik","coordinates":{"lat":"42.8666667","long":"27.7166667"}},{"country":"bg","city":"Aivala","coordinates":{"lat":"41.3833333","long":"25.75"}},{"country":"bg","city":"Aivatchioi","coordinates":{"lat":"43.8166667","long":"26.9333333"}},{"country":"bg","city":"Ajazlar","coordinates":{"lat":"43.3166667","long":"26.2833333"}},{"country":"bg","city":"Ajdinovo","coordinates":{"lat":"42.0833333","long":"24.4333333"}},{"country":"bg","city":"Aj-Dogdu","coordinates":{"lat":"43.5833333","long":"27.0"}},{"country":"bg","city":"Aj-Orman","coordinates":{"lat":"43.4833333","long":"27.8666667"}},{"country":"bg","city":"Ajrowo","coordinates":{"lat":"41.6166667","long":"25.3666667"}},{"country":"bg","city":"Ajtos","coordinates":{"lat":"42.7","long":"27.25"}},{"country":"bg","city":"Ajvadzik","coordinates":{"lat":"42.4","long":"27.1666667"}},{"country":"bg","city":"Ajvali","coordinates":{"lat":"41.3833333","long":"25.75"}},{"country":"bg","city":"Ajwas","coordinates":{"lat":"41.4","long":"25.3666667"}},{"country":"bg","city":"Akalan","coordinates":{"lat":"41.45","long":"26.15"}},{"country":"bg","city":"Akandshiewo","coordinates":{"lat":"42.25","long":"24.05"}},{"country":"bg","city":"Akandshii","coordinates":{"lat":"43.7333333","long":"28.5"}},{"country":"bg","city":"Akandzhi","coordinates":{"lat":"43.1166667","long":"27.75"}},{"country":"bg","city":"Akandzhievo","coordinates":{"lat":"42.25","long":"24.05"}},{"country":"bg","city":"Akandzhii","coordinates":{"lat":"43.1166667","long":"27.75"}},{"country":"bg","city":"Akandzhilari","coordinates":{"lat":"43.05","long":"24.9666667"}},{"country":"bg","city":"Akandzhiovo","coordinates":{"lat":"42.25","long":"24.05"}},{"country":"bg","city":"Akatsievo","coordinates":{"lat":"44.0144444","long":"22.8072222"}},{"country":"bg","city":"Ak Baba","coordinates":{"lat":"43.3666667","long":"27.1166667"}},{"country":"bg","city":"Ak Bash Balya","coordinates":{"lat":"41.6666667","long":"25.8333333"}},{"country":"bg","city":"Ak Bash Zir","coordinates":{"lat":"41.6833333","long":"25.8333333"}},{"country":"bg","city":"Ak Bounar","coordinates":{"lat":"42.3166667","long":"26.4333333"}},{"country":"bg","city":"Ak-bunar","coordinates":{"lat":"42.3166667","long":"26.4333333"}},{"country":"bg","city":"Ak Bunar","coordinates":{"lat":"42.3","long":"26.1666667"}},{"country":"bg","city":"Ak-Bunar","coordinates":{"lat":"41.55","long":"25.0833333"}},{"country":"bg","city":"Ak Bunar","coordinates":{"lat":"41.65","long":"25.6333333"}},{"country":"bg","city":"Ak Bunar","coordinates":{"lat":"43.85","long":"27.3833333"}},{"country":"bg","city":"Akcar","coordinates":{"lat":"43.4666667","long":"25.4166667"}},{"country":"bg","city":"Akcar","coordinates":{"lat":"43.8111111","long":"22.9183333"}},{"country":"bg","city":"Akcha Alan","coordinates":{"lat":"41.5166667","long":"25.8166667"}},{"country":"bg","city":"Akchaer","coordinates":{"lat":"43.4666667","long":"25.4166667"}},{"country":"bg","city":"Akcha Kayryak","coordinates":{"lat":"41.7666667","long":"25.4333333"}},{"country":"bg","city":"Akchar","coordinates":{"lat":"43.4666667","long":"25.4166667"}},{"country":"bg","city":"Akchar","coordinates":{"lat":"43.8111111","long":"22.9183333"}},{"country":"bg","city":"Akchayar","coordinates":{"lat":"43.4666667","long":"25.4166667"}},{"country":"bg","city":"Akche Ibram","coordinates":{"lat":"42.0666667","long":"25.7166667"}},{"country":"bg","city":"Akche Ibryam","coordinates":{"lat":"42.0666667","long":"25.7166667"}},{"country":"bg","city":"Akchelar","coordinates":{"lat":"43.65","long":"26.9666667"}},{"country":"bg","city":"Akchilar","coordinates":{"lat":"43.65","long":"26.9666667"}},{"country":"bg","city":"Akcr","coordinates":{"lat":"43.8111111","long":"22.9183333"}},{"country":"bg","city":"Ak Dere","coordinates":{"lat":"41.4833333","long":"24.8333333"}},{"country":"bg","city":"Ak Dere","coordinates":{"lat":"42.8833333","long":"27.8833333"}},{"country":"bg","city":"Ak Dere Eni Makhle","coordinates":{"lat":"43.0","long":"26.7333333"}},{"country":"bg","city":"Aker","coordinates":{"lat":"42.2333333","long":"25.95"}},{"country":"bg","city":"Akezlii","coordinates":{"lat":"42.4","long":"27.2666667"}},{"country":"bg","city":"Akhaliy","coordinates":{"lat":"42.1333333","long":"25.05"}},{"country":"bg","city":"Akhat-Baba","coordinates":{"lat":"41.5666667","long":"25.5666667"}},{"country":"bg","city":"Akhatla","coordinates":{"lat":"41.45","long":"25.3833333"}},{"country":"bg","city":"Akhatlar Kebir","coordinates":{"lat":"41.7166667","long":"25.0333333"}},{"country":"bg","city":"Akhatlar Segair","coordinates":{"lat":"41.6833333","long":"25.0666667"}},{"country":"bg","city":"Akhchilar","coordinates":{"lat":"41.5","long":"25.3166667"}},{"country":"bg","city":"Akheloy","coordinates":{"lat":"42.65","long":"27.65"}},{"country":"bg","city":"Akhievo","coordinates":{"lat":"42.3166667","long":"25.6833333"}},{"country":"bg","city":"Akhillo","coordinates":{"lat":"42.55","long":"27.65"}},{"country":"bg","city":"Akhilu","coordinates":{"lat":"42.55","long":"27.65"}},{"country":"bg","city":"Akhiolo","coordinates":{"lat":"42.55","long":"27.65"}},{"country":"bg","city":"Akhlan","coordinates":{"lat":"42.0833333","long":"24.75"}},{"country":"bg","city":"Akhlan'ovo","coordinates":{"lat":"42.0833333","long":"24.75"}},{"country":"bg","city":"Akhlar","coordinates":{"lat":"43.5","long":"26.9333333"}},{"country":"bg","city":"Akhlatlii","coordinates":{"lat":"42.2","long":"26.9333333"}},{"country":"bg","city":"Akhli","coordinates":{"lat":"42.7666667","long":"27.4666667"}},{"country":"bg","city":"Akhlii","coordinates":{"lat":"42.7666667","long":"27.4666667"}},{"country":"bg","city":"Akhliy","coordinates":{"lat":"42.7666667","long":"27.4666667"}},{"country":"bg","city":"Akhmach","coordinates":{"lat":"43.5166667","long":"26.65"}},{"country":"bg","city":"Akhmachevo","coordinates":{"lat":"42.7","long":"27.0166667"}},{"country":"bg","city":"Akhmak","coordinates":{"lat":"43.5166667","long":"26.65"}},{"country":"bg","city":"Akhmatlar","coordinates":{"lat":"41.6","long":"25.2666667"}},{"country":"bg","city":"Akhmatlar","coordinates":{"lat":"43.9","long":"26.7333333"}},{"country":"bg","city":"Akhmatovo","coordinates":{"lat":"42.1","long":"25.05"}},{"country":"bg","city":"Akhmed Dere","coordinates":{"lat":"41.45","long":"25.2833333"}},{"country":"bg","city":"Akhmedlii","coordinates":{"lat":"42.95","long":"26.0666667"}},{"country":"bg","city":"Akhmed Slakhi","coordinates":{"lat":"41.5333333","long":"25.3666667"}},{"country":"bg","city":"Akhrenlii","coordinates":{"lat":"42.4","long":"27.45"}},{"country":"bg","city":"Akhryane","coordinates":{"lat":"41.6166667","long":"25.0666667"}},{"country":"bg","city":"Akhryan Eredzhek","coordinates":{"lat":"41.6","long":"25.1166667"}},{"country":"bg","city":"Akhryansko","coordinates":{"lat":"41.6","long":"25.1166667"}},{"country":"bg","city":"Akhryan Yurpek","coordinates":{"lat":"41.6166667","long":"25.0666667"}},{"country":"bg","city":"Akhtebol","coordinates":{"lat":"42.1","long":"27.95"}},{"country":"bg","city":"Akhtopol","coordinates":{"lat":"42.1","long":"27.95"}},{"country":"bg","city":"Akhurito","coordinates":{"lat":"42.35","long":"25.6666667"}},{"country":"bg","city":"Akhur K'oy","coordinates":{"lat":"43.25","long":"27.5"}},{"country":"bg","city":"Akjar","coordinates":{"lat":"43.05","long":"27.1"}},{"country":"bg","city":"Akkadanlar","coordinates":{"lat":"43.8166667","long":"27.15"}},{"country":"bg","city":"Ak-Kadunlar","coordinates":{"lat":"43.8166667","long":"27.15"}},{"country":"bg","city":"Ak Koyun","coordinates":{"lat":"43.3833333","long":"27.4833333"}},{"country":"bg","city":"Ak Mekhmedi","coordinates":{"lat":"43.3","long":"26.4666667"}},{"country":"bg","city":"Akmekhmedkioy","coordinates":{"lat":"43.3","long":"26.4666667"}},{"country":"bg","city":"Akrianu","coordinates":{"lat":"42.3833333","long":"27.3833333"}},{"country":"bg","city":"Aksakov","coordinates":{"lat":"43.25","long":"27.8166667"}},{"country":"bg","city":"Aksakovo","coordinates":{"lat":"43.25","long":"27.8166667"}},{"country":"bg","city":"Aksakowo","coordinates":{"lat":"43.25","long":"27.8166667"}},{"country":"bg","city":"Aktchar","coordinates":{"lat":"43.4666667","long":"25.4166667"}},{"country":"bg","city":"Akundzhii","coordinates":{"lat":"43.7333333","long":"28.5"}},{"country":"bg","city":"Akur","coordinates":{"lat":"43.05","long":"27.1"}},{"country":"bg","city":"Ak Yar","coordinates":{"lat":"43.05","long":"27.1"}},{"country":"bg","city":"Alabashevo","coordinates":{"lat":"42.2666667","long":"25.2333333"}},{"country":"bg","city":"Alaclise","coordinates":{"lat":"43.4166667","long":"28.0166667"}},{"country":"bg","city":"Aladaa","coordinates":{"lat":"41.85","long":"26.2"}},{"country":"bg","city":"Aladaalii","coordinates":{"lat":"42.1","long":"25.7833333"}},{"country":"bg","city":"Aladaaliy","coordinates":{"lat":"42.1","long":"25.7833333"}},{"country":"bg","city":"Aladag","coordinates":{"lat":"41.85","long":"26.2"}},{"country":"bg","city":"Aladaglii","coordinates":{"lat":"42.5833333","long":"26.35"}},{"country":"bg","city":"Ala Daglii","coordinates":{"lat":"41.85","long":"26.2"}},{"country":"bg","city":"Aladagliy","coordinates":{"lat":"42.6333333","long":"26.8"}},{"country":"bg","city":"Aladanlii","coordinates":{"lat":"43.0166667","long":"24.7"}},{"country":"bg","city":"Aladun","coordinates":{"lat":"41.4666667","long":"25.45"}},{"country":"bg","city":"Aladzhalii","coordinates":{"lat":"42.25","long":"25.75"}},{"country":"bg","city":"Aladzhaliy","coordinates":{"lat":"42.25","long":"25.75"}},{"country":"bg","city":"Aladzhii","coordinates":{"lat":"42.8333333","long":"25.5166667"}},{"country":"bg","city":"Aladzhilar","coordinates":{"lat":"41.4666667","long":"25.7833333"}},{"country":"bg","city":"Aladzhilar","coordinates":{"lat":"42.15","long":"24.2833333"}},{"country":"bg","city":"Ala Gen","coordinates":{"lat":"42.2166667","long":"27.2333333"}},{"country":"bg","city":"Alag'ozitsa","coordinates":{"lat":"42.4166667","long":"24.0"}},{"country":"bg","city":"Alag'ozler","coordinates":{"lat":"41.4666667","long":"25.95"}},{"country":"bg","city":"Alagyun","coordinates":{"lat":"42.4333333","long":"25.35"}},{"country":"bg","city":"Alagyun-Bulgarsko","coordinates":{"lat":"42.2333333","long":"27.2666667"}},{"country":"bg","city":"Alagyun-Tursko","coordinates":{"lat":"42.2166667","long":"27.2333333"}},{"country":"bg","city":"Alahkaria","coordinates":{"lat":"42.6166667","long":"27.5666667"}},{"country":"bg","city":"Ala Klise","coordinates":{"lat":"43.4166667","long":"28.0166667"}},{"country":"bg","city":"Ala-Klisse","coordinates":{"lat":"43.4166667","long":"28.0166667"}},{"country":"bg","city":"Alami Dere","coordinates":{"lat":"41.5333333","long":"24.7833333"}},{"country":"bg","city":"Alamovtsi","coordinates":{"lat":"41.4","long":"25.0"}},{"country":"bg","city":"Alamowzi","coordinates":{"lat":"41.4","long":"25.0"}},{"country":"bg","city":"Alandzhievo","coordinates":{"lat":"41.6333333","long":"24.25"}},{"country":"bg","city":"Alán Kairiák","coordinates":{"lat":"42.2833333","long":"27.6166667"}},{"country":"bg","city":"Alan Kairjak","coordinates":{"lat":"42.2833333","long":"27.6166667"}},{"country":"bg","city":"Alan Kajrak","coordinates":{"lat":"42.2833333","long":"27.6166667"}},{"country":"bg","city":"Alan-Kajrjak","coordinates":{"lat":"42.2833333","long":"27.6166667"}},{"country":"bg","city":"Alan-Kayryak","coordinates":{"lat":"42.2833333","long":"27.6166667"}},{"country":"bg","city":"Alan Makhle","coordinates":{"lat":"41.8166667","long":"25.4"}},{"country":"bg","city":"Alar","coordinates":{"lat":"41.55","long":"25.2166667"}},{"country":"bg","city":"Albalar","coordinates":{"lat":"43.1166667","long":"26.2"}},{"country":"bg","city":"Albalari","coordinates":{"lat":"43.1166667","long":"26.2"}},{"country":"bg","city":"Albantsi","coordinates":{"lat":"41.5","long":"25.2666667"}},{"country":"bg","city":"Albanzi","coordinates":{"lat":"41.5","long":"25.2666667"}},{"country":"bg","city":"Alcek","coordinates":{"lat":"43.7833333","long":"27.5333333"}},{"country":"bg","city":"Alchak-Dere","coordinates":{"lat":"42.8333333","long":"27.6666667"}},{"country":"bg","city":"Al'chakioy","coordinates":{"lat":"42.8333333","long":"27.6666667"}},{"country":"bg","city":"Alcksandrovo","coordinates":{"lat":"42.3166667","long":"26.8833333"}},{"country":"bg","city":"Aldomiro","coordinates":{"lat":"42.8497222","long":"22.9811111"}},{"country":"bg","city":"Aldomirovci","coordinates":{"lat":"42.8497222","long":"22.9811111"}},{"country":"bg","city":"Aldomirovtsi","coordinates":{"lat":"42.8497222","long":"22.9811111"}},{"country":"bg","city":"Aldomirowzi","coordinates":{"lat":"42.8497222","long":"22.9811111"}},{"country":"bg","city":"Aledaglii","coordinates":{"lat":"42.6333333","long":"26.8"}},{"country":"bg","city":"Alekariya","coordinates":{"lat":"42.6166667","long":"27.5666667"}},{"country":"bg","city":"Aleko Konstantinov","coordinates":{"lat":"42.15","long":"24.2833333"}},{"country":"bg","city":"Aleko-Konstantinovo","coordinates":{"lat":"42.15","long":"24.2833333"}},{"country":"bg","city":"Aleko-Konstatinowo","coordinates":{"lat":"42.15","long":"24.2833333"}},{"country":"bg","city":"Alekovo","coordinates":{"lat":"43.4666667","long":"25.4166667"}},{"country":"bg","city":"Alekovo","coordinates":{"lat":"43.85","long":"27.35"}},{"country":"bg","city":"Alekowo","coordinates":{"lat":"43.4666667","long":"25.4166667"}},{"country":"bg","city":"Alekowo","coordinates":{"lat":"43.85","long":"27.35"}},{"country":"bg","city":"Aleksandrija","coordinates":{"lat":"43.8833333","long":"27.75"}},{"country":"bg","city":"Aleksandriya","coordinates":{"lat":"43.8833333","long":"27.75"}},{"country":"bg","city":"Aleksandr Malinov","coordinates":{"lat":"43.7","long":"27.75"}},{"country":"bg","city":"Aleksandrovo","coordinates":{"lat":"43.7166667","long":"23.1166667"}},{"country":"bg","city":"Aleksandrovo","coordinates":{"lat":"42.3166667","long":"26.8833333"}},{"country":"bg","city":"Aleksandrovo","coordinates":{"lat":"41.9833333","long":"25.7333333"}},{"country":"bg","city":"Aleksandrovo","coordinates":{"lat":"42.5833333","long":"25.0833333"}},{"country":"bg","city":"Aleksandrovo","coordinates":{"lat":"43.2333333","long":"26.4333333"}},{"country":"bg","city":"Aleksandrovo","coordinates":{"lat":"42.9833333","long":"26.9666667"}},{"country":"bg","city":"Aleksandrovo","coordinates":{"lat":"43.7416667","long":"22.7269444"}},{"country":"bg","city":"Aleksandrowo","coordinates":{"lat":"42.7","long":"27.6"}},{"country":"bg","city":"Aleksandrowo","coordinates":{"lat":"42.2833333","long":"25.6333333"}},{"country":"bg","city":"Aleksandrowo","coordinates":{"lat":"42.5833333","long":"25.0833333"}},{"country":"bg","city":"Aleksandrowo","coordinates":{"lat":"43.2333333","long":"26.4333333"}},{"country":"bg","city":"Aleksandur Stamboliyski","coordinates":{"lat":"43.6833333","long":"28.35"}},{"country":"bg","city":"Aleksandur Voykov","coordinates":{"lat":"42.8","long":"23.3333333"}},{"country":"bg","city":"Alekseevo","coordinates":{"lat":"43.5833333","long":"27.65"}},{"country":"bg","city":"Aleksievo","coordinates":{"lat":"43.5833333","long":"27.65"}},{"country":"bg","city":"Aleksovo","coordinates":{"lat":"43.5833333","long":"27.65"}},{"country":"bg","city":"Alem Beyler","coordinates":{"lat":"41.7","long":"25.4666667"}},{"country":"bg","city":"Alemder","coordinates":{"lat":"41.6333333","long":"25.75"}},{"country":"bg","city":"Alendarovi","coordinates":{"lat":"42.0166667","long":"23.8833333"}},{"country":"bg","city":"Alexandria","coordinates":{"lat":"43.8833333","long":"27.75"}},{"country":"bg","city":"Alexandrovo","coordinates":{"lat":"42.5833333","long":"25.0833333"}},{"country":"bg","city":"Alexandrowo","coordinates":{"lat":"43.7166667","long":"23.1166667"}},{"country":"bg","city":"Alexandrowo","coordinates":{"lat":"42.3166667","long":"26.8833333"}},{"country":"bg","city":"Alexandrowo","coordinates":{"lat":"43.45","long":"25.4"}},{"country":"bg","city":"Alexandrowo","coordinates":{"lat":"42.9833333","long":"26.9666667"}},{"country":"bg","city":"Alexsandrovo","coordinates":{"lat":"42.3166667","long":"26.8833333"}},{"country":"bg","city":"Alezantrovo","coordinates":{"lat":"42.3166667","long":"26.8833333"}},{"country":"bg","city":"Alfatar","coordinates":{"lat":"43.95","long":"27.2833333"}},{"country":"bg","city":"Alfatchi K'oy","coordinates":{"lat":"41.45","long":"25.8666667"}},{"country":"bg","city":"Alfatlar","coordinates":{"lat":"41.5333333","long":"25.2"}},{"country":"bg","city":"Alfatl Khadzhilar","coordinates":{"lat":"41.6","long":"25.6833333"}},{"country":"bg","city":"Alfatlu","coordinates":{"lat":"41.5333333","long":"25.5666667"}},{"country":"bg","city":"Ali Anife","coordinates":{"lat":"43.75","long":"27.8333333"}},{"country":"bg","city":"Ali Bey","coordinates":{"lat":"43.1833333","long":"26.4166667"}},{"country":"bg","city":"Ali-Bey-Kanaga","coordinates":{"lat":"41.55","long":"25.5666667"}},{"country":"bg","city":"Ali Bey K'oy","coordinates":{"lat":"41.9166667","long":"25.5"}},{"country":"bg","city":"Alibey Makhlesi","coordinates":{"lat":"43.1833333","long":"26.4166667"}},{"country":"bg","city":"Aliciul-Mare","coordinates":{"lat":"43.5333333","long":"27.8833333"}},{"country":"bg","city":"Alifaca","coordinates":{"lat":"43.9833333","long":"27.4166667"}},{"country":"bg","city":"Alifaci","coordinates":{"lat":"43.9833333","long":"27.4166667"}},{"country":"bg","city":"Alifak","coordinates":{"lat":"43.9833333","long":"27.4166667"}},{"country":"bg","city":"Alifakovo","coordinates":{"lat":"42.2666667","long":"24.9166667"}},{"country":"bg","city":"Ali Faku","coordinates":{"lat":"41.45","long":"25.2166667"}},{"country":"bg","city":"Aligina Makhala","coordinates":{"lat":"43.8138889","long":"23.2361111"}},{"country":"bg","city":"Aligovska","coordinates":{"lat":"41.45","long":"24.6333333"}},{"country":"bg","city":"Aligovski","coordinates":{"lat":"41.45","long":"24.6333333"}},{"country":"bg","city":"Aligowska","coordinates":{"lat":"41.45","long":"24.6333333"}},{"country":"bg","city":"Alika","coordinates":{"lat":"41.5833333","long":"25.05"}},{"country":"bg","city":"Alikariya","coordinates":{"lat":"42.6166667","long":"27.5666667"}},{"country":"bg","city":"Alikochovo","coordinates":{"lat":"42.1","long":"24.3333333"}},{"country":"bg","city":"Alino","coordinates":{"lat":"42.4","long":"23.3833333"}},{"country":"bg","city":"Ali Pasha","coordinates":{"lat":"41.4","long":"25.35"}},{"country":"bg","city":"Ali Pashinovo","coordinates":{"lat":"42.2333333","long":"25.4333333"}},{"country":"bg","city":"Al Kaya","coordinates":{"lat":"41.65","long":"25.3333333"}},{"country":"bg","city":"Alkhatlu","coordinates":{"lat":"41.7333333","long":"25.55"}},{"country":"bg","city":"Al K'oy","coordinates":{"lat":"41.5333333","long":"25.2833333"}},{"country":"bg","city":"Alla-Daglu","coordinates":{"lat":"42.5833333","long":"26.35"}},{"country":"bg","city":"Alma-Dere","coordinates":{"lat":"42.7833333","long":"27.25"}},{"country":"bg","city":"Almalii","coordinates":{"lat":"42.0666667","long":"25.45"}},{"country":"bg","city":"Almalu Dere","coordinates":{"lat":"41.35","long":"25.55"}},{"country":"bg","city":"Almaluk","coordinates":{"lat":"41.7666667","long":"25.35"}},{"country":"bg","city":"Almanowo","coordinates":{"lat":"43.3","long":"26.6666667"}},{"country":"bg","city":"Alnali","coordinates":{"lat":"42.0666667","long":"25.45"}},{"country":"bg","city":"Alobas","coordinates":{"lat":"42.6166667","long":"26.0333333"}},{"country":"bg","city":"Al'ovgrob","coordinates":{"lat":"42.2333333","long":"22.9"}},{"country":"bg","city":"Altemir","coordinates":{"lat":"43.5333333","long":"23.8166667"}},{"country":"bg","city":"Altimir","coordinates":{"lat":"43.5333333","long":"23.8166667"}},{"country":"bg","city":"Altimirtsi","coordinates":{"lat":"43.5333333","long":"23.8166667"}},{"country":"bg","city":"Altsek","coordinates":{"lat":"43.7833333","long":"27.5333333"}},{"country":"bg","city":"Altun Chair","coordinates":{"lat":"42.1","long":"25.4333333"}},{"country":"bg","city":"Alusiyan","coordinates":{"lat":"43.1833333","long":"26.7666667"}},{"country":"bg","city":"Alussijan","coordinates":{"lat":"43.1833333","long":"26.7666667"}},{"country":"bg","city":"Alvan-Dere","coordinates":{"lat":"41.7666667","long":"26.0"}},{"country":"bg","city":"Alvanlar","coordinates":{"lat":"42.9833333","long":"26.55"}},{"country":"bg","city":"Alvanovo","coordinates":{"lat":"43.3","long":"26.6666667"}},{"country":"bg","city":"Amatlar","coordinates":{"lat":"43.9","long":"26.7333333"}},{"country":"bg","city":"Ambelits","coordinates":{"lat":"42.2166667","long":"27.8"}},{"country":"bg","city":"Amzalare","coordinates":{"lat":"42.4","long":"25.0833333"}},{"country":"bg","city":"Amzulare","coordinates":{"lat":"42.4","long":"25.0833333"}},{"country":"bg","city":"Anastschik","coordinates":{"lat":"43.85","long":"27.1833333"}},{"country":"bg","city":"Anaut-K'oy","coordinates":{"lat":"41.4166667","long":"25.9166667"}},{"country":"bg","city":"Anchialo","coordinates":{"lat":"42.55","long":"27.65"}},{"country":"bg","city":"Anchialos","coordinates":{"lat":"42.55","long":"27.65"}},{"country":"bg","city":"Anchijelo","coordinates":{"lat":"42.55","long":"27.65"}},{"country":"bg","city":"Anchilejo","coordinates":{"lat":"42.55","long":"27.65"}},{"country":"bg","city":"Andreeva","coordinates":{"lat":"42.8833333","long":"25.3333333"}},{"country":"bg","city":"Andreevo","coordinates":{"lat":"42.8833333","long":"25.3333333"}},{"country":"bg","city":"Anevo","coordinates":{"lat":"42.65","long":"24.7333333"}},{"country":"bg","city":"Anewo","coordinates":{"lat":"42.65","long":"24.7333333"}},{"country":"bg","city":"Angelariy","coordinates":{"lat":"43.8333333","long":"27.5333333"}},{"country":"bg","city":"Angelarji","coordinates":{"lat":"43.8333333","long":"27.5333333"}},{"country":"bg","city":"Angelov","coordinates":{"lat":"42.9166667","long":"25.3666667"}},{"country":"bg","city":"Angelov Dol","coordinates":{"lat":"42.6","long":"24.0166667"}},{"country":"bg","city":"Angelovo","coordinates":{"lat":"42.9166667","long":"25.3666667"}},{"country":"bg","city":"Angelovo","coordinates":{"lat":"43.95","long":"26.5333333"}},{"country":"bg","city":"Angel Voyvoda","coordinates":{"lat":"41.8333333","long":"25.2833333"}},{"country":"bg","city":"Angel-Wojwoda","coordinates":{"lat":"41.8333333","long":"25.2833333"}},{"country":"bg","city":"Angliysko Selo","coordinates":{"lat":"42.6","long":"26.75"}},{"country":"bg","city":"Anhialo","coordinates":{"lat":"42.55","long":"27.65"}},{"country":"bg","city":"Anhiolo","coordinates":{"lat":"42.55","long":"27.65"}},{"country":"bg","city":"Ankhelú","coordinates":{"lat":"42.55","long":"27.65"}},{"country":"bg","city":"Ankhialo","coordinates":{"lat":"42.55","long":"27.65"}},{"country":"bg","city":"Ankhiolo","coordinates":{"lat":"42.55","long":"27.65"}},{"country":"bg","city":"Anluk","coordinates":{"lat":"41.35","long":"25.3833333"}},{"country":"bg","city":"Antim I","coordinates":{"lat":"42.55","long":"27.5166667"}},{"country":"bg","city":"Antimova","coordinates":{"lat":"43.9833333","long":"26.6833333"}},{"country":"bg","city":"Antimovo","coordinates":{"lat":"44.0244444","long":"22.9419444"}},{"country":"bg","city":"Antimovo","coordinates":{"lat":"43.9833333","long":"26.6833333"}},{"country":"bg","city":"Antimowo","coordinates":{"lat":"44.0244444","long":"22.9419444"}},{"country":"bg","city":"Antimowo","coordinates":{"lat":"43.9833333","long":"26.6833333"}},{"country":"bg","city":"Anton","coordinates":{"lat":"42.75","long":"24.2833333"}},{"country":"bg","city":"Antonovo","coordinates":{"lat":"43.15","long":"26.1666667"}},{"country":"bg","city":"Antranikowo","coordinates":{"lat":"42.2666667","long":"24.9166667"}},{"country":"bg","city":"Anu Basu","coordinates":{"lat":"42.6666667","long":"24.6833333"}},{"country":"bg","city":"Apazlar","coordinates":{"lat":"41.7166667","long":"25.2666667"}},{"country":"bg","city":"Apaz Makhle","coordinates":{"lat":"43.7333333","long":"26.9333333"}},{"country":"bg","city":"Aplatsi","coordinates":{"lat":"42.8666667","long":"25.8166667"}},{"country":"bg","city":"Aplatsu","coordinates":{"lat":"42.8666667","long":"25.8166667"}},{"country":"bg","city":"Apollonia","coordinates":{"lat":"42.4166667","long":"27.7"}},{"country":"bg","city":"Aprilov","coordinates":{"lat":"42.8","long":"25.3333333"}},{"country":"bg","city":"Aprilovo","coordinates":{"lat":"42.2166667","long":"25.85"}},{"country":"bg","city":"Aprilovo","coordinates":{"lat":"42.8","long":"25.3333333"}},{"country":"bg","city":"Aprilovo","coordinates":{"lat":"43.25","long":"26.2833333"}},{"country":"bg","city":"Aprilovo","coordinates":{"lat":"42.6666667","long":"23.6833333"}},{"country":"bg","city":"Aprilowo","coordinates":{"lat":"42.2166667","long":"25.85"}},{"country":"bg","city":"Aprilowo","coordinates":{"lat":"43.25","long":"26.2833333"}},{"country":"bg","city":"Aprilowo","coordinates":{"lat":"42.6666667","long":"23.6833333"}},{"country":"bg","city":"Apriltsi","coordinates":{"lat":"42.8433333","long":"24.9316667"}},{"country":"bg","city":"Apriltsi","coordinates":{"lat":"42.3166667","long":"24.2833333"}},{"country":"bg","city":"Apriltzi","coordinates":{"lat":"42.8433333","long":"24.9316667"}},{"country":"bg","city":"Aprilzi","coordinates":{"lat":"42.3166667","long":"24.2833333"}},{"country":"bg","city":"Aptaat","coordinates":{"lat":"43.9","long":"27.8"}},{"country":"bg","city":"Aptaraman K'oy","coordinates":{"lat":"41.55","long":"25.9166667"}},{"country":"bg","city":"Aptarazak","coordinates":{"lat":"42.7333333","long":"27.3"}},{"country":"bg","city":"Aptarazak","coordinates":{"lat":"43.1333333","long":"27.15"}},{"country":"bg","city":"Aptat","coordinates":{"lat":"43.9","long":"27.8"}},{"country":"bg","city":"Arabadzhi","coordinates":{"lat":"41.3166667","long":"25.3166667"}},{"country":"bg","city":"Arabadzhi","coordinates":{"lat":"42.8833333","long":"26.0"}},{"country":"bg","city":"Arabadzhi","coordinates":{"lat":"43.85","long":"27.55"}},{"country":"bg","city":"Arabadzhievo","coordinates":{"lat":"42.3333333","long":"25.7166667"}},{"country":"bg","city":"Arabadzhii","coordinates":{"lat":"42.8833333","long":"26.0"}},{"country":"bg","city":"Arabadzhii","coordinates":{"lat":"43.85","long":"27.55"}},{"country":"bg","city":"Arabadzhilar","coordinates":{"lat":"44.0166667","long":"26.8833333"}},{"country":"bg","city":"Arabagi","coordinates":{"lat":"43.85","long":"27.55"}},{"country":"bg","city":"Arabagilar","coordinates":{"lat":"44.0166667","long":"26.8833333"}},{"country":"bg","city":"Arab Khodzha","coordinates":{"lat":"42.3166667","long":"26.3833333"}},{"country":"bg","city":"Arablar","coordinates":{"lat":"43.25","long":"26.2833333"}},{"country":"bg","city":"Arablar","coordinates":{"lat":"43.5166667","long":"27.3666667"}},{"country":"bg","city":"Arab Makhle","coordinates":{"lat":"42.3333333","long":"25.5166667"}},{"country":"bg","city":"Arabugi","coordinates":{"lat":"43.85","long":"27.55"}},{"country":"bg","city":"Araklar","coordinates":{"lat":"43.65","long":"28.25"}},{"country":"bg","city":"Araklari","coordinates":{"lat":"43.65","long":"28.25"}},{"country":"bg","city":"Ara K'oy","coordinates":{"lat":"43.0166667","long":"26.0666667"}},{"country":"bg","city":"Araplar","coordinates":{"lat":"43.25","long":"26.2833333"}},{"country":"bg","city":"Araplar","coordinates":{"lat":"43.5166667","long":"27.3666667"}},{"country":"bg","city":"Arapli","coordinates":{"lat":"43.0333333","long":"24.6833333"}},{"country":"bg","city":"Araplii","coordinates":{"lat":"42.1166667","long":"26.6"}},{"country":"bg","city":"Araplii","coordinates":{"lat":"43.0333333","long":"24.6833333"}},{"country":"bg","city":"Arapliy","coordinates":{"lat":"42.1166667","long":"26.6"}},{"country":"bg","city":"Arap Makhle","coordinates":{"lat":"42.3333333","long":"25.5166667"}},{"country":"bg","city":"Arapovo","coordinates":{"lat":"42.0166667","long":"25.0"}},{"country":"bg","city":"Aratmadzha","coordinates":{"lat":"43.9","long":"27.4166667"}},{"country":"bg","city":"Aratmagea","coordinates":{"lat":"43.9","long":"27.4166667"}},{"country":"bg","city":"Aratmandsha","coordinates":{"lat":"43.9","long":"27.4166667"}},{"country":"bg","city":"Arbadzhievo","coordinates":{"lat":"42.3333333","long":"25.7166667"}},{"country":"bg","city":"Arbanasi","coordinates":{"lat":"43.1","long":"25.6666667"}},{"country":"bg","city":"Arbanassi","coordinates":{"lat":"43.1","long":"25.6666667"}},{"country":"bg","city":"Arcar","coordinates":{"lat":"43.8111111","long":"22.9183333"}},{"country":"bg","city":"Arcen","coordinates":{"lat":"43.8111111","long":"22.9183333"}},{"country":"bg","city":"Archar","coordinates":{"lat":"43.8111111","long":"22.9183333"}},{"country":"bg","city":"Arda","coordinates":{"lat":"41.4666667","long":"24.6333333"}},{"country":"bg","city":"Ardabas","coordinates":{"lat":"41.4666667","long":"24.6333333"}},{"country":"bg","city":"Ardabask","coordinates":{"lat":"41.4666667","long":"24.6333333"}},{"country":"bg","city":"Ardashli","coordinates":{"lat":"41.5","long":"24.9166667"}},{"country":"bg","city":"Ardino","coordinates":{"lat":"41.5833333","long":"25.1333333"}},{"country":"bg","city":"Arkar Makhle","coordinates":{"lat":"42.9333333","long":"26.2833333"}},{"country":"bg","city":"Arkhenlsh","coordinates":{"lat":"42.3833333","long":"27.3833333"}},{"country":"bg","city":"Arkovna","coordinates":{"lat":"43.0333333","long":"27.2"}},{"country":"bg","city":"Arkowna","coordinates":{"lat":"43.0333333","long":"27.2"}},{"country":"bg","city":"Armaganovo","coordinates":{"lat":"42.5666667","long":"25.3666667"}},{"country":"bg","city":"Arman","coordinates":{"lat":"43.75","long":"28.1"}},{"country":"bg","city":"Arman Tasnec","coordinates":{"lat":"43.75","long":"28.1"}},{"country":"bg","city":"Armeni","coordinates":{"lat":"42.9166667","long":"25.2333333"}},{"country":"bg","city":"Armenite","coordinates":{"lat":"42.9166667","long":"25.2333333"}},{"country":"bg","city":"Armenkovtsu","coordinates":{"lat":"42.8666667","long":"25.5666667"}},{"country":"bg","city":"Armuchi","coordinates":{"lat":"43.8166667","long":"27.75"}},{"country":"bg","city":"Armutchuk","coordinates":{"lat":"41.7333333","long":"24.05"}},{"country":"bg","city":"Armutlar","coordinates":{"lat":"41.9","long":"26.5333333"}},{"country":"bg","city":"Armutlia","coordinates":{"lat":"43.8166667","long":"27.75"}},{"country":"bg","city":"Armutli","coordinates":{"lat":"43.8166667","long":"27.75"}},{"country":"bg","city":"Armutlii","coordinates":{"lat":"43.8166667","long":"27.75"}},{"country":"bg","city":"Armutlii","coordinates":{"lat":"42.0833333","long":"26.3"}},{"country":"bg","city":"Armutlii","coordinates":{"lat":"43.2333333","long":"25.6666667"}},{"country":"bg","city":"Armutlii","coordinates":{"lat":"42.4166667","long":"24.4833333"}},{"country":"bg","city":"Armutliy","coordinates":{"lat":"42.4166667","long":"24.4833333"}},{"country":"bg","city":"Armutlu","coordinates":{"lat":"43.8166667","long":"27.75"}},{"country":"bg","city":"Armutlu","coordinates":{"lat":"43.2333333","long":"25.6666667"}},{"country":"bg","city":"Armyankovtsi","coordinates":{"lat":"42.8666667","long":"25.5666667"}},{"country":"bg","city":"Arnaud-Kujüssu","coordinates":{"lat":"43.55","long":"27.6833333"}},{"country":"bg","city":"Arnaut","coordinates":{"lat":"43.4833333","long":"26.5666667"}},{"country":"bg","city":"Arnaut Cuius","coordinates":{"lat":"43.55","long":"27.6833333"}},{"country":"bg","city":"Arnautito","coordinates":{"lat":"42.3","long":"25.55"}},{"country":"bg","city":"Arnaut Kioi","coordinates":{"lat":"42.4833333","long":"26.7333333"}},{"country":"bg","city":"Arnautkiöj","coordinates":{"lat":"42.7","long":"27.6"}},{"country":"bg","city":"Arnaut Kiöj","coordinates":{"lat":"43.4833333","long":"26.5666667"}},{"country":"bg","city":"Arnautkioy","coordinates":{"lat":"42.4833333","long":"26.7333333"}},{"country":"bg","city":"Arnaut-Kjoj","coordinates":{"lat":"42.4833333","long":"26.7333333"}},{"country":"bg","city":"Arnaut-Kjoj","coordinates":{"lat":"41.4166667","long":"25.9166667"}},{"country":"bg","city":"Arnaut-K'oy","coordinates":{"lat":"42.4833333","long":"26.7333333"}},{"country":"bg","city":"Arnaut K'oy","coordinates":{"lat":"42.7","long":"27.4333333"}},{"country":"bg","city":"Arnaut-K'oy","coordinates":{"lat":"41.4166667","long":"25.9166667"}},{"country":"bg","city":"Arnaut K'oy","coordinates":{"lat":"42.3666667","long":"24.2166667"}},{"country":"bg","city":"Arnaut Kuyusu","coordinates":{"lat":"43.55","long":"27.6833333"}},{"country":"bg","city":"Arnautlar","coordinates":{"lat":"41.5","long":"25.2666667"}},{"country":"bg","city":"Arnautlar","coordinates":{"lat":"42.95","long":"27.7666667"}},{"country":"bg","city":"Arnautli","coordinates":{"lat":"43.3166667","long":"25.8333333"}},{"country":"bg","city":"Arnautlii","coordinates":{"lat":"43.3166667","long":"25.8333333"}},{"country":"bg","city":"Arpach","coordinates":{"lat":"42.45","long":"26.8666667"}},{"country":"bg","city":"Arpadshik","coordinates":{"lat":"41.5333333","long":"24.95"}},{"country":"bg","city":"Arpadzhik","coordinates":{"lat":"41.5333333","long":"24.95"}},{"country":"bg","city":"Arsan","coordinates":{"lat":"42.7666667","long":"22.9333333"}},{"country":"bg","city":"Arslan","coordinates":{"lat":"43.6833333","long":"26.85"}},{"country":"bg","city":"Arslan Khodzha","coordinates":{"lat":"41.5","long":"25.2666667"}},{"country":"bg","city":"Arslan K'oy","coordinates":{"lat":"41.5666667","long":"25.3333333"}},{"country":"bg","city":"Arslanlar","coordinates":{"lat":"41.5333333","long":"25.2333333"}},{"country":"bg","city":"Artaklari","coordinates":{"lat":"42.55","long":"26.3666667"}},{"country":"bg","city":"Artaklaru","coordinates":{"lat":"42.55","long":"26.3666667"}},{"country":"bg","city":"Artchar","coordinates":{"lat":"43.8111111","long":"22.9183333"}},{"country":"bg","city":"Artschar","coordinates":{"lat":"43.8111111","long":"22.9183333"}},{"country":"bg","city":"Arven","coordinates":{"lat":"41.35","long":"25.7166667"}},{"country":"bg","city":"Arzan","coordinates":{"lat":"42.7666667","long":"22.9333333"}},{"country":"bg","city":"Arzhenliy","coordinates":{"lat":"42.4","long":"27.45"}},{"country":"bg","city":"Asal-Beylii","coordinates":{"lat":"43.1166667","long":"27.3333333"}},{"country":"bg","city":"Asa-Mahle","coordinates":{"lat":"43.7833333","long":"27.3166667"}},{"country":"bg","city":"Ascha-Machala","coordinates":{"lat":"43.8","long":"27.9333333"}},{"country":"bg","city":"Asel-Veili","coordinates":{"lat":"43.1166667","long":"27.3333333"}},{"country":"bg","city":"Asen","coordinates":{"lat":"42.65","long":"25.2"}},{"country":"bg","city":"Asen","coordinates":{"lat":"43.0","long":"24.2"}},{"country":"bg","city":"Asenovec","coordinates":{"lat":"43.95","long":"27.9333333"}},{"country":"bg","city":"Asenovets","coordinates":{"lat":"42.5333333","long":"25.95"}},{"country":"bg","city":"Asenovets","coordinates":{"lat":"43.95","long":"27.9333333"}},{"country":"bg","city":"Asenovgrad","coordinates":{"lat":"42.0166667","long":"24.8666667"}},{"country":"bg","city":"Asenovo","coordinates":{"lat":"42.3666667","long":"26.65"}},{"country":"bg","city":"Asenovo","coordinates":{"lat":"43.5333333","long":"24.85"}},{"country":"bg","city":"Asenovo","coordinates":{"lat":"43.2833333","long":"26.0333333"}},{"country":"bg","city":"Asenovtsi","coordinates":{"lat":"43.3166667","long":"25.1"}},{"country":"bg","city":"Asfatchioi","coordinates":{"lat":"43.9166667","long":"26.8333333"}},{"country":"bg","city":"Asha Ada","coordinates":{"lat":"41.6166667","long":"25.4333333"}},{"country":"bg","city":"Asha Atsa","coordinates":{"lat":"41.6166667","long":"25.4333333"}},{"country":"bg","city":"Ashakikabda","coordinates":{"lat":"43.2333333","long":"26.3333333"}},{"country":"bg","city":"Ashaklii","coordinates":{"lat":"42.3","long":"26.7333333"}},{"country":"bg","city":"Asha Kodzha Yumer","coordinates":{"lat":"41.3666667","long":"25.35"}},{"country":"bg","city":"Asheklii","coordinates":{"lat":"42.3","long":"26.7333333"}},{"country":"bg","city":"Ashiklar","coordinates":{"lat":"42.7666667","long":"27.0166667"}},{"country":"bg","city":"Ashiklar","coordinates":{"lat":"41.6833333","long":"25.1166667"}},{"country":"bg","city":"Ashiklar","coordinates":{"lat":"43.5166667","long":"26.75"}},{"country":"bg","city":"Ashiklare","coordinates":{"lat":"42.6833333","long":"24.65"}},{"country":"bg","city":"Ashiklari","coordinates":{"lat":"42.6833333","long":"24.65"}},{"country":"bg","city":"Ashiklii","coordinates":{"lat":"42.5333333","long":"25.45"}},{"country":"bg","city":"Ashikovo","coordinates":{"lat":"43.2166667","long":"26.6833333"}},{"country":"bg","city":"Ashikovo","coordinates":{"lat":"43.5666667","long":"26.95"}},{"country":"bg","city":"Ashik Seneklii","coordinates":{"lat":"42.3666667","long":"25.5166667"}},{"country":"bg","city":"Ashik Senekliy","coordinates":{"lat":"42.3666667","long":"25.5166667"}},{"country":"bg","city":"Ashlar","coordinates":{"lat":"41.6833333","long":"25.55"}},{"country":"bg","city":"Asikoria","coordinates":{"lat":"41.95","long":"24.3666667"}},{"country":"bg","city":"Asi Korija","coordinates":{"lat":"41.95","long":"24.3666667"}},{"country":"bg","city":"Asikovo","coordinates":{"lat":"43.55","long":"26.8333333"}},{"country":"bg","city":"Asil Beili","coordinates":{"lat":"43.1166667","long":"27.3333333"}},{"country":"bg","city":"Asjeniovo","coordinates":{"lat":"43.2833333","long":"26.0333333"}},{"country":"bg","city":"Asparuchowo","coordinates":{"lat":"43.7","long":"23.2166667"}},{"country":"bg","city":"Asparuchowo","coordinates":{"lat":"42.5166667","long":"27.1166667"}},{"country":"bg","city":"Asparuchowo","coordinates":{"lat":"43.3833333","long":"25.1333333"}},{"country":"bg","city":"Asparukhovo","coordinates":{"lat":"43.7","long":"23.2166667"}},{"country":"bg","city":"Asparukhovo","coordinates":{"lat":"42.5166667","long":"27.1166667"}},{"country":"bg","city":"Asparukhovo","coordinates":{"lat":"43.3833333","long":"25.1333333"}},{"country":"bg","city":"Asparukhovo","coordinates":{"lat":"42.9833333","long":"27.3333333"}},{"country":"bg","city":"Assen","coordinates":{"lat":"43.0","long":"24.2"}},{"country":"bg","city":"Asseniewo","coordinates":{"lat":"43.2833333","long":"26.0333333"}},{"country":"bg","city":"Asseniowo","coordinates":{"lat":"42.3666667","long":"26.65"}},{"country":"bg","city":"Asseniowo","coordinates":{"lat":"43.5333333","long":"24.85"}},{"country":"bg","city":"Assenovgrad","coordinates":{"lat":"42.0166667","long":"24.8666667"}},{"country":"bg","city":"Assenovgrade","coordinates":{"lat":"42.0166667","long":"24.8666667"}},{"country":"bg","city":"Assenowez","coordinates":{"lat":"42.5333333","long":"25.95"}},{"country":"bg","city":"Assenowgrad","coordinates":{"lat":"42.0166667","long":"24.8666667"}},{"country":"bg","city":"Astvatchioi","coordinates":{"lat":"43.9166667","long":"26.8333333"}},{"country":"bg","city":"Asukurovo","coordinates":{"lat":"42.2","long":"25.1166667"}},{"country":"bg","city":"Asul-Beilii","coordinates":{"lat":"43.1166667","long":"27.3333333"}},{"country":"bg","city":"Asulbeyli","coordinates":{"lat":"43.1166667","long":"27.3333333"}},{"country":"bg","city":"Asul-Beylii","coordinates":{"lat":"43.1166667","long":"27.3333333"}},{"country":"bg","city":"Asvatchioi","coordinates":{"lat":"43.9166667","long":"26.8333333"}},{"country":"bg","city":"Asvatk'oy","coordinates":{"lat":"43.9166667","long":"26.8333333"}},{"country":"bg","city":"Asya-Tepe","coordinates":{"lat":"43.3166667","long":"27.4333333"}},{"country":"bg","city":"Asyenovets","coordinates":{"lat":"42.5333333","long":"25.95"}},{"country":"bg","city":"At Alan","coordinates":{"lat":"41.45","long":"25.5333333"}},{"country":"bg","city":"Atanaskioy","coordinates":{"lat":"42.5166667","long":"27.4666667"}},{"country":"bg","city":"Atanas K'oy","coordinates":{"lat":"42.5166667","long":"27.4666667"}},{"country":"bg","city":"Atanasovo","coordinates":{"lat":"42.5166667","long":"27.4666667"}},{"country":"bg","city":"Atanassowo","coordinates":{"lat":"42.5166667","long":"27.4666667"}},{"country":"bg","city":"Atchio","coordinates":{"lat":"43.7833333","long":"26.8833333"}},{"country":"bg","city":"Ateren","coordinates":{"lat":"41.5","long":"26.0"}},{"country":"bg","city":"At-Korin","coordinates":{"lat":"42.1425","long":"22.6416667"}},{"country":"bg","city":"At Koriya","coordinates":{"lat":"42.1425","long":"22.6416667"}},{"country":"bg","city":"At K'oy","coordinates":{"lat":"43.7833333","long":"26.8833333"}},{"country":"bg","city":"Atlarche","coordinates":{"lat":"42.8666667","long":"25.9333333"}},{"country":"bg","city":"Atlartsi","coordinates":{"lat":"42.8666667","long":"25.9333333"}},{"country":"bg","city":"Atlar Zarla K'oy","coordinates":{"lat":"43.3166667","long":"26.6333333"}},{"country":"bg","city":"Atlar Zarlu K'oy","coordinates":{"lat":"43.3166667","long":"26.6333333"}},{"country":"bg","city":"Atlii","coordinates":{"lat":"42.55","long":"26.45"}},{"country":"bg","city":"Atliy","coordinates":{"lat":"42.55","long":"26.45"}},{"country":"bg","city":"Atlooglu","coordinates":{"lat":"42.5166667","long":"26.1666667"}},{"country":"bg","city":"Atloolu","coordinates":{"lat":"42.5166667","long":"26.1666667"}},{"country":"bg","city":"Atmadsha","coordinates":{"lat":"43.9666667","long":"27.0666667"}},{"country":"bg","city":"Atmadzhilar","coordinates":{"lat":"41.5166667","long":"25.45"}},{"country":"bg","city":"Atmagea","coordinates":{"lat":"43.9666667","long":"27.0666667"}},{"country":"bg","city":"Atmageaua-Tatareasca","coordinates":{"lat":"43.95","long":"26.8666667"}},{"country":"bg","city":"Atnanas-Kioi","coordinates":{"lat":"42.5166667","long":"27.4666667"}},{"country":"bg","city":"Atolovo","coordinates":{"lat":"42.6","long":"26.75"}},{"country":"bg","city":"Atolowo","coordinates":{"lat":"42.6","long":"26.75"}},{"country":"bg","city":"Austa","coordinates":{"lat":"41.5","long":"25.5166667"}},{"country":"bg","city":"Avdalar","coordinates":{"lat":"43.25","long":"26.7"}},{"country":"bg","city":"Avdalari","coordinates":{"lat":"42.9166667","long":"26.1833333"}},{"country":"bg","city":"Avdula","coordinates":{"lat":"43.7833333","long":"27.4166667"}},{"country":"bg","city":"Avdular","coordinates":{"lat":"43.8166667","long":"26.9166667"}},{"country":"bg","city":"Avdulla","coordinates":{"lat":"43.7833333","long":"27.4166667"}},{"country":"bg","city":"Avdullar","coordinates":{"lat":"43.8166667","long":"26.9166667"}},{"country":"bg","city":"Avdzhi Duvandzhii","coordinates":{"lat":"42.25","long":"25.6166667"}},{"country":"bg","city":"Avdzhi Duvandzhiy","coordinates":{"lat":"42.25","long":"25.6166667"}},{"country":"bg","city":"Avlalii","coordinates":{"lat":"42.5333333","long":"26.7333333"}},{"country":"bg","city":"Avlaliy","coordinates":{"lat":"42.5333333","long":"26.7333333"}},{"country":"bg","city":"Avlankioi","coordinates":{"lat":"43.0833333","long":"26.0833333"}},{"country":"bg","city":"Avlan K'oy","coordinates":{"lat":"43.0833333","long":"26.0833333"}},{"country":"bg","city":"Avliene","coordinates":{"lat":"42.5333333","long":"25.95"}},{"country":"bg","city":"Avlieni","coordinates":{"lat":"42.5333333","long":"25.95"}},{"country":"bg","city":"Avli K'oy","coordinates":{"lat":"42.45","long":"23.75"}},{"country":"bg","city":"Avordovisa","coordinates":{"lat":"42.2333333","long":"27.7833333"}},{"country":"bg","city":"Avramov","coordinates":{"lat":"42.75","long":"26.6333333"}},{"country":"bg","city":"Avramovo","coordinates":{"lat":"41.7","long":"25.1666667"}},{"country":"bg","city":"Avramovo","coordinates":{"lat":"42.0333333","long":"23.6666667"}},{"country":"bg","city":"Avramovska","coordinates":{"lat":"41.4833333","long":"24.9333333"}},{"country":"bg","city":"Avramovtsi","coordinates":{"lat":"41.4833333","long":"24.9333333"}},{"country":"bg","city":"Avrat Alan","coordinates":{"lat":"42.6333333","long":"24.35"}},{"country":"bg","city":"Avren","coordinates":{"lat":"41.35","long":"25.7166667"}},{"country":"bg","city":"Avren","coordinates":{"lat":"43.1166667","long":"27.6666667"}},{"country":"bg","city":"Avtoevo","coordinates":{"lat":"42.2166667","long":"25.0"}},{"country":"bg","city":"Awdula","coordinates":{"lat":"43.7833333","long":"27.4166667"}},{"country":"bg","city":"Awramowo","coordinates":{"lat":"41.7","long":"25.1666667"}},{"country":"bg","city":"Awramowzi","coordinates":{"lat":"41.4833333","long":"24.9333333"}},{"country":"bg","city":"Awren","coordinates":{"lat":"41.35","long":"25.7166667"}},{"country":"bg","city":"Ayazlar","coordinates":{"lat":"43.3166667","long":"26.2833333"}},{"country":"bg","city":"Ayazma","coordinates":{"lat":"43.1666667","long":"27.3333333"}},{"country":"bg","city":"Aydanlii","coordinates":{"lat":"42.4166667","long":"25.7"}},{"country":"bg","city":"Aydanliy","coordinates":{"lat":"42.4166667","long":"25.7"}},{"country":"bg","city":"Aydarovo","coordinates":{"lat":"41.9833333","long":"23.1166667"}},{"country":"bg","city":"Aydemir","coordinates":{"lat":"44.1","long":"27.1666667"}},{"country":"bg","city":"Aydinevo","coordinates":{"lat":"42.0833333","long":"24.4333333"}},{"country":"bg","city":"Aydinovo","coordinates":{"lat":"42.0833333","long":"24.4333333"}},{"country":"bg","city":"Aydogdu","coordinates":{"lat":"44.0","long":"26.9666667"}},{"country":"bg","city":"Ay-Dogdu","coordinates":{"lat":"43.5833333","long":"27.0"}},{"country":"bg","city":"Aydomush","coordinates":{"lat":"41.8","long":"25.45"}},{"country":"bg","city":"Aydun Bey","coordinates":{"lat":"43.75","long":"27.9666667"}},{"country":"bg","city":"Aydun K'oy","coordinates":{"lat":"43.0666667","long":"26.0833333"}},{"country":"bg","city":"Aydunlar","coordinates":{"lat":"42.0","long":"25.3833333"}},{"country":"bg","city":"Aydzhi Dere","coordinates":{"lat":"43.05","long":"27.2333333"}},{"country":"bg","city":"Aygur Dere","coordinates":{"lat":"41.6166667","long":"24.4166667"}},{"country":"bg","city":"Aygur K'oy","coordinates":{"lat":"42.25","long":"24.4333333"}},{"country":"bg","city":"Ay Kulak","coordinates":{"lat":"41.6166667","long":"25.7833333"}},{"country":"bg","city":"Ayla Dun","coordinates":{"lat":"43.3333333","long":"26.5666667"}},{"country":"bg","city":"Ayledin","coordinates":{"lat":"41.65","long":"25.65"}},{"country":"bg","city":"Aylidun","coordinates":{"lat":"43.3333333","long":"26.5666667"}},{"country":"bg","city":"Ay Orman","coordinates":{"lat":"43.4833333","long":"27.8666667"}},{"country":"bg","city":"Ayrene","coordinates":{"lat":"42.15","long":"24.65"}},{"country":"bg","city":"Ayrovo","coordinates":{"lat":"41.6166667","long":"25.3666667"}},{"country":"bg","city":"Aytos","coordinates":{"lat":"42.7","long":"27.25"}},{"country":"bg","city":"Ayvadzhik","coordinates":{"lat":"42.4","long":"27.1666667"}},{"country":"bg","city":"Ayvadzhik","coordinates":{"lat":"41.4","long":"25.3166667"}},{"country":"bg","city":"Ayvadzhik","coordinates":{"lat":"42.45","long":"24.3833333"}},{"country":"bg","city":"Ayvadzhik","coordinates":{"lat":"42.8666667","long":"27.7166667"}},{"country":"bg","city":"Ayvadzhik Dere","coordinates":{"lat":"42.9166667","long":"27.1166667"}},{"country":"bg","city":"Ayvala","coordinates":{"lat":"41.3833333","long":"25.75"}},{"country":"bg","city":"Ayvat K'oy","coordinates":{"lat":"43.8166667","long":"26.9333333"}},{"country":"bg","city":"Ayvaz","coordinates":{"lat":"41.4","long":"25.3666667"}},{"country":"bg","city":"Azal K'oy","coordinates":{"lat":"42.5333333","long":"26.55"}},{"country":"bg","city":"Azapkioy","coordinates":{"lat":"42.5333333","long":"26.55"}},{"country":"bg","city":"Azaplar","coordinates":{"lat":"41.6666667","long":"25.3833333"}},{"country":"bg","city":"Azaplar","coordinates":{"lat":"43.85","long":"27.7833333"}},{"country":"bg","city":"Azapli","coordinates":{"lat":"42.65","long":"27.2"}},{"country":"bg","city":"Azaplii","coordinates":{"lat":"42.65","long":"27.2"}},{"country":"bg","city":"Azaplii","coordinates":{"lat":"42.25","long":"25.8166667"}},{"country":"bg","city":"Azapliy","coordinates":{"lat":"42.65","long":"27.2"}},{"country":"bg","city":"Azapliy","coordinates":{"lat":"42.25","long":"25.8166667"}},{"country":"bg","city":"Azarplar","coordinates":{"lat":"43.85","long":"27.7833333"}},{"country":"bg","city":"Azizie","coordinates":{"lat":"43.3333333","long":"24.2666667"}},{"country":"bg","city":"Azmanite","coordinates":{"lat":"42.8666667","long":"25.5"}},{"country":"bg","city":"Baale Burgas","coordinates":{"lat":"41.4666667","long":"25.6666667"}},{"country":"bg","city":"Baa Tarla","coordinates":{"lat":"42.5333333","long":"27.4"}},{"country":"bg","city":"Baba","coordinates":{"lat":"42.7986111","long":"22.7869444"}},{"country":"bg","city":"Baba Madzharka","coordinates":{"lat":"42.7833333","long":"25.3833333"}},{"country":"bg","city":"Baba Makhle","coordinates":{"lat":"42.1","long":"25.7333333"}},{"country":"bg","city":"Baba Stana","coordinates":{"lat":"42.8833333","long":"24.7833333"}},{"country":"bg","city":"Baba Tonka","coordinates":{"lat":"43.25","long":"26.1666667"}},{"country":"bg","city":"Babek","coordinates":{"lat":"42.4333333","long":"25.0666667"}},{"country":"bg","city":"Babiak","coordinates":{"lat":"41.95","long":"23.6833333"}},{"country":"bg","city":"Babino","coordinates":{"lat":"43.2666667","long":"23.4666667"}},{"country":"bg","city":"Babino","coordinates":{"lat":"42.3583333","long":"22.9744444"}},{"country":"bg","city":"Babino Burdtse","coordinates":{"lat":"41.8166667","long":"24.8"}},{"country":"bg","city":"Babinoka Reka","coordinates":{"lat":"42.3","long":"23.0"}},{"country":"bg","city":"Babinska","coordinates":{"lat":"42.3","long":"23.0"}},{"country":"bg","city":"Babinska Reka","coordinates":{"lat":"42.3","long":"23.0"}},{"country":"bg","city":"Babintsi","coordinates":{"lat":"42.9333333","long":"24.2833333"}},{"country":"bg","city":"Babitsa","coordinates":{"lat":"42.7333333","long":"22.95"}},{"country":"bg","city":"Babiza","coordinates":{"lat":"42.7333333","long":"22.95"}},{"country":"bg","city":"Babjak","coordinates":{"lat":"41.95","long":"23.6833333"}},{"country":"bg","city":"Bablon","coordinates":{"lat":"41.4833333","long":"24.7"}},{"country":"bg","city":"Babovo","coordinates":{"lat":"43.9833333","long":"26.3"}},{"country":"bg","city":"Babowo","coordinates":{"lat":"43.9833333","long":"26.3"}},{"country":"bg","city":"Babuc","coordinates":{"lat":"44.0166667","long":"27.25"}},{"country":"bg","city":"Babuk","coordinates":{"lat":"44.0166667","long":"27.25"}},{"country":"bg","city":"Babyak","coordinates":{"lat":"41.95","long":"23.6833333"}},{"country":"bg","city":"Bachalin","coordinates":{"lat":"42.8833333","long":"22.9166667"}},{"country":"bg","city":"Bachevo","coordinates":{"lat":"41.9166667","long":"23.45"}},{"country":"bg","city":"Bachiishte","coordinates":{"lat":"43.0111111","long":"22.8916667"}},{"country":"bg","city":"Bachkovo","coordinates":{"lat":"41.95","long":"24.8666667"}},{"country":"bg","city":"Bachkovski Manastir","coordinates":{"lat":"41.9333333","long":"24.85"}},{"country":"bg","city":"Bachowiza","coordinates":{"lat":"43.1833333","long":"24.6833333"}},{"country":"bg","city":"Backovo","coordinates":{"lat":"41.95","long":"24.8666667"}},{"country":"bg","city":"Badarlii","coordinates":{"lat":"42.1333333","long":"25.1333333"}},{"country":"bg","city":"Badaschte","coordinates":{"lat":"42.3166667","long":"25.6833333"}},{"country":"bg","city":"Badevtsi","coordinates":{"lat":"42.8833333","long":"25.75"}},{"country":"bg","city":"Badevtsu","coordinates":{"lat":"42.8833333","long":"25.75"}},{"country":"bg","city":"Badewzi","coordinates":{"lat":"42.8833333","long":"25.75"}},{"country":"bg","city":"Badino","coordinates":{"lat":"41.5","long":"25.7666667"}},{"country":"bg","city":"Badino","coordinates":{"lat":"42.1666667","long":"23.1"}},{"country":"bg","city":"Badurliy","coordinates":{"lat":"42.1333333","long":"25.1333333"}},{"country":"bg","city":"Badzhaklar","coordinates":{"lat":"41.75","long":"25.3666667"}},{"country":"bg","city":"Baeva Livada","coordinates":{"lat":"42.9","long":"24.9333333"}},{"country":"bg","city":"Baevtsi","coordinates":{"lat":"42.8166667","long":"25.3"}},{"country":"bg","city":"Baevtsu","coordinates":{"lat":"42.8166667","long":"25.3"}},{"country":"bg","city":"Baewzi","coordinates":{"lat":"42.8166667","long":"25.3"}},{"country":"bg","city":"Bagalevtsi","coordinates":{"lat":"42.9","long":"25.8166667"}},{"country":"bg","city":"Bagalevtsu","coordinates":{"lat":"42.9","long":"25.8166667"}},{"country":"bg","city":"Bagra","coordinates":{"lat":"41.7","long":"25.3166667"}},{"country":"bg","city":"Bagrentsi","coordinates":{"lat":"42.2802778","long":"22.7608333"}},{"country":"bg","city":"Bagrenzi","coordinates":{"lat":"42.2802778","long":"22.7608333"}},{"country":"bg","city":"Bagrianka","coordinates":{"lat":"41.5","long":"25.4333333"}},{"country":"bg","city":"Bagriltsi","coordinates":{"lat":"41.4666667","long":"25.7833333"}},{"country":"bg","city":"Bagrilzi","coordinates":{"lat":"41.4666667","long":"25.7833333"}},{"country":"bg","city":"Bagryanka","coordinates":{"lat":"41.5","long":"25.4333333"}},{"country":"bg","city":"Baharchioi","coordinates":{"lat":"43.7833333","long":"27.2166667"}},{"country":"bg","city":"Bahnhof Beliza","coordinates":{"lat":"41.6333333","long":"23.2"}},{"country":"bg","city":"Bahnhof Chitrino","coordinates":{"lat":"43.4333333","long":"26.9166667"}},{"country":"bg","city":"Bahnhof Kaspitschan","coordinates":{"lat":"43.3166667","long":"27.1666667"}},{"country":"bg","city":"Bahnhof Kostenez","coordinates":{"lat":"42.3","long":"23.8666667"}},{"country":"bg","city":"Bahnhof Pirin","coordinates":{"lat":"41.7333333","long":"23.15"}},{"country":"bg","city":"Bahnhof Rasgrad","coordinates":{"lat":"43.5666667","long":"26.5"}},{"country":"bg","city":"Bahnhof Samuil","coordinates":{"lat":"43.5166667","long":"26.75"}},{"country":"bg","city":"Bahnhof Saraniowo","coordinates":{"lat":"42.2","long":"24.1333333"}},{"country":"bg","city":"Bahnhof Slati Dol","coordinates":{"lat":"42.0166667","long":"25.85"}},{"country":"bg","city":"Bahovica","coordinates":{"lat":"43.1833333","long":"24.6833333"}},{"country":"bg","city":"Baicevo","coordinates":{"lat":"43.75","long":"28.0666667"}},{"country":"bg","city":"Baikalsko","coordinates":{"lat":"42.4038889","long":"22.8286111"}},{"country":"bg","city":"Baikowo","coordinates":{"lat":"43.4666667","long":"26.8333333"}},{"country":"bg","city":"Bailer","coordinates":{"lat":"43.7833333","long":"27.1833333"}},{"country":"bg","city":"Bailowo","coordinates":{"lat":"42.65","long":"23.8166667"}},{"country":"bg","city":"Bainowzi","coordinates":{"lat":"42.85","long":"25.2166667"}},{"country":"bg","city":"Bairam Bunar","coordinates":{"lat":"43.7166667","long":"27.5333333"}},{"country":"bg","city":"Bairam-Bunar","coordinates":{"lat":"43.7166667","long":"27.5333333"}},{"country":"bg","city":"Bairam-Dere","coordinates":{"lat":"42.9833333","long":"27.0333333"}},{"country":"bg","city":"Bair Makhle","coordinates":{"lat":"43.0","long":"26.0666667"}},{"country":"bg","city":"Bajatschewo","coordinates":{"lat":"43.2333333","long":"26.6666667"}},{"country":"bg","city":"Bakadzhika","coordinates":{"lat":"42.7333333","long":"27.5"}},{"country":"bg","city":"Bakadzhik","coordinates":{"lat":"41.3833333","long":"25.3166667"}},{"country":"bg","city":"Bakalite","coordinates":{"lat":"41.7333333","long":"25.2333333"}},{"country":"bg","city":"Bakazhek","coordinates":{"lat":"42.7333333","long":"27.5"}},{"country":"bg","city":"Bakhalin","coordinates":{"lat":"42.8833333","long":"22.9166667"}},{"country":"bg","city":"Bakhar K'oy","coordinates":{"lat":"43.7833333","long":"27.2166667"}},{"country":"bg","city":"Bakhaslii","coordinates":{"lat":"42.65","long":"25.3"}},{"country":"bg","city":"Bakhovitsa","coordinates":{"lat":"41.5833333","long":"25.5333333"}},{"country":"bg","city":"Bakhovitsa","coordinates":{"lat":"43.1833333","long":"24.6833333"}},{"country":"bg","city":"Bakhretsi","coordinates":{"lat":"42.8333333","long":"25.5333333"}},{"country":"bg","city":"Bakhshimlar","coordinates":{"lat":"43.3833333","long":"26.3333333"}},{"country":"bg","city":"Bakhshishlar","coordinates":{"lat":"43.3833333","long":"26.3333333"}},{"country":"bg","city":"Bakiiler","coordinates":{"lat":"41.4833333","long":"25.8"}},{"country":"bg","city":"Bakiowo","coordinates":{"lat":"42.8666667","long":"23.4666667"}},{"country":"bg","city":"Bakoitsu","coordinates":{"lat":"42.85","long":"25.3"}},{"country":"bg","city":"Bakoizi","coordinates":{"lat":"42.85","long":"25.3"}},{"country":"bg","city":"Bakova Mogila","coordinates":{"lat":"43.0333333","long":"23.9333333"}},{"country":"bg","city":"Bak'ovo","coordinates":{"lat":"42.8666667","long":"23.4666667"}},{"country":"bg","city":"Bakowa-Mogila","coordinates":{"lat":"43.0333333","long":"23.9333333"}},{"country":"bg","city":"Bakulur","coordinates":{"lat":"41.7333333","long":"25.2333333"}},{"country":"bg","city":"Balaban","coordinates":{"lat":"41.6333333","long":"24.35"}},{"country":"bg","city":"Balabancha","coordinates":{"lat":"42.5666667","long":"26.9833333"}},{"country":"bg","city":"Balabanchevo","coordinates":{"lat":"42.7833333","long":"26.7833333"}},{"country":"bg","city":"Balabanla","coordinates":{"lat":"41.5666667","long":"25.3833333"}},{"country":"bg","city":"Balabanlar","coordinates":{"lat":"43.2","long":"26.2166667"}},{"country":"bg","city":"Balabanlari","coordinates":{"lat":"43.2","long":"26.2166667"}},{"country":"bg","city":"Balabanli","coordinates":{"lat":"42.1","long":"25.4666667"}},{"country":"bg","city":"Balabanli","coordinates":{"lat":"43.4833333","long":"25.8166667"}},{"country":"bg","city":"Balabanlii","coordinates":{"lat":"42.1","long":"25.4666667"}},{"country":"bg","city":"Balabanlii","coordinates":{"lat":"43.4833333","long":"25.8166667"}},{"country":"bg","city":"Balabanliy","coordinates":{"lat":"42.5666667","long":"26.9833333"}},{"country":"bg","city":"Balabanlu","coordinates":{"lat":"41.5666667","long":"25.3833333"}},{"country":"bg","city":"Balabanluk","coordinates":{"lat":"42.5166667","long":"27.1166667"}},{"country":"bg","city":"Balabanovo","coordinates":{"lat":"41.5666667","long":"25.3833333"}},{"country":"bg","city":"Balabanowo","coordinates":{"lat":"41.5666667","long":"25.3833333"}},{"country":"bg","city":"Balabanska","coordinates":{"lat":"42.9","long":"24.6666667"}},{"country":"bg","city":"Balabanska","coordinates":{"lat":"42.9833333","long":"24.0333333"}},{"country":"bg","city":"Balabansko","coordinates":{"lat":"42.9","long":"24.6666667"}},{"country":"bg","city":"Balabantschewo","coordinates":{"lat":"42.7833333","long":"26.7833333"}},{"country":"bg","city":"Balabash","coordinates":{"lat":"42.7833333","long":"26.7833333"}},{"country":"bg","city":"Balader-Kioi","coordinates":{"lat":"43.1166667","long":"27.4333333"}},{"country":"bg","city":"Baladsha","coordinates":{"lat":"43.45","long":"27.8166667"}},{"country":"bg","city":"Baladzha","coordinates":{"lat":"43.45","long":"27.8166667"}},{"country":"bg","city":"Balagea","coordinates":{"lat":"43.45","long":"27.8166667"}},{"country":"bg","city":"Balaleja","coordinates":{"lat":"42.9833333","long":"25.4333333"}},{"country":"bg","city":"Balaleya","coordinates":{"lat":"42.9833333","long":"25.4333333"}},{"country":"bg","city":"Balanite","coordinates":{"lat":"42.8666667","long":"25.3166667"}},{"country":"bg","city":"Balanovo","coordinates":{"lat":"42.25","long":"23.0666667"}},{"country":"bg","city":"Balanowo","coordinates":{"lat":"42.25","long":"23.0666667"}},{"country":"bg","city":"Balantsite","coordinates":{"lat":"42.7666667","long":"25.4"}},{"country":"bg","city":"Balantsitye","coordinates":{"lat":"42.7666667","long":"25.4"}},{"country":"bg","city":"Balbunar","coordinates":{"lat":"43.8","long":"26.5"}},{"country":"bg","city":"Balbunar Endzhe","coordinates":{"lat":"43.7666667","long":"26.5166667"}},{"country":"bg","city":"Balchik","coordinates":{"lat":"43.4166667","long":"28.1666667"}},{"country":"bg","city":"Balchiq","coordinates":{"lat":"43.4166667","long":"28.1666667"}},{"country":"bg","city":"Balcic","coordinates":{"lat":"43.4166667","long":"28.1666667"}},{"country":"bg","city":"Balder-K'oy","coordinates":{"lat":"43.1166667","long":"27.4333333"}},{"country":"bg","city":"Baldevo","coordinates":{"lat":"42.3166667","long":"24.3666667"}},{"country":"bg","city":"Baldevo","coordinates":{"lat":"41.6333333","long":"23.7666667"}},{"country":"bg","city":"Baldewo","coordinates":{"lat":"41.6333333","long":"23.7666667"}},{"country":"bg","city":"Baldovo","coordinates":{"lat":"41.6333333","long":"23.7666667"}},{"country":"bg","city":"Baldzhi Buk","coordinates":{"lat":"41.3666667","long":"26.0333333"}},{"country":"bg","city":"Baldzhi K'oy","coordinates":{"lat":"42.7","long":"27.5666667"}},{"country":"bg","city":"Baldzhilare","coordinates":{"lat":"42.3666667","long":"25.2"}},{"country":"bg","city":"Baldzhi Omur","coordinates":{"lat":"43.3166667","long":"26.1666667"}},{"country":"bg","city":"Balej","coordinates":{"lat":"44.1877778","long":"22.6461111"}},{"country":"bg","city":"Balevo Makhala","coordinates":{"lat":"42.3166667","long":"23.9333333"}},{"country":"bg","city":"Baley","coordinates":{"lat":"44.1877778","long":"22.6461111"}},{"country":"bg","city":"Balgaranowo","coordinates":{"lat":"43.0166667","long":"26.5"}},{"country":"bg","city":"Balgarene","coordinates":{"lat":"43.05","long":"24.7666667"}},{"country":"bg","city":"Balgareni","coordinates":{"lat":"42.25","long":"25.9"}},{"country":"bg","city":"Balgari","coordinates":{"lat":"42.1","long":"27.7333333"}},{"country":"bg","city":"Balgarin","coordinates":{"lat":"41.95","long":"25.95"}},{"country":"bg","city":"Balgarovo","coordinates":{"lat":"42.6166667","long":"27.3"}},{"country":"bg","city":"Balgarowo","coordinates":{"lat":"42.6166667","long":"27.3"}},{"country":"bg","city":"Balgarska Poljana","coordinates":{"lat":"42.0333333","long":"26.2"}},{"country":"bg","city":"Balgarski Iswor","coordinates":{"lat":"43.0333333","long":"24.2833333"}},{"country":"bg","city":"Balgarski Karagach","coordinates":{"lat":"43.4333333","long":"24.9166667"}},{"country":"bg","city":"Balgarsko Sliwowo","coordinates":{"lat":"43.55","long":"25.3"}},{"country":"bg","city":"Balgartschewo","coordinates":{"lat":"42.0333333","long":"23.0166667"}},{"country":"bg","city":"Bali Bunar","coordinates":{"lat":"42.3166667","long":"26.3166667"}},{"country":"bg","city":"Bali Efendi","coordinates":{"lat":"42.6666667","long":"23.25"}},{"country":"bg","city":"Balik","coordinates":{"lat":"43.8","long":"27.5833333"}},{"country":"bg","city":"Balinovtsi","coordinates":{"lat":"42.9333333","long":"25.4166667"}},{"country":"bg","city":"Balintsovo","coordinates":{"lat":"42.9","long":"24.8166667"}},{"country":"bg","city":"Baljuwiza","coordinates":{"lat":"43.2972222","long":"23.2033333"}},{"country":"bg","city":"Balkan","coordinates":{"lat":"41.7666667","long":"25.5666667"}},{"country":"bg","city":"Balkan","coordinates":{"lat":"43.8333333","long":"26.8833333"}},{"country":"bg","city":"Balkanci","coordinates":{"lat":"43.6","long":"28.1666667"}},{"country":"bg","city":"Balkanets","coordinates":{"lat":"42.85","long":"24.6666667"}},{"country":"bg","city":"Balkan-Machla","coordinates":{"lat":"41.75","long":"24.85"}},{"country":"bg","city":"Balkan Makhala","coordinates":{"lat":"41.75","long":"24.85"}},{"country":"bg","city":"Balkansi","coordinates":{"lat":"43.5166667","long":"26.4"}},{"country":"bg","city":"Balkanski","coordinates":{"lat":"43.5166667","long":"26.4"}},{"country":"bg","city":"Balkantsi","coordinates":{"lat":"43.1666667","long":"26.0"}},{"country":"bg","city":"Balkantsi","coordinates":{"lat":"43.5166667","long":"26.4"}},{"country":"bg","city":"Balkantsi","coordinates":{"lat":"43.6","long":"28.1666667"}},{"country":"bg","city":"Balla-Bunar","coordinates":{"lat":"42.3166667","long":"26.3166667"}},{"country":"bg","city":"Balli Bunar","coordinates":{"lat":"42.3166667","long":"26.3166667"}},{"country":"bg","city":"Ballu Bunar","coordinates":{"lat":"42.3166667","long":"26.3166667"}},{"country":"bg","city":"Balludzha","coordinates":{"lat":"43.45","long":"27.8166667"}},{"country":"bg","city":"Bal'ova Makhala","coordinates":{"lat":"42.3166667","long":"23.9333333"}},{"country":"bg","city":"Bal'ovitsa","coordinates":{"lat":"43.2972222","long":"23.2033333"}},{"country":"bg","city":"Bal'ovtsi","coordinates":{"lat":"42.5666667","long":"23.6833333"}},{"country":"bg","city":"Balscha","coordinates":{"lat":"42.85","long":"23.2666667"}},{"country":"bg","city":"Balsha","coordinates":{"lat":"42.85","long":"23.2666667"}},{"country":"bg","city":"Baltadshi-Enikioi","coordinates":{"lat":"43.9333333","long":"27.1333333"}},{"country":"bg","city":"Baltadzhii","coordinates":{"lat":"42.2666667","long":"24.95"}},{"country":"bg","city":"Baltadzhiy","coordinates":{"lat":"42.2666667","long":"24.95"}},{"country":"bg","city":"Baltadzi","coordinates":{"lat":"42.2666667","long":"24.95"}},{"country":"bg","city":"Baltadzii","coordinates":{"lat":"42.2666667","long":"24.95"}},{"country":"bg","city":"Baltagiul-Nou","coordinates":{"lat":"43.9333333","long":"27.1333333"}},{"country":"bg","city":"Baltazhi Eni K'oy","coordinates":{"lat":"43.9333333","long":"27.1333333"}},{"country":"bg","city":"Baltchik","coordinates":{"lat":"43.4166667","long":"28.1666667"}},{"country":"bg","city":"Baltschik","coordinates":{"lat":"43.4166667","long":"28.1666667"}},{"country":"bg","city":"Baluk","coordinates":{"lat":"41.3833333","long":"25.5333333"}},{"country":"bg","city":"Baluk Dere","coordinates":{"lat":"41.4666667","long":"24.8666667"}},{"country":"bg","city":"Baluklii","coordinates":{"lat":"42.4166667","long":"25.4333333"}},{"country":"bg","city":"Balukliy","coordinates":{"lat":"42.4166667","long":"25.4333333"}},{"country":"bg","city":"Baluklu Dere","coordinates":{"lat":"41.75","long":"25.0333333"}},{"country":"bg","city":"Balutsi","coordinates":{"lat":"42.95","long":"25.8333333"}},{"country":"bg","city":"Baluzi","coordinates":{"lat":"42.95","long":"25.8333333"}},{"country":"bg","city":"Balvan","coordinates":{"lat":"43.0833333","long":"25.4166667"}},{"country":"bg","city":"Balvan-Makhala","coordinates":{"lat":"43.05","long":"25.4333333"}},{"country":"bg","city":"Balvan Makhla","coordinates":{"lat":"43.05","long":"25.4333333"}},{"country":"bg","city":"Balvantsi","coordinates":{"lat":"43.0166667","long":"25.45"}},{"country":"bg","city":"Balvantsite","coordinates":{"lat":"43.0166667","long":"25.45"}},{"country":"bg","city":"Balwan","coordinates":{"lat":"43.0833333","long":"25.4166667"}},{"country":"bg","city":"Balwanzite","coordinates":{"lat":"43.0166667","long":"25.45"}},{"country":"bg","city":"Balyuvitsa","coordinates":{"lat":"43.2972222","long":"23.2033333"}},{"country":"bg","city":"Bambino","coordinates":{"lat":"42.3583333","long":"22.9744444"}},{"country":"bg","city":"Bananovo","coordinates":{"lat":"43.95","long":"26.5833333"}},{"country":"bg","city":"Banari","coordinates":{"lat":"42.9333333","long":"25.45"}},{"country":"bg","city":"Banarite","coordinates":{"lat":"42.9333333","long":"25.45"}},{"country":"bg","city":"Banchovtsi","coordinates":{"lat":"42.5166667","long":"23.6833333"}},{"country":"bg","city":"Banevo","coordinates":{"lat":"42.6333333","long":"27.4"}},{"country":"bg","city":"Bangeici","coordinates":{"lat":"42.85","long":"25.45"}},{"country":"bg","city":"Bangeytsi","coordinates":{"lat":"42.85","long":"25.45"}},{"country":"bg","city":"Bania","coordinates":{"lat":"42.6166667","long":"26.0"}},{"country":"bg","city":"Bania","coordinates":{"lat":"42.45","long":"24.15"}},{"country":"bg","city":"Bania","coordinates":{"lat":"41.8833333","long":"23.5333333"}},{"country":"bg","city":"Banica","coordinates":{"lat":"43.3333333","long":"23.6833333"}},{"country":"bg","city":"Banica","coordinates":{"lat":"43.4666667","long":"25.9"}},{"country":"bg","city":"Banichan","coordinates":{"lat":"41.6166667","long":"23.7333333"}},{"country":"bg","city":"Banischte","coordinates":{"lat":"42.7222222","long":"22.7286111"}},{"country":"bg","city":"Banishor","coordinates":{"lat":"42.7222222","long":"22.7286111"}},{"country":"bg","city":"Banishte","coordinates":{"lat":"42.7222222","long":"22.7286111"}},{"country":"bg","city":"Baniska","coordinates":{"lat":"43.4666667","long":"25.9"}},{"country":"bg","city":"Banisko","coordinates":{"lat":"43.4666667","long":"25.9"}},{"country":"bg","city":"Banisor","coordinates":{"lat":"42.7222222","long":"22.7286111"}},{"country":"bg","city":"Banite","coordinates":{"lat":"41.6166667","long":"25.0166667"}},{"country":"bg","city":"Banitsa","coordinates":{"lat":"43.3333333","long":"23.6833333"}},{"country":"bg","city":"Banitschan","coordinates":{"lat":"41.6166667","long":"23.7333333"}},{"country":"bg","city":"Baniza","coordinates":{"lat":"43.3333333","long":"23.6833333"}},{"country":"bg","city":"Banja","coordinates":{"lat":"43.42","long":"23.2747222"}},{"country":"bg","city":"Banja","coordinates":{"lat":"42.6166667","long":"26.0"}},{"country":"bg","city":"Banja","coordinates":{"lat":"42.5","long":"24.7"}},{"country":"bg","city":"Banja","coordinates":{"lat":"42.3","long":"23.7666667"}},{"country":"bg","city":"Banja Cepino","coordinates":{"lat":"42.55","long":"24.8333333"}},{"country":"bg","city":"Banjata","coordinates":{"lat":"42.6166667","long":"26.0"}},{"country":"bg","city":"Banjska","coordinates":{"lat":"41.8394444","long":"23.5"}},{"country":"bg","city":"Banjsko","coordinates":{"lat":"41.8394444","long":"23.5"}},{"country":"bg","city":"Bankia","coordinates":{"lat":"42.7","long":"23.1333333"}},{"country":"bg","city":"Banki","coordinates":{"lat":"42.7","long":"23.1333333"}},{"country":"bg","city":"Bankja","coordinates":{"lat":"42.7","long":"23.1333333"}},{"country":"bg","city":"Bankja","coordinates":{"lat":"42.8636111","long":"22.6811111"}},{"country":"bg","city":"Bankov Dol","coordinates":{"lat":"42.9166667","long":"24.1666667"}},{"country":"bg","city":"Bankovets","coordinates":{"lat":"43.0666667","long":"26.1666667"}},{"country":"bg","city":"Bankovtsi","coordinates":{"lat":"42.9333333","long":"25.3166667"}},{"country":"bg","city":"Bankovtsu","coordinates":{"lat":"42.9333333","long":"25.3166667"}},{"country":"bg","city":"Bankowez","coordinates":{"lat":"43.0666667","long":"26.1666667"}},{"country":"bg","city":"Bankowzi","coordinates":{"lat":"42.9333333","long":"25.3166667"}},{"country":"bg","city":"Bankya","coordinates":{"lat":"42.7","long":"23.1333333"}},{"country":"bg","city":"Bankya","coordinates":{"lat":"42.8636111","long":"22.6811111"}},{"country":"bg","city":"Bannica","coordinates":{"lat":"43.4666667","long":"25.9"}},{"country":"bg","city":"Banovo","coordinates":{"lat":"43.2666667","long":"27.6833333"}},{"country":"bg","city":"Banowo","coordinates":{"lat":"43.2666667","long":"27.6833333"}},{"country":"bg","city":"Bansko","coordinates":{"lat":"41.8394444","long":"23.5"}},{"country":"bg","city":"Bansko","coordinates":{"lat":"43.4666667","long":"25.9"}},{"country":"bg","city":"Banya","coordinates":{"lat":"43.42","long":"23.2747222"}},{"country":"bg","city":"Banya","coordinates":{"lat":"42.6166667","long":"26.0"}},{"country":"bg","city":"Banya","coordinates":{"lat":"42.5","long":"24.7"}},{"country":"bg","city":"Banya","coordinates":{"lat":"41.8833333","long":"23.5333333"}},{"country":"bg","city":"Banya","coordinates":{"lat":"42.6","long":"25.2"}},{"country":"bg","city":"Banya Chepino","coordinates":{"lat":"41.9833333","long":"23.9666667"}},{"country":"bg","city":"Banya Chepinska","coordinates":{"lat":"41.9833333","long":"23.9666667"}},{"country":"bg","city":"Banya Kostenets","coordinates":{"lat":"42.3","long":"23.8666667"}},{"country":"bg","city":"Banyata","coordinates":{"lat":"42.6166667","long":"26.0"}},{"country":"bg","city":"Banysko","coordinates":{"lat":"41.8394444","long":"23.5"}},{"country":"bg","city":"Baraclar","coordinates":{"lat":"43.8333333","long":"27.6"}},{"country":"bg","city":"Baradakioy","coordinates":{"lat":"42.5666667","long":"24.75"}},{"country":"bg","city":"Barak","coordinates":{"lat":"42.8333333","long":"27.0666667"}},{"country":"bg","city":"Barakhelite","coordinates":{"lat":"42.8666667","long":"25.3166667"}},{"country":"bg","city":"Baraklar","coordinates":{"lat":"41.5166667","long":"25.6333333"}},{"country":"bg","city":"Baraklar","coordinates":{"lat":"43.8333333","long":"27.6"}},{"country":"bg","city":"Baraklari","coordinates":{"lat":"42.4666667","long":"25.5333333"}},{"country":"bg","city":"Baraklarit","coordinates":{"lat":"42.4666667","long":"25.5333333"}},{"country":"bg","city":"Barakli","coordinates":{"lat":"42.75","long":"27.6166667"}},{"country":"bg","city":"Baraklii","coordinates":{"lat":"42.75","long":"27.6166667"}},{"country":"bg","city":"Barakliya","coordinates":{"lat":"42.75","long":"27.6166667"}},{"country":"bg","city":"Barakliy","coordinates":{"lat":"42.75","long":"27.6166667"}},{"country":"bg","city":"Baraklü","coordinates":{"lat":"42.75","long":"27.6166667"}},{"country":"bg","city":"Barakovo","coordinates":{"lat":"42.0666667","long":"23.0666667"}},{"country":"bg","city":"Barakowo","coordinates":{"lat":"42.0666667","long":"23.0666667"}},{"country":"bg","city":"Barata","coordinates":{"lat":"42.5166667","long":"23.8333333"}},{"country":"bg","city":"Baratsi","coordinates":{"lat":"41.5166667","long":"25.6333333"}},{"country":"bg","city":"Barazankioy","coordinates":{"lat":"43.3666667","long":"26.5"}},{"country":"bg","city":"Barazi","coordinates":{"lat":"41.5166667","long":"25.6333333"}},{"country":"bg","city":"Barbino","coordinates":{"lat":"43.8","long":"27.25"}},{"country":"bg","city":"Bardakchii","coordinates":{"lat":"41.7","long":"24.1"}},{"country":"bg","city":"Bardarite","coordinates":{"lat":"42.8166667","long":"25.4666667"}},{"country":"bg","city":"Bardarski-Geran","coordinates":{"lat":"43.55","long":"23.95"}},{"country":"bg","city":"Bardo","coordinates":{"lat":"42.5666667","long":"23.8"}},{"country":"bg","city":"Bardowka","coordinates":{"lat":"43.6333333","long":"26.8"}},{"country":"bg","city":"Barduche","coordinates":{"lat":"41.7","long":"24.1"}},{"country":"bg","city":"Bardutsche","coordinates":{"lat":"41.7","long":"24.1"}},{"country":"bg","city":"Bargan","coordinates":{"lat":"42.5666667","long":"27.0333333"}},{"country":"bg","city":"Bargani","coordinates":{"lat":"42.5666667","long":"27.0333333"}},{"country":"bg","city":"Barganlii","coordinates":{"lat":"42.5666667","long":"27.0333333"}},{"country":"bg","city":"Barganliy","coordinates":{"lat":"42.5666667","long":"27.0333333"}},{"country":"bg","city":"Barievo","coordinates":{"lat":"42.6666667","long":"23.5333333"}},{"country":"bg","city":"Barkachevo","coordinates":{"lat":"43.4","long":"23.9333333"}},{"country":"bg","city":"Barkatsch","coordinates":{"lat":"43.3","long":"24.4333333"}},{"country":"bg","city":"Barkatschewo","coordinates":{"lat":"43.4","long":"23.9333333"}},{"country":"bg","city":"Barlja","coordinates":{"lat":"43.0997222","long":"22.9825"}},{"country":"bg","city":"Barloshiza","coordinates":{"lat":"42.85","long":"22.95"}},{"country":"bg","city":"Barotin","coordinates":{"lat":"41.45","long":"24.6"}},{"country":"bg","city":"Barsa-Reka","coordinates":{"lat":"41.7333333","long":"25.3833333"}},{"country":"bg","city":"Barsija","coordinates":{"lat":"41.35","long":"25.3166667"}},{"country":"bg","city":"Barsina","coordinates":{"lat":"43.55","long":"23.7166667"}},{"country":"bg","city":"Barsiza","coordinates":{"lat":"43.0666667","long":"27.5333333"}},{"country":"bg","city":"Bartschewo","coordinates":{"lat":"41.4666667","long":"24.8166667"}},{"country":"bg","city":"Bartsi","coordinates":{"lat":"43.5333333","long":"26.8833333"}},{"country":"bg","city":"Baruk","coordinates":{"lat":"42.8333333","long":"27.0666667"}},{"country":"bg","city":"Barutin","coordinates":{"lat":"41.6","long":"24.1833333"}},{"country":"bg","city":"Barutinska","coordinates":{"lat":"41.45","long":"24.6"}},{"country":"bg","city":"Basan","coordinates":{"lat":"43.7333333","long":"26.1166667"}},{"country":"bg","city":"Basarbovo","coordinates":{"lat":"43.7833333","long":"25.95"}},{"country":"bg","city":"Bas-Bunar","coordinates":{"lat":"43.55","long":"27.9333333"}},{"country":"bg","city":"Basch-Buk","coordinates":{"lat":"41.4666667","long":"24.7333333"}},{"country":"bg","city":"Baschbunar","coordinates":{"lat":"43.55","long":"27.9333333"}},{"country":"bg","city":"Baschchassarlak","coordinates":{"lat":"43.6333333","long":"28.15"}},{"country":"bg","city":"Baschtina","coordinates":{"lat":"41.7166667","long":"25.5666667"}},{"country":"bg","city":"Baschtino","coordinates":{"lat":"42.1","long":"25.7333333"}},{"country":"bg","city":"Bashalii","coordinates":{"lat":"42.4333333","long":"26.85"}},{"country":"bg","city":"Bashatlii","coordinates":{"lat":"42.25","long":"26.7"}},{"country":"bg","city":"Bash Buk","coordinates":{"lat":"41.4666667","long":"24.7333333"}},{"country":"bg","city":"Bash Bunar","coordinates":{"lat":"43.55","long":"27.9333333"}},{"country":"bg","city":"Bashevo","coordinates":{"lat":"41.6666667","long":"25.1333333"}},{"country":"bg","city":"Bashikarevo","coordinates":{"lat":"42.15","long":"24.3166667"}},{"country":"bg","city":"Bashi-Karovo","coordinates":{"lat":"42.15","long":"24.3166667"}},{"country":"bg","city":"Bashikurovo","coordinates":{"lat":"42.15","long":"24.3166667"}},{"country":"bg","city":"Bashikyarovo","coordinates":{"lat":"42.15","long":"24.3166667"}},{"country":"bg","city":"Bash Khasurluk","coordinates":{"lat":"43.6333333","long":"28.1333333"}},{"country":"bg","city":"Bashkioy","coordinates":{"lat":"42.8333333","long":"26.4666667"}},{"country":"bg","city":"Bashlar","coordinates":{"lat":"43.0333333","long":"26.45"}},{"country":"bg","city":"Bash Shashl","coordinates":{"lat":"41.5","long":"25.3833333"}},{"country":"bg","city":"Bashtevo","coordinates":{"lat":"41.6666667","long":"25.1333333"}},{"country":"bg","city":"Bashtina","coordinates":{"lat":"41.7166667","long":"25.5666667"}},{"country":"bg","city":"Bashtina","coordinates":{"lat":"43.95","long":"26.9333333"}},{"country":"bg","city":"Bashtino","coordinates":{"lat":"41.7166667","long":"25.5666667"}},{"country":"bg","city":"Bashtino","coordinates":{"lat":"43.95","long":"26.9333333"}},{"country":"bg","city":"Bash Viran","coordinates":{"lat":"41.75","long":"25.2833333"}},{"country":"bg","city":"Bash Yuren","coordinates":{"lat":"41.5333333","long":"25.8333333"}},{"country":"bg","city":"Basikerovo","coordinates":{"lat":"42.15","long":"24.3166667"}},{"country":"bg","city":"Basikirovo","coordinates":{"lat":"42.15","long":"24.3166667"}},{"country":"bg","city":"Baskaltsi","coordinates":{"lat":"41.4833333","long":"23.0"}},{"country":"bg","city":"Baskalzi","coordinates":{"lat":"41.4833333","long":"23.0"}},{"country":"bg","city":"Baslar","coordinates":{"lat":"43.3833333","long":"26.3333333"}},{"country":"bg","city":"Basowez","coordinates":{"lat":"43.6333333","long":"23.55"}},{"country":"bg","city":"Basowez","coordinates":{"lat":"43.5","long":"25.8833333"}},{"country":"bg","city":"Bassarbowo","coordinates":{"lat":"43.7833333","long":"25.95"}},{"country":"bg","city":"Bastica","coordinates":{"lat":"43.95","long":"26.9333333"}},{"country":"bg","city":"Bata","coordinates":{"lat":"42.7333333","long":"27.5"}},{"country":"bg","city":"Bata","coordinates":{"lat":"42.45","long":"24.1833333"}},{"country":"bg","city":"Batachik","coordinates":{"lat":"42.7333333","long":"27.5"}},{"country":"bg","city":"Batadzhik","coordinates":{"lat":"42.7333333","long":"27.5"}},{"country":"bg","city":"Batadzik","coordinates":{"lat":"42.7333333","long":"27.5"}},{"country":"bg","city":"Batak","coordinates":{"lat":"43.35","long":"25.3333333"}},{"country":"bg","city":"Batak","coordinates":{"lat":"41.95","long":"24.2166667"}},{"country":"bg","city":"Batanovci","coordinates":{"lat":"42.5997222","long":"22.9505556"}},{"country":"bg","city":"Batanovitsi","coordinates":{"lat":"42.5997222","long":"22.9505556"}},{"country":"bg","city":"Batanovtsi","coordinates":{"lat":"42.5997222","long":"22.9505556"}},{"country":"bg","city":"Batanovtzi","coordinates":{"lat":"42.5997222","long":"22.9505556"}},{"country":"bg","city":"Batanowzi","coordinates":{"lat":"42.5997222","long":"22.9505556"}},{"country":"bg","city":"Batantsi","coordinates":{"lat":"41.4666667","long":"24.9333333"}},{"country":"bg","city":"Batava","coordinates":{"lat":"42.45","long":"24.1833333"}},{"country":"bg","city":"Batchkovski Monastir","coordinates":{"lat":"41.9333333","long":"24.85"}},{"country":"bg","city":"Batemberg","coordinates":{"lat":"43.45","long":"26.4"}},{"country":"bg","city":"Batenberg","coordinates":{"lat":"43.45","long":"26.4"}},{"country":"bg","city":"Batin","coordinates":{"lat":"43.65","long":"25.6833333"}},{"country":"bg","city":"Batinska Machala","coordinates":{"lat":"41.4666667","long":"24.9333333"}},{"country":"bg","city":"Batintsi","coordinates":{"lat":"41.4666667","long":"24.9333333"}},{"country":"bg","city":"Batischniza","coordinates":{"lat":"43.5333333","long":"25.8666667"}},{"country":"bg","city":"Batishnitsa","coordinates":{"lat":"43.5333333","long":"25.8666667"}},{"country":"bg","city":"Batishnitsi","coordinates":{"lat":"43.5333333","long":"25.8666667"}},{"country":"bg","city":"Batisnica","coordinates":{"lat":"43.5333333","long":"25.8666667"}},{"country":"bg","city":"Batkanlii","coordinates":{"lat":"42.2166667","long":"25.9"}},{"country":"bg","city":"Batkanliy","coordinates":{"lat":"42.2166667","long":"25.9"}},{"country":"bg","city":"Batkovtsi","coordinates":{"lat":"41.0166667","long":"25.4833333"}},{"country":"bg","city":"Batkovtsi","coordinates":{"lat":"42.85","long":"23.2166667"}},{"country":"bg","city":"Batkowzi","coordinates":{"lat":"42.85","long":"23.2166667"}},{"country":"bg","city":"Batkun","coordinates":{"lat":"42.1333333","long":"24.2"}},{"country":"bg","city":"Batochévo","coordinates":{"lat":"42.9","long":"25.0833333"}},{"country":"bg","city":"Batoschowo","coordinates":{"lat":"42.9","long":"25.0833333"}},{"country":"bg","city":"Batosevo","coordinates":{"lat":"42.9","long":"25.0833333"}},{"country":"bg","city":"Batoshevo","coordinates":{"lat":"42.9","long":"25.0833333"}},{"country":"bg","city":"Batoshovo","coordinates":{"lat":"42.9","long":"25.0833333"}},{"country":"bg","city":"Batosovo","coordinates":{"lat":"42.9","long":"25.0833333"}},{"country":"bg","city":"Batovo","coordinates":{"lat":"43.4166667","long":"27.9666667"}},{"country":"bg","city":"Batowo","coordinates":{"lat":"43.4166667","long":"27.9666667"}},{"country":"bg","city":"Batschewo","coordinates":{"lat":"41.9166667","long":"23.45"}},{"country":"bg","city":"Batschkowo","coordinates":{"lat":"41.95","long":"24.8666667"}},{"country":"bg","city":"Batsova Makhala","coordinates":{"lat":"43.5","long":"25.0"}},{"country":"bg","city":"Batsova Makhla","coordinates":{"lat":"43.5","long":"25.0"}},{"country":"bg","city":"Battenberg","coordinates":{"lat":"43.45","long":"26.4"}},{"country":"bg","city":"Batulija","coordinates":{"lat":"42.8833333","long":"23.4333333"}},{"country":"bg","city":"Batuliya","coordinates":{"lat":"42.8833333","long":"23.4333333"}},{"country":"bg","city":"Batultsi","coordinates":{"lat":"41.4666667","long":"25.8333333"}},{"country":"bg","city":"Batultsi","coordinates":{"lat":"43.0833333","long":"24.0"}},{"country":"bg","city":"Batulzi","coordinates":{"lat":"43.0833333","long":"24.0"}},{"country":"bg","city":"Batyshnitsa","coordinates":{"lat":"43.5333333","long":"25.8666667"}},{"country":"bg","city":"Baurene","coordinates":{"lat":"43.45","long":"23.4833333"}},{"country":"bg","city":"Bayachevo","coordinates":{"lat":"43.2333333","long":"26.6666667"}},{"country":"bg","city":"Bayachkioy","coordinates":{"lat":"43.2333333","long":"26.6666667"}},{"country":"bg","city":"Baya K'oy","coordinates":{"lat":"42.5166667","long":"27.3833333"}},{"country":"bg","city":"Bayaslii","coordinates":{"lat":"42.65","long":"25.3"}},{"country":"bg","city":"Bayazetli","coordinates":{"lat":"42.65","long":"25.3"}},{"country":"bg","city":"Baychevo","coordinates":{"lat":"43.75","long":"28.0666667"}},{"country":"bg","city":"Baykal","coordinates":{"lat":"43.7166667","long":"24.4166667"}},{"country":"bg","city":"Baykalsko","coordinates":{"lat":"42.4038889","long":"22.8286111"}},{"country":"bg","city":"Baykovo","coordinates":{"lat":"43.4666667","long":"26.8333333"}},{"country":"bg","city":"Bayler K'oy","coordinates":{"lat":"43.7833333","long":"27.1833333"}},{"country":"bg","city":"Baylovo","coordinates":{"lat":"42.65","long":"23.8166667"}},{"country":"bg","city":"Baynovtsu","coordinates":{"lat":"42.85","long":"25.2166667"}},{"country":"bg","city":"Bayovitsa","coordinates":{"lat":"42.9","long":"24.1833333"}},{"country":"bg","city":"Bayovtsi","coordinates":{"lat":"41.5","long":"25.2166667"}},{"country":"bg","city":"Bayraktar Makhala","coordinates":{"lat":"43.7166667","long":"23.1166667"}},{"country":"bg","city":"Bayraktar Makhle","coordinates":{"lat":"41.75","long":"25.3666667"}},{"country":"bg","city":"Bayram Alan","coordinates":{"lat":"42.85","long":"27.3166667"}},{"country":"bg","city":"Bayram Bunar","coordinates":{"lat":"43.7166667","long":"27.5333333"}},{"country":"bg","city":"Bayram Dere","coordinates":{"lat":"42.9833333","long":"27.0333333"}},{"country":"bg","city":"Bayramlu K'oy","coordinates":{"lat":"43.0833333","long":"26.3833333"}},{"country":"bg","city":"Bayremlu","coordinates":{"lat":"43.0833333","long":"26.3833333"}},{"country":"bg","city":"Bayryam Alan","coordinates":{"lat":"42.85","long":"27.3166667"}},{"country":"bg","city":"Bayryam-Dere","coordinates":{"lat":"42.9833333","long":"27.0333333"}},{"country":"bg","city":"Bayuva Livada","coordinates":{"lat":"42.9","long":"24.9333333"}},{"country":"bg","city":"Bazarghian","coordinates":{"lat":"43.9833333","long":"26.9666667"}},{"country":"bg","city":"Bazargic","coordinates":{"lat":"43.5666667","long":"27.8333333"}},{"country":"bg","city":"Bazaurt","coordinates":{"lat":"43.7333333","long":"27.6333333"}},{"country":"bg","city":"Bazaurtul-de Mijloc","coordinates":{"lat":"43.7166667","long":"27.6333333"}},{"country":"bg","city":"Bazaurtul Mic","coordinates":{"lat":"43.7333333","long":"27.6333333"}},{"country":"bg","city":"Bazaurturile","coordinates":{"lat":"43.7166667","long":"27.6333333"}},{"country":"bg","city":"Bazaurturile Mic","coordinates":{"lat":"43.7333333","long":"27.6333333"}},{"country":"bg","city":"Bazhdari","coordinates":{"lat":"42.85","long":"25.7666667"}},{"country":"bg","city":"Bazirgyan","coordinates":{"lat":"43.9833333","long":"26.9666667"}},{"country":"bg","city":"Bazirgyankioy","coordinates":{"lat":"43.1166667","long":"26.4666667"}},{"country":"bg","city":"Bazirgyan K'oy","coordinates":{"lat":"41.55","long":"25.3"}},{"country":"bg","city":"Bazirgyan K'oy","coordinates":{"lat":"43.1166667","long":"26.4666667"}},{"country":"bg","city":"Bazowa Machala","coordinates":{"lat":"43.5","long":"25.0"}},{"country":"bg","city":"Bclgari","coordinates":{"lat":"42.1","long":"27.7333333"}},{"country":"bg","city":"Bdintsi","coordinates":{"lat":"43.5333333","long":"27.5166667"}},{"country":"bg","city":"Bdinzi","coordinates":{"lat":"43.5333333","long":"27.5166667"}},{"country":"bg","city":"Bebrovo","coordinates":{"lat":"42.95","long":"26.0166667"}},{"country":"bg","city":"Bebrowo","coordinates":{"lat":"42.95","long":"26.0166667"}},{"country":"bg","city":"Beden","coordinates":{"lat":"41.7166667","long":"24.4833333"}},{"country":"bg","city":"Bederlii","coordinates":{"lat":"43.2666667","long":"25.55"}},{"country":"bg","city":"Bedil","coordinates":{"lat":"41.7333333","long":"25.2833333"}},{"country":"bg","city":"Bednyakovo","coordinates":{"lat":"42.3333333","long":"25.35"}},{"country":"bg","city":"Bedrovo","coordinates":{"lat":"41.75","long":"25.3666667"}},{"country":"bg","city":"Bedrowo","coordinates":{"lat":"41.75","long":"25.3666667"}},{"country":"bg","city":"Bedshene","coordinates":{"lat":"43.45","long":"27.2666667"}},{"country":"bg","city":"Bedzhene","coordinates":{"lat":"43.45","long":"27.2666667"}},{"country":"bg","city":"Bega","coordinates":{"lat":"42.0666667","long":"24.3666667"}},{"country":"bg","city":"Beglège","coordinates":{"lat":"43.25","long":"24.4833333"}},{"country":"bg","city":"Begler Chiflik","coordinates":{"lat":"42.6166667","long":"23.3333333"}},{"country":"bg","city":"Beglesh","coordinates":{"lat":"43.25","long":"24.4833333"}},{"country":"bg","city":"Beglez","coordinates":{"lat":"43.25","long":"24.4833333"}},{"country":"bg","city":"Beglezh","coordinates":{"lat":"43.25","long":"24.4833333"}},{"country":"bg","city":"Beglikchiite","coordinates":{"lat":"42.8","long":"24.9833333"}},{"country":"bg","city":"Begovo","coordinates":{"lat":"42.4166667","long":"24.8166667"}},{"country":"bg","city":"Begowo","coordinates":{"lat":"42.4166667","long":"24.8166667"}},{"country":"bg","city":"Begunovtsi","coordinates":{"lat":"42.7","long":"22.8333333"}},{"country":"bg","city":"Begunowzi","coordinates":{"lat":"42.7","long":"22.8333333"}},{"country":"bg","city":"Beguntsi","coordinates":{"lat":"42.55","long":"24.8833333"}},{"country":"bg","city":"Begunzi","coordinates":{"lat":"42.55","long":"24.8833333"}},{"country":"bg","city":"Bei Alan","coordinates":{"lat":"43.7666667","long":"26.3"}},{"country":"bg","city":"Bei Bunar","coordinates":{"lat":"43.9","long":"27.4833333"}},{"country":"bg","city":"Bei-Köi","coordinates":{"lat":"42.3","long":"26.6333333"}},{"country":"bg","city":"Beikowzi","coordinates":{"lat":"42.8666667","long":"25.85"}},{"country":"bg","city":"Beili","coordinates":{"lat":"43.3","long":"27.3666667"}},{"country":"bg","city":"Bei Mahle","coordinates":{"lat":"42.3666667","long":"27.1"}},{"country":"bg","city":"Bej Alan","coordinates":{"lat":"43.7666667","long":"26.3"}},{"country":"bg","city":"Bejanovo","coordinates":{"lat":"43.2333333","long":"24.4"}},{"country":"bg","city":"Bejenri","coordinates":{"lat":"43.7166667","long":"28.3833333"}},{"country":"bg","city":"Bej-Kjoj","coordinates":{"lat":"42.3","long":"26.6333333"}},{"country":"bg","city":"Bej Mahale","coordinates":{"lat":"42.3666667","long":"27.1"}},{"country":"bg","city":"Bejük Machala","coordinates":{"lat":"43.6833333","long":"27.3666667"}},{"country":"bg","city":"Bekchi","coordinates":{"lat":"42.9833333","long":"27.1166667"}},{"country":"bg","city":"Bekchii","coordinates":{"lat":"42.9833333","long":"27.1166667"}},{"country":"bg","city":"Bekiraa Makhlesi","coordinates":{"lat":"41.7666667","long":"25.3666667"}},{"country":"bg","city":"Bekirlie","coordinates":{"lat":"43.05","long":"26.6833333"}},{"country":"bg","city":"Bekirovska","coordinates":{"lat":"41.4833333","long":"24.85"}},{"country":"bg","city":"Bekirovtsi","coordinates":{"lat":"41.4666667","long":"24.9333333"}},{"country":"bg","city":"Bekriite","coordinates":{"lat":"42.9333333","long":"25.3166667"}},{"country":"bg","city":"Bektaschi","coordinates":{"lat":"41.4666667","long":"25.4166667"}},{"country":"bg","city":"Bektash","coordinates":{"lat":"41.4666667","long":"25.4166667"}},{"country":"bg","city":"Bektashi","coordinates":{"lat":"41.4666667","long":"25.4166667"}},{"country":"bg","city":"Bektashlar","coordinates":{"lat":"41.5166667","long":"25.2833333"}},{"country":"bg","city":"Bektashler","coordinates":{"lat":"41.4666667","long":"25.4166667"}},{"country":"bg","city":"Bektasi","coordinates":{"lat":"41.4666667","long":"25.4166667"}},{"country":"bg","city":"Bela Balgarska","coordinates":{"lat":"43.2666667","long":"23.4666667"}},{"country":"bg","city":"Bela","coordinates":{"lat":"42.7333333","long":"26.1833333"}},{"country":"bg","city":"Bela","coordinates":{"lat":"43.45","long":"25.7333333"}},{"country":"bg","city":"Bela","coordinates":{"lat":"42.8833333","long":"27.8833333"}},{"country":"bg","city":"Bela","coordinates":{"lat":"43.7116667","long":"22.7111111"}},{"country":"bg","city":"Bela Bulgarska","coordinates":{"lat":"43.2666667","long":"23.4666667"}},{"country":"bg","city":"Bela-Cerkova","coordinates":{"lat":"43.2","long":"25.3"}},{"country":"bg","city":"Bela Cerkva","coordinates":{"lat":"43.2","long":"25.3"}},{"country":"bg","city":"Bela Cherkva","coordinates":{"lat":"43.2","long":"25.3"}},{"country":"bg","city":"Bela-Cheshliya","coordinates":{"lat":"42.7666667","long":"26.1"}},{"country":"bg","city":"Belanitsa","coordinates":{"lat":"42.4827778","long":"22.9377778"}},{"country":"bg","city":"Belaniza","coordinates":{"lat":"42.4827778","long":"22.9377778"}},{"country":"bg","city":"Bela-Palanka","coordinates":{"lat":"42.7666667","long":"26.1"}},{"country":"bg","city":"Bela-Poljana","coordinates":{"lat":"41.6833333","long":"25.6333333"}},{"country":"bg","city":"Bela Polyana","coordinates":{"lat":"41.6833333","long":"25.6333333"}},{"country":"bg","city":"Bela Rada","coordinates":{"lat":"43.9763889","long":"22.7577778"}},{"country":"bg","city":"Bela Reka","coordinates":{"lat":"43.1333333","long":"25.2"}},{"country":"bg","city":"Bela-Reka","coordinates":{"lat":"41.4833333","long":"24.6333333"}},{"country":"bg","city":"Bela Reka","coordinates":{"lat":"41.4833333","long":"24.8333333"}},{"country":"bg","city":"Bela-Reka","coordinates":{"lat":"42.05","long":"25.2666667"}},