[{"country":"cz","city":"Abaschin","coordinates":{"lat":"49.976012","long":"12.747483"}},{"country":"cz","city":"Abertamy","coordinates":{"lat":"50.369718","long":"12.819946"}},{"country":"cz","city":"Abertham","coordinates":{"lat":"50.369718","long":"12.819946"}},{"country":"cz","city":"Abtsdorf","coordinates":{"lat":"49.823053","long":"16.506069"}},{"country":"cz","city":"Abtsroth","coordinates":{"lat":"50.254499","long":"12.423936"}},{"country":"cz","city":"Adamov","coordinates":{"lat":"49.301409","long":"16.655487"}},{"country":"cz","city":"Adamov","coordinates":{"lat":"49.000829","long":"14.540752"}},{"country":"cz","city":"Adamov","coordinates":{"lat":"50.196145","long":"17.023172"}},{"country":"cz","city":"Adamov","coordinates":{"lat":"50.132571","long":"17.442671"}},{"country":"cz","city":"Adamov","coordinates":{"lat":"49.857758","long":"15.409015"}},{"country":"cz","city":"Adamsfreiheit","coordinates":{"lat":"49.052206","long":"15.139484"}},{"country":"cz","city":"Adamsthal","coordinates":{"lat":"49.301409","long":"16.655487"}},{"country":"cz","city":"Adamsthal","coordinates":{"lat":"50.196145","long":"17.023172"}},{"country":"cz","city":"Adamsthal","coordinates":{"lat":"50.132571","long":"17.442671"}},{"country":"cz","city":"Adelsdorf","coordinates":{"lat":"50.196681","long":"17.194218"}},{"country":"cz","city":"Adersbach","coordinates":{"lat":"50.623073","long":"16.095756"}},{"country":"cz","city":"Adler-Kosteletz","coordinates":{"lat":"50.123826","long":"16.211445"}},{"country":"cz","city":"Adlerova Hut'","coordinates":{"lat":"48.934327","long":"13.70772"}},{"country":"cz","city":"Adolfov","coordinates":{"lat":"50.735427","long":"13.903789"}},{"country":"cz","city":"Adolfovice","coordinates":{"lat":"50.196681","long":"17.194218"}},{"country":"cz","city":"Adolfsgrun","coordinates":{"lat":"50.735427","long":"13.903789"}},{"country":"cz","city":"Adrspach","coordinates":{"lat":"50.623073","long":"16.095756"}},{"country":"cz","city":"Ahnikov","coordinates":{"lat":"50.440237","long":"13.321155"}},{"country":"cz","city":"Ahorn","coordinates":{"lat":"48.802637","long":"14.265941"}},{"country":"cz","city":"Ahornhutte","coordinates":{"lat":"48.666667","long":"14.683333"}},{"country":"cz","city":"Ahrendorf","coordinates":{"lat":"50.421895","long":"13.226114"}},{"country":"cz","city":"Aich","coordinates":{"lat":"50.21137","long":"12.828661"}},{"country":"cz","city":"Aichelburk","coordinates":{"lat":"50.132792","long":"14.967285"}},{"country":"cz","city":"Aichen","coordinates":{"lat":"49.803212","long":"17.137735"}},{"country":"cz","city":"Alber","coordinates":{"lat":"49.027523","long":"15.135024"}},{"country":"cz","city":"Alberice","coordinates":{"lat":"50.165244","long":"13.166288"}},{"country":"cz","city":"Alberitz","coordinates":{"lat":"50.116541","long":"13.38485"}},{"country":"cz","city":"Albern","coordinates":{"lat":"49.027523","long":"15.135024"}},{"country":"cz","city":"Albernhof","coordinates":{"lat":"50.216667","long":"12.7"}},{"country":"cz","city":"Alberov","coordinates":{"lat":"50.216667","long":"12.7"}},{"country":"cz","city":"Alberovice","coordinates":{"lat":"49.646029","long":"15.10603"}},{"country":"cz","city":"Albersdorf","coordinates":{"lat":"49.772961","long":"12.564151"}},{"country":"cz","city":"Albertice","coordinates":{"lat":"50.857945","long":"15.033725"}},{"country":"cz","city":"Albertsthal","coordinates":{"lat":"50.461449","long":"14.598024"}},{"country":"cz","city":"Albrechtice","coordinates":{"lat":"49.197513","long":"14.099763"}},{"country":"cz","city":"Albrechtice","coordinates":{"lat":"49.520593","long":"16.184998"}},{"country":"cz","city":"Albrechtice","coordinates":{"lat":"50.857945","long":"15.033725"}},{"country":"cz","city":"Albrechtice","coordinates":{"lat":"49.789281","long":"18.527027"}},{"country":"cz","city":"Albrechtice","coordinates":{"lat":"49.929764","long":"16.645836"}},{"country":"cz","city":"Albrechtice","coordinates":{"lat":"49.895808","long":"15.170271"}},{"country":"cz","city":"Albrechtice","coordinates":{"lat":"50.552373","long":"13.520118"}},{"country":"cz","city":"Albrechtice nad Orlici","coordinates":{"lat":"50.139524","long":"16.063946"}},{"country":"cz","city":"Albrechtice nad Vltavou","coordinates":{"lat":"49.254501","long":"14.306277"}},{"country":"cz","city":"Albrechtice u Rymarova","coordinates":{"lat":"49.902628","long":"17.336426"}},{"country":"cz","city":"Albrechtice u Susice","coordinates":{"lat":"49.203004","long":"13.566053"}},{"country":"cz","city":"Albrechticky","coordinates":{"lat":"49.699881","long":"18.096907"}},{"country":"cz","city":"Albrechtitz","coordinates":{"lat":"49.254501","long":"14.306277"}},{"country":"cz","city":"Albrechtovice","coordinates":{"lat":"48.966667","long":"13.966667"}},{"country":"cz","city":"Albrechtschlag","coordinates":{"lat":"48.966667","long":"13.966667"}},{"country":"cz","city":"Albrechtsdorf","coordinates":{"lat":"50.760084","long":"15.286178"}},{"country":"cz","city":"Albrechtsried","coordinates":{"lat":"49.203004","long":"13.566053"}},{"country":"cz","city":"Alenina Lhota","coordinates":{"lat":"49.526963","long":"14.521742"}},{"country":"cz","city":"Alexovice","coordinates":{"lat":"49.092507","long":"16.359471"}},{"country":"cz","city":"Alfredov","coordinates":{"lat":"49.683333","long":"13.033333"}},{"country":"cz","city":"Algersdorf","coordinates":{"lat":"50.698766","long":"14.319003"}},{"country":"cz","city":"Allenkowitz","coordinates":{"lat":"49.171534","long":"17.473639"}},{"country":"cz","city":"Allerheiligen","coordinates":{"lat":"49.769166","long":"16.875481"}},{"country":"cz","city":"Allhutten","coordinates":{"lat":"49.716667","long":"17.283333"}},{"country":"cz","city":"Alodialna Ligota","coordinates":{"lat":"49.762384","long":"18.609503"}},{"country":"cz","city":"Aloisov","coordinates":{"lat":"50.106804","long":"14.55948"}},{"country":"cz","city":"Alojzov","coordinates":{"lat":"49.424638","long":"17.040958"}},{"country":"cz","city":"Alsching","coordinates":{"lat":"48.720931","long":"14.302843"}},{"country":"cz","city":"Alsovice","coordinates":{"lat":"50.676997","long":"15.232328"}},{"country":"cz","city":"Alstadt","coordinates":{"lat":"50.001343","long":"17.43695"}},{"country":"cz","city":"Alt-Albenreuth","coordinates":{"lat":"50.002628","long":"12.444369"}},{"country":"cz","city":"Alt Benatek","coordinates":{"lat":"50.283333","long":"14.816667"}},{"country":"cz","city":"Alt Bidschow","coordinates":{"lat":"50.257774","long":"15.455574"}},{"country":"cz","city":"Altbiela","coordinates":{"lat":"49.762979","long":"18.205255"}},{"country":"cz","city":"Alt Bohmen","coordinates":{"lat":"50.741043","long":"14.146146"}},{"country":"cz","city":"Alt Bunzlau","coordinates":{"lat":"50.196144","long":"14.681772"}},{"country":"cz","city":"Alt-Burgersdorf","coordinates":{"lat":"50.125909","long":"17.527408"}},{"country":"cz","city":"Alt Ciwitz","coordinates":{"lat":"50.015987","long":"15.687006"}},{"country":"cz","city":"Alt-Daubitz","coordinates":{"lat":"50.890001","long":"14.457048"}},{"country":"cz","city":"Altdorf","coordinates":{"lat":"50.240309","long":"13.035298"}},{"country":"cz","city":"Alt-Ehrenberg","coordinates":{"lat":"50.951044","long":"14.493808"}},{"country":"cz","city":"Altenberg","coordinates":{"lat":"50.183333","long":"16.966667"}},{"country":"cz","city":"Altenbuch","coordinates":{"lat":"50.52672","long":"15.865874"}},{"country":"cz","city":"Altenbuch Dobernei","coordinates":{"lat":"50.477255","long":"15.753371"}},{"country":"cz","city":"Altendorf","coordinates":{"lat":"49.726075","long":"18.19404"}},{"country":"cz","city":"Altengruen","coordinates":{"lat":"50.25","long":"12.633333"}},{"country":"cz","city":"Altengrun","coordinates":{"lat":"50.25","long":"12.633333"}},{"country":"cz","city":"Altenteich","coordinates":{"lat":"50.162963","long":"12.352653"}},{"country":"cz","city":"Alt Erbersdorf","coordinates":{"lat":"49.933452","long":"17.626789"}},{"country":"cz","city":"Alt Furstenhutte","coordinates":{"lat":"49.721843","long":"12.469006"}},{"country":"cz","city":"Alt Georgswalde","coordinates":{"lat":"51.001153","long":"14.564136"}},{"country":"cz","city":"Alt Grafenwalde","coordinates":{"lat":"50.974329","long":"14.402016"}},{"country":"cz","city":"Alt Gramatin","coordinates":{"lat":"49.554685","long":"12.741823"}},{"country":"cz","city":"Alt-Habendorf","coordinates":{"lat":"50.794843","long":"15.028621"}},{"country":"cz","city":"Althammer","coordinates":{"lat":"49.533333","long":"18.4"}},{"country":"cz","city":"Alt-Hart","coordinates":{"lat":"49.011241","long":"15.45296"}},{"country":"cz","city":"Alt-Harzdorf","coordinates":{"lat":"50.770724","long":"15.088583"}},{"country":"cz","city":"Althhutten","coordinates":{"lat":"49.533333","long":"12.666667"}},{"country":"cz","city":"Alt Hummel","coordinates":{"lat":"50.666667","long":"14.216667"}},{"country":"cz","city":"Althutte","coordinates":{"lat":"49.038457","long":"13.646334"}},{"country":"cz","city":"Althutten","coordinates":{"lat":"48.719609","long":"14.713284"}},{"country":"cz","city":"Althutten","coordinates":{"lat":"49.179662","long":"13.360702"}},{"country":"cz","city":"Althutten","coordinates":{"lat":"49.783333","long":"14.2"}},{"country":"cz","city":"Alt-Hwiezdlitz","coordinates":{"lat":"49.203453","long":"17.075539"}},{"country":"cz","city":"Alt Kalken","coordinates":{"lat":"50.563728","long":"14.618593"}},{"country":"cz","city":"Alt-Kaltenstein","coordinates":{"lat":"50.29205","long":"17.149562"}},{"country":"cz","city":"Alt-Kammer","coordinates":{"lat":"50.166667","long":"17.466667"}},{"country":"cz","city":"Alt Karlsthal","coordinates":{"lat":"50.105722","long":"17.448171"}},{"country":"cz","city":"Alt-Kinsberg","coordinates":{"lat":"50.024494","long":"12.389414"}},{"country":"cz","city":"Alt Knin","coordinates":{"lat":"49.78736","long":"14.283451"}},{"country":"cz","city":"Alt Kolin","coordinates":{"lat":"50.008776","long":"15.287619"}},{"country":"cz","city":"Alt-Langendorf","coordinates":{"lat":"49.199301","long":"13.509922"}},{"country":"cz","city":"Alt-Langwasser","coordinates":{"lat":"50.2","long":"17.483333"}},{"country":"cz","city":"Altliebe","coordinates":{"lat":"49.77786","long":"17.497977"}},{"country":"cz","city":"Alt Lipa","coordinates":{"lat":"50.683257","long":"14.561648"}},{"country":"cz","city":"Alt Lublitz","coordinates":{"lat":"49.841791","long":"17.677265"}},{"country":"cz","city":"Alt-Moletein","coordinates":{"lat":"49.799286","long":"16.789133"}},{"country":"cz","city":"Alt Olisch","coordinates":{"lat":"50.800698","long":"14.334467"}},{"country":"cz","city":"Alt Paka","coordinates":{"lat":"50.510833","long":"15.49"}},{"country":"cz","city":"Alt Parisau","coordinates":{"lat":"49.4715","long":"12.838766"}},{"country":"cz","city":"Alt-Paulsdorf","coordinates":{"lat":"50.787008","long":"15.044066"}},{"country":"cz","city":"Alt Petrein","coordinates":{"lat":"48.890036","long":"15.734517"}},{"country":"cz","city":"Alt Pfauendorf","coordinates":{"lat":"49.44272","long":"15.603537"}},{"country":"cz","city":"Alt Pilsenetz","coordinates":{"lat":"49.694596","long":"13.474666"}},{"country":"cz","city":"Altplatz","coordinates":{"lat":"49.084289","long":"14.904854"}},{"country":"cz","city":"Alt Pocher","coordinates":{"lat":"49.716667","long":"12.45"}},{"country":"cz","city":"Alt Possigkau","coordinates":{"lat":"49.45","long":"12.816667"}},{"country":"cz","city":"Alt-Prerow","coordinates":{"lat":"50.160952","long":"14.827463"}},{"country":"cz","city":"Alt-Reihwiesen","coordinates":{"lat":"50.224124","long":"17.319879"}},{"country":"cz","city":"Altreisch","coordinates":{"lat":"49.179485","long":"15.595067"}},{"country":"cz","city":"Alt Rognitz","coordinates":{"lat":"50.537432","long":"15.946572"}},{"country":"cz","city":"Alt-Rohlau","coordinates":{"lat":"50.24621","long":"12.830375"}},{"country":"cz","city":"Alt-Rothwasser","coordinates":{"lat":"50.328621","long":"17.201071"}},{"country":"cz","city":"Altsattel","coordinates":{"lat":"49.50379","long":"14.166667"}},{"country":"cz","city":"Alt-Sattel","coordinates":{"lat":"49.664628","long":"12.864377"}},{"country":"cz","city":"Alt Sattl","coordinates":{"lat":"49.941286","long":"12.941843"}},{"country":"cz","city":"Alt-Sattl","coordinates":{"lat":"50.180929","long":"12.717499"}},{"country":"cz","city":"Alt-Schallersdorf","coordinates":{"lat":"48.85","long":"16.066667"}},{"country":"cz","city":"Alt-Schiedel","coordinates":{"lat":"50.715138","long":"14.619895"}},{"country":"cz","city":"Alt Schokau","coordinates":{"lat":"50.715685","long":"14.360214"}},{"country":"cz","city":"Alt-Sedlowitz","coordinates":{"lat":"50.549013","long":"16.007095"}},{"country":"cz","city":"Alt-Spitzenberg","coordinates":{"lat":"48.833333","long":"14.05"}},{"country":"cz","city":"Altstadt","coordinates":{"lat":"49.003941","long":"15.254538"}},{"country":"cz","city":"Altstadt","coordinates":{"lat":"50.405816","long":"16.144397"}},{"country":"cz","city":"Altstadt","coordinates":{"lat":"50.161224","long":"16.946342"}},{"country":"cz","city":"Altstadt","coordinates":{"lat":"49.774282","long":"17.971545"}},{"country":"cz","city":"Altstadt","coordinates":{"lat":"49.794022","long":"16.680388"}},{"country":"cz","city":"Altstadt","coordinates":{"lat":"50.767687","long":"14.224348"}},{"country":"cz","city":"Altstadt","coordinates":{"lat":"49.076493","long":"17.437993"}},{"country":"cz","city":"Alt-Straschnitz","coordinates":{"lat":"50.076494","long":"14.510369"}},{"country":"cz","city":"Alt Tabor","coordinates":{"lat":"49.377523","long":"14.702868"}},{"country":"cz","city":"Alt Thein","coordinates":{"lat":"50.606346","long":"14.328514"}},{"country":"cz","city":"Alttitschein","coordinates":{"lat":"49.577494","long":"17.961908"}},{"country":"cz","city":"Altusch","coordinates":{"lat":"48.75885","long":"14.355804"}},{"country":"cz","city":"Alt Valdek","coordinates":{"lat":"49.805325","long":"16.462828"}},{"country":"cz","city":"Alt-Vogelseifen","coordinates":{"lat":"50.026946","long":"17.387402"}},{"country":"cz","city":"Alt-Wasser","coordinates":{"lat":"49.992407","long":"12.59367"}},{"country":"cz","city":"Altwasser","coordinates":{"lat":"50.149452","long":"15.528945"}},{"country":"cz","city":"Altwasser","coordinates":{"lat":"49.741434","long":"17.570593"}},{"country":"cz","city":"Alt Wraz","coordinates":{"lat":"49.383096","long":"14.128003"}},{"country":"cz","city":"Alt-Zechsdorf","coordinates":{"lat":"49.818452","long":"17.69417"}},{"country":"cz","city":"Alt-Zedlisch","coordinates":{"lat":"49.744611","long":"12.693492"}},{"country":"cz","city":"Alzbetin","coordinates":{"lat":"49.126679","long":"13.210324"}},{"country":"cz","city":"Amalie","coordinates":{"lat":"50.105925","long":"13.845717"}},{"country":"cz","city":"Amerika","coordinates":{"lat":"48.9","long":"14.9"}},{"country":"cz","city":"Amongsgruen","coordinates":{"lat":"50.028378","long":"12.566292"}},{"country":"cz","city":"Amonsgrun","coordinates":{"lat":"50.028378","long":"12.566292"}},{"country":"cz","city":"Amplatz","coordinates":{"lat":"49.579866","long":"12.82956"}},{"country":"cz","city":"Amschelberg","coordinates":{"lat":"49.655074","long":"14.472816"}},{"country":"cz","city":"Andelka","coordinates":{"lat":"51.002317","long":"14.993569"}},{"country":"cz","city":"Andelska Hora","coordinates":{"lat":"50.204714","long":"12.961768"}},{"country":"cz","city":"Andelska Hora","coordinates":{"lat":"50.802627","long":"14.957818"}},{"country":"cz","city":"Andelska Hora","coordinates":{"lat":"50.061337","long":"17.390292"}},{"country":"cz","city":"Andelske Zleby","coordinates":{"lat":"50.102023","long":"17.10822"}},{"country":"cz","city":"Andersdorf","coordinates":{"lat":"49.788757","long":"17.427444"}},{"country":"cz","city":"Andlerka","coordinates":{"lat":"49.55","long":"17.1"}},{"country":"cz","city":"Andreasberg","coordinates":{"lat":"48.866667","long":"14.088899"}},{"country":"cz","city":"Anenska Hut'","coordinates":{"lat":"50.283333","long":"16.4"}},{"country":"cz","city":"Anenska Studanka","coordinates":{"lat":"49.849628","long":"16.540061"}},{"country":"cz","city":"Anenska Ves","coordinates":{"lat":"50.203235","long":"12.549353"}},{"country":"cz","city":"Angern","coordinates":{"lat":"48.702864","long":"14.428734"}},{"country":"cz","city":"Anischau","coordinates":{"lat":"49.882109","long":"13.149286"}},{"country":"cz","city":"Annaberk","coordinates":{"lat":"50.107971","long":"17.107387"}},{"country":"cz","city":"Annadorf","coordinates":{"lat":"50.203235","long":"12.549353"}},{"country":"cz","city":"Annath","coordinates":{"lat":"49.174468","long":"13.512924"}},{"country":"cz","city":"Annin","coordinates":{"lat":"49.419879","long":"17.284404"}},{"country":"cz","city":"Annin","coordinates":{"lat":"49.174468","long":"13.512924"}},{"country":"cz","city":"Annovice","coordinates":{"lat":"49.300441","long":"14.937157"}},{"country":"cz","city":"Anseith","coordinates":{"lat":"50.473665","long":"15.712154"}},{"country":"cz","city":"Antigel","coordinates":{"lat":"49.057643","long":"13.51162"}},{"country":"cz","city":"Antoninov","coordinates":{"lat":"50.782433","long":"15.23124"}},{"country":"cz","city":"Antoninov","coordinates":{"lat":"50.784706","long":"14.013112"}},{"country":"cz","city":"Antoninovo Udoli","coordinates":{"lat":"50.622318","long":"15.83568"}},{"country":"cz","city":"Antoniwald","coordinates":{"lat":"50.782433","long":"15.23124"}},{"country":"cz","city":"Antonka","coordinates":{"lat":"49.308872","long":"15.102942"}},{"country":"cz","city":"Antonsthal","coordinates":{"lat":"50.784706","long":"14.013112"}},{"country":"cz","city":"Antosovice","coordinates":{"lat":"49.903688","long":"18.314526"}},{"country":"cz","city":"Arbesau","coordinates":{"lat":"50.712545","long":"13.956484"}},{"country":"cz","city":"Archlebau","coordinates":{"lat":"49.044673","long":"17.003152"}},{"country":"cz","city":"Archlebov","coordinates":{"lat":"49.044673","long":"17.003152"}},{"country":"cz","city":"Arletzgruen","coordinates":{"lat":"50.349532","long":"12.950364"}},{"country":"cz","city":"Arletzgrun","coordinates":{"lat":"50.349532","long":"12.950364"}},{"country":"cz","city":"Arnau","coordinates":{"lat":"50.540171","long":"15.730411"}},{"country":"cz","city":"Arnestovice","coordinates":{"lat":"49.532156","long":"15.119977"}},{"country":"cz","city":"Arnitzgrun","coordinates":{"lat":"50.116968","long":"12.592717"}},{"country":"cz","city":"Arnoldov","coordinates":{"lat":"50.349532","long":"12.950364"}},{"country":"cz","city":"Arnolec","coordinates":{"lat":"48.983333","long":"15.216667"}},{"country":"cz","city":"Arnolec","coordinates":{"lat":"49.435918","long":"15.821701"}},{"country":"cz","city":"Arnoltice","coordinates":{"lat":"50.83629","long":"14.263402"}},{"country":"cz","city":"Arnoltice","coordinates":{"lat":"49.845836","long":"17.354294"}},{"country":"cz","city":"Arnolticky Bor","coordinates":{"lat":"50.85","long":"14.25"}},{"country":"cz","city":"Arnoltov","coordinates":{"lat":"50.116968","long":"12.592717"}},{"country":"cz","city":"Arnolzhof","coordinates":{"lat":"48.983333","long":"15.216667"}},{"country":"cz","city":"Arnostka","coordinates":{"lat":"49.004053","long":"13.775997"}},{"country":"cz","city":"Arnostov","coordinates":{"lat":"48.892132","long":"13.991746"}},{"country":"cz","city":"Arnostov","coordinates":{"lat":"50.462623","long":"15.602716"}},{"country":"cz","city":"Arnostovice","coordinates":{"lat":"49.614608","long":"14.604045"}},{"country":"cz","city":"Arnsdorf","coordinates":{"lat":"50.552121","long":"15.722057"}},{"country":"cz","city":"Arnsdorf","coordinates":{"lat":"50.766667","long":"14.566667"}},{"country":"cz","city":"Arnsdorf","coordinates":{"lat":"49.845836","long":"17.354294"}},{"country":"cz","city":"Arnsdorf","coordinates":{"lat":"50.713955","long":"14.04661"}},{"country":"cz","city":"Arnultovice","coordinates":{"lat":"50.552121","long":"15.722057"}},{"country":"cz","city":"Arnultovice","coordinates":{"lat":"50.766667","long":"14.566667"}},{"country":"cz","city":"Arnultovice","coordinates":{"lat":"50.250666","long":"17.557614"}},{"country":"cz","city":"Arnultovice","coordinates":{"lat":"50.713955","long":"14.04661"}},{"country":"cz","city":"Artholz","coordinates":{"lat":"49.007207","long":"15.129509"}},{"country":"cz","city":"Artmanov","coordinates":{"lat":"50.213431","long":"17.536283"}},{"country":"cz","city":"Artolec","coordinates":{"lat":"49.007207","long":"15.129509"}},{"country":"cz","city":"Asang","coordinates":{"lat":"48.616667","long":"14.066667"}},{"country":"cz","city":"As","coordinates":{"lat":"50.221568","long":"12.192046"}},{"country":"cz","city":"Asch","coordinates":{"lat":"50.221568","long":"12.192046"}},{"country":"cz","city":"Aschendorf","coordinates":{"lat":"50.657488","long":"14.555143"}},{"country":"cz","city":"Ascherwinkel","coordinates":{"lat":"49.666667","long":"17.566667"}},{"country":"cz","city":"Aspendorf","coordinates":{"lat":"50.033333","long":"16.966667"}},{"country":"cz","city":"Atschau","coordinates":{"lat":"50.353914","long":"13.259286"}},{"country":"cz","city":"Attes","coordinates":{"lat":"48.766667","long":"14.333333"}},{"country":"cz","city":"Au","coordinates":{"lat":"50.1","long":"12.45"}},{"country":"cz","city":"Aubach","coordinates":{"lat":"50.37019","long":"13.114319"}},{"country":"cz","city":"Aubeln","coordinates":{"lat":"50.023425","long":"17.703997"}},{"country":"cz","city":"Audelen","coordinates":{"lat":"49.660447","long":"15.756422"}},{"country":"cz","city":"Audishorn","coordinates":{"lat":"50.709621","long":"14.839732"}},{"country":"cz","city":"Auern","coordinates":{"lat":"48.978185","long":"15.212549"}},{"country":"cz","city":"Augezd","coordinates":{"lat":"49.764169","long":"17.180953"}},{"country":"cz","city":"Auherzen","coordinates":{"lat":"49.700306","long":"13.214118"}},{"country":"cz","city":"Auholicky","coordinates":{"lat":"50.161159","long":"14.334965"}},{"country":"cz","city":"Aujezd an der Mies","coordinates":{"lat":"49.789145","long":"13.195513"}},{"country":"cz","city":"Aujezd","coordinates":{"lat":"49.1","long":"16.75"}},{"country":"cz","city":"Aujezd","coordinates":{"lat":"49.432729","long":"17.471545"}},{"country":"cz","city":"Aujezd","coordinates":{"lat":"49.537411","long":"13.404023"}},{"country":"cz","city":"Aujezd","coordinates":{"lat":"49.169166","long":"17.906425"}},{"country":"cz","city":"Aurinowes","coordinates":{"lat":"50.028847","long":"14.599485"}},{"country":"cz","city":"Aurotschnitz","coordinates":{"lat":"49.805957","long":"14.627008"}},{"country":"cz","city":"Auscha","coordinates":{"lat":"50.58494","long":"14.345113"}},{"country":"cz","city":"Auschina","coordinates":{"lat":"50.7","long":"13.966667"}},{"country":"cz","city":"Auschowitz","coordinates":{"lat":"49.951932","long":"12.719006"}},{"country":"cz","city":"Auschtitz","coordinates":{"lat":"49.783112","long":"14.539657"}},{"country":"cz","city":"Auslauf","coordinates":{"lat":"50.472951","long":"15.469082"}},{"country":"cz","city":"Auspitz","coordinates":{"lat":"48.941028","long":"16.73353"}},{"country":"cz","city":"Aussergefild","coordinates":{"lat":"49.017585","long":"13.580044"}},{"country":"cz","city":"Aussig","coordinates":{"lat":"50.666667","long":"14.033333"}},{"country":"cz","city":"Austerlitz","coordinates":{"lat":"49.153157","long":"16.879558"}},{"country":"cz","city":"Auszig","coordinates":{"lat":"50.666667","long":"14.033333"}},{"country":"cz","city":"Autschowa","coordinates":{"lat":"49.570746","long":"13.079764"}},{"country":"cz","city":"Auwal","coordinates":{"lat":"50.073111","long":"14.725905"}},{"country":"cz","city":"Ava","coordinates":{"lat":"50.1","long":"12.45"}},{"country":"cz","city":"Ave","coordinates":{"lat":"49.983333","long":"17.6"}},{"country":"cz","city":"Azbreh","coordinates":{"lat":"49.884404","long":"16.873092"}},{"country":"cz","city":"Babcice","coordinates":{"lat":"49.468432","long":"14.895735"}},{"country":"cz","city":"Babetin","coordinates":{"lat":"50.70636","long":"14.220879"}},{"country":"cz","city":"Babi","coordinates":{"lat":"50.430425","long":"16.173307"}},{"country":"cz","city":"Babice","coordinates":{"lat":"48.983333","long":"16.4"}},{"country":"cz","city":"Babice","coordinates":{"lat":"49.024687","long":"14.237123"}},{"country":"cz","city":"Babice","coordinates":{"lat":"49.123277","long":"15.769627"}},{"country":"cz","city":"Babice","coordinates":{"lat":"50.005608","long":"12.807694"}},{"country":"cz","city":"Babice","coordinates":{"lat":"50.192103","long":"15.58613"}},{"country":"cz","city":"Babice","coordinates":{"lat":"49.457982","long":"17.787865"}},{"country":"cz","city":"Babice","coordinates":{"lat":"49.878626","long":"14.624802"}},{"country":"cz","city":"Babice","coordinates":{"lat":"49.124296","long":"17.478729"}},{"country":"cz","city":"Babice nad Svitavou","coordinates":{"lat":"49.28353","long":"16.696054"}},{"country":"cz","city":"Babicky","coordinates":{"lat":"50.009166","long":"14.725832"}},{"country":"cz","city":"Babina","coordinates":{"lat":"49.936315","long":"13.429127"}},{"country":"cz","city":"Babin","coordinates":{"lat":"49.341322","long":"15.080685"}},{"country":"cz","city":"Babin","coordinates":{"lat":"49.348165","long":"13.726966"}},{"country":"cz","city":"Babiny Druhe","coordinates":{"lat":"50.641861","long":"14.181355"}},{"country":"cz","city":"Babiny I.","coordinates":{"lat":"50.601572","long":"14.131351"}},{"country":"cz","city":"Babiny II","coordinates":{"lat":"50.641861","long":"14.181355"}},{"country":"cz","city":"Babiny Predni","coordinates":{"lat":"50.601572","long":"14.131351"}},{"country":"cz","city":"Babitz","coordinates":{"lat":"49.28353","long":"16.696054"}},{"country":"cz","city":"Babitz","coordinates":{"lat":"49.878626","long":"14.624802"}},{"country":"cz","city":"Babolky","coordinates":{"lat":"49.590352","long":"16.579883"}},{"country":"cz","city":"Baby","coordinates":{"lat":"50.430425","long":"16.173307"}},{"country":"cz","city":"Babylon","coordinates":{"lat":"49.397629","long":"12.861161"}},{"country":"cz","city":"Bacalky","coordinates":{"lat":"50.384582","long":"15.155758"}},{"country":"cz","city":"Bacetin","coordinates":{"lat":"50.3","long":"16.233333"}},{"country":"cz","city":"Bachelsdorf","coordinates":{"lat":"50.753059","long":"14.24013"}},{"country":"cz","city":"Bacice","coordinates":{"lat":"49.082807","long":"16.028598"}},{"country":"cz","city":"Backenhain","coordinates":{"lat":"50.833125","long":"14.920677"}},{"country":"cz","city":"Backov","coordinates":{"lat":"49.733571","long":"15.460236"}},{"country":"cz","city":"Backovice","coordinates":{"lat":"48.967062","long":"15.589252"}},{"country":"cz","city":"Bacov","coordinates":{"lat":"49.526551","long":"16.642613"}},{"country":"cz","city":"Bacov","coordinates":{"lat":"50.483333","long":"15.216667"}},{"country":"cz","city":"Bacov","coordinates":{"lat":"49.452855","long":"18.251904"}},{"country":"cz","city":"Bacovice","coordinates":{"lat":"49.477008","long":"15.168183"}},{"country":"cz","city":"Bad Belohrad","coordinates":{"lat":"50.428875","long":"15.582745"}},{"country":"cz","city":"Baderwinkel","coordinates":{"lat":"49.816496","long":"12.473853"}},{"country":"cz","city":"Bad Konigswart","coordinates":{"lat":"50.007958","long":"12.6259"}},{"country":"cz","city":"Bad Kunnersdorf","coordinates":{"lat":"50.698201","long":"14.912501"}},{"country":"cz","city":"Bad Licbwerda","coordinates":{"lat":"50.891031","long":"15.20255"}},{"country":"cz","city":"Bad Luhatschowitz","coordinates":{"lat":"49.1","long":"17.766667"}},{"country":"cz","city":"Bad Neudorf","coordinates":{"lat":"49.88578","long":"12.972887"}},{"country":"cz","city":"Badstubl","coordinates":{"lat":"50.118185","long":"13.265055"}},{"country":"cz","city":"Baeckenheim","coordinates":{"lat":"50.833125","long":"14.920677"}},{"country":"cz","city":"Bahenec","coordinates":{"lat":"49.58244","long":"18.824876"}},{"country":"cz","city":"Bahna","coordinates":{"lat":"49.596312","long":"16.566429"}},{"country":"cz","city":"Bahno","coordinates":{"lat":"49.656673","long":"18.353093"}},{"country":"cz","city":"Bahno","coordinates":{"lat":"49.870134","long":"15.233012"}},{"country":"cz","city":"Bajervek","coordinates":{"lat":"50.067256","long":"15.109119"}},{"country":"cz","city":"Bakov","coordinates":{"lat":"50.435374","long":"16.086394"}},{"country":"cz","city":"Bakov","coordinates":{"lat":"50.266182","long":"14.09602"}},{"country":"cz","city":"Bakov nad Jizerou","coordinates":{"lat":"50.478355","long":"14.939416"}},{"country":"cz","city":"Bakow","coordinates":{"lat":"50.478355","long":"14.939416"}},{"country":"cz","city":"Balda","coordinates":{"lat":"49.677018","long":"16.335831"}},{"country":"cz","city":"Baldovec","coordinates":{"lat":"49.4106","long":"16.821554"}},{"country":"cz","city":"Baliny","coordinates":{"lat":"49.333925","long":"15.955426"}},{"country":"cz","city":"Balkova","coordinates":{"lat":"50.084352","long":"13.299694"}},{"country":"cz","city":"Balkova Lhota","coordinates":{"lat":"49.445808","long":"14.602868"}},{"country":"cz","city":"Balkovy","coordinates":{"lat":"49.444341","long":"13.218503"}},{"country":"cz","city":"Bambousek","coordinates":{"lat":"49.667585","long":"13.460957"}},{"country":"cz","city":"Banin","coordinates":{"lat":"49.668452","long":"16.464288"}},{"country":"cz","city":"Banov","coordinates":{"lat":"48.988364","long":"17.721403"}},{"country":"cz","city":"Banovice","coordinates":{"lat":"49.011636","long":"15.490041"}},{"country":"cz","city":"Bantice","coordinates":{"lat":"48.866667","long":"16.183333"}},{"country":"cz","city":"Barau","coordinates":{"lat":"49.123251","long":"14.078584"}},{"country":"cz","city":"Barbora","coordinates":{"lat":"50.65","long":"13.733333"}},{"country":"cz","city":"Barborka","coordinates":{"lat":"49.325695","long":"15.193861"}},{"country":"cz","city":"Barchov","coordinates":{"lat":"50.198931","long":"15.568477"}},{"country":"cz","city":"Barchov","coordinates":{"lat":"50.001437","long":"15.678369"}},{"country":"cz","city":"Barchovice","coordinates":{"lat":"49.943234","long":"14.969388"}},{"country":"cz","city":"Barchuvek","coordinates":{"lat":"50.207783","long":"15.546463"}},{"country":"cz","city":"Barcov","coordinates":{"lat":"49.594999","long":"14.708457"}},{"country":"cz","city":"Barice","coordinates":{"lat":"49.24418","long":"17.42692"}},{"country":"cz","city":"Bariny","coordinates":{"lat":"49.3106","long":"18.117262"}},{"country":"cz","city":"Barken","coordinates":{"lat":"50.719633","long":"14.173992"}},{"country":"cz","city":"Barn","coordinates":{"lat":"49.796431","long":"17.444735"}},{"country":"cz","city":"Barnov","coordinates":{"lat":"49.714131","long":"17.662917"}},{"country":"cz","city":"Barnwald","coordinates":{"lat":"50.21432","long":"16.540734"}},{"country":"cz","city":"Barochov","coordinates":{"lat":"49.861593","long":"14.629509"}},{"country":"cz","city":"Barochow","coordinates":{"lat":"49.861593","long":"14.629509"}},{"country":"cz","city":"Barovice","coordinates":{"lat":"49.760409","long":"15.750816"}},{"country":"cz","city":"Barrandov","coordinates":{"lat":"50.030372","long":"14.391473"}},{"country":"cz","city":"Barringen","coordinates":{"lat":"50.366057","long":"12.783562"}},{"country":"cz","city":"Bartelsdorf","coordinates":{"lat":"49.797966","long":"18.34536"}},{"country":"cz","city":"Bartelsdorf","coordinates":{"lat":"50.533333","long":"13.516667"}},{"country":"cz","city":"Bartonov","coordinates":{"lat":"49.967143","long":"16.877979"}},{"country":"cz","city":"Bartosovice","coordinates":{"lat":"50.164271","long":"16.546815"}},{"country":"cz","city":"Bartosovice","coordinates":{"lat":"49.669523","long":"18.051547"}},{"country":"cz","city":"Bartousov","coordinates":{"lat":"49.581292","long":"15.645782"}},{"country":"cz","city":"Bartousov","coordinates":{"lat":"50.356519","long":"15.308836"}},{"country":"cz","city":"Bartovice","coordinates":{"lat":"49.797966","long":"18.34536"}},{"country":"cz","city":"Bartultovice","coordinates":{"lat":"50.274186","long":"17.588388"}},{"country":"cz","city":"Barwinkel","coordinates":{"lat":"49.866667","long":"17.533333"}},{"country":"cz","city":"Barzdorf am Rollberge","coordinates":{"lat":"50.681324","long":"14.720239"}},{"country":"cz","city":"Barzdorf","coordinates":{"lat":"50.52575","long":"16.359751"}},{"country":"cz","city":"Barzdorf","coordinates":{"lat":"50.389756","long":"17.078003"}},{"country":"cz","city":"Baska","coordinates":{"lat":"49.64417","long":"18.371902"}},{"country":"cz","city":"Basnice","coordinates":{"lat":"50.335566","long":"15.606277"}},{"country":"cz","city":"Bast'","coordinates":{"lat":"50.204338","long":"14.476875"}},{"country":"cz","city":"Bastek","coordinates":{"lat":"50.204916","long":"14.462812"}},{"country":"cz","city":"Basty","coordinates":{"lat":"50.00974","long":"15.295979"}},{"country":"cz","city":"Batelau","coordinates":{"lat":"49.313905","long":"15.396317"}},{"country":"cz","city":"Batelov","coordinates":{"lat":"49.313905","long":"15.396317"}},{"country":"cz","city":"Batin","coordinates":{"lat":"50.419981","long":"15.230019"}},{"country":"cz","city":"Batnovice","coordinates":{"lat":"50.514505","long":"16.05016"}},{"country":"cz","city":"Batouchovice","coordinates":{"lat":"49.311833","long":"15.903354"}},{"country":"cz","city":"Batov","coordinates":{"lat":"49.207366","long":"17.523862"}},{"country":"cz","city":"Battelau","coordinates":{"lat":"49.313905","long":"15.396317"}},{"country":"cz","city":"Batzdorf","coordinates":{"lat":"50.164271","long":"16.546815"}},{"country":"cz","city":"Baudenmuhle","coordinates":{"lat":"50.462741","long":"14.570879"}},{"country":"cz","city":"Baumohl","coordinates":{"lat":"48.851184","long":"15.94083"}},{"country":"cz","city":"Baurowitz","coordinates":{"lat":"49.024095","long":"14.441268"}},{"country":"cz","city":"Bauschowitz","coordinates":{"lat":"50.494477","long":"14.149776"}},{"country":"cz","city":"Bausnitz","coordinates":{"lat":"50.550811","long":"15.976205"}},{"country":"cz","city":"Bautsch","coordinates":{"lat":"49.794289","long":"17.628931"}},{"country":"cz","city":"Bavorov","coordinates":{"lat":"49.123251","long":"14.078584"}},{"country":"cz","city":"Bavorovice","coordinates":{"lat":"49.024095","long":"14.441268"}},{"country":"cz","city":"Bavorovske Svobodne Hory","coordinates":{"lat":"49.111219","long":"14.099289"}},{"country":"cz","city":"Bavory","coordinates":{"lat":"48.833333","long":"16.616667"}},{"country":"cz","city":"Bavoryne","coordinates":{"lat":"49.895377","long":"13.960617"}},{"country":"cz","city":"Bayorovice","coordinates":{"lat":"49.024095","long":"14.441268"}},{"country":"cz","city":"Bazantnice","coordinates":{"lat":"48.914936","long":"15.872008"}},{"country":"cz","city":"Bazantov","coordinates":{"lat":"49.744357","long":"12.570709"}},{"country":"cz","city":"Bdeneves","coordinates":{"lat":"49.768095","long":"13.232517"}},{"country":"cz","city":"Bdin","coordinates":{"lat":"50.214004","long":"13.858981"}},{"country":"cz","city":"Becharky","coordinates":{"lat":"50.3","long":"15.3"}},{"country":"cz","city":"Bechary","coordinates":{"lat":"50.314712","long":"15.292821"}},{"country":"cz","city":"Bechlejovice","coordinates":{"lat":"50.753059","long":"14.24013"}},{"country":"cz","city":"Bechlin","coordinates":{"lat":"50.416903","long":"14.339821"}},{"country":"cz","city":"Bechov","coordinates":{"lat":"50.440005","long":"15.088041"}},{"country":"cz","city":"Bechov","coordinates":{"lat":"49.216667","long":"18.133333"}},{"country":"cz","city":"Bechovice","coordinates":{"lat":"50.081347","long":"14.623212"}},{"country":"cz","city":"Bechowitz","coordinates":{"lat":"50.081347","long":"14.623212"}},{"country":"cz","city":"Bechyn","coordinates":{"lat":"49.299118","long":"14.469875"}},{"country":"cz","city":"Bechyne","coordinates":{"lat":"49.299118","long":"14.469875"}},{"country":"cz","city":"Bechynska Smolec","coordinates":{"lat":"49.30946","long":"14.547205"}},{"country":"cz","city":"Becice","coordinates":{"lat":"49.21527","long":"14.502353"}},{"country":"cz","city":"Becitz","coordinates":{"lat":"49.21527","long":"14.502353"}},{"country":"cz","city":"Beckengrund","coordinates":{"lat":"50.075719","long":"17.022268"}},{"country":"cz","city":"Beckov","coordinates":{"lat":"50.631806","long":"16.001319"}},{"country":"cz","city":"Becov","coordinates":{"lat":"50.44922","long":"13.717491"}},{"country":"cz","city":"Becov nad Teplou","coordinates":{"lat":"50.083843","long":"12.836551"}},{"country":"cz","city":"Becvary","coordinates":{"lat":"49.95956","long":"15.08223"}},{"country":"cz","city":"Becvice","coordinates":{"lat":"49.417857","long":"18.358804"}},{"country":"cz","city":"Becwar","coordinates":{"lat":"49.95956","long":"15.08223"}},{"country":"cz","city":"Bedertsch","coordinates":{"lat":"49.808578","long":"14.718359"}},{"country":"cz","city":"Bedihoscht","coordinates":{"lat":"49.448453","long":"17.167143"}},{"country":"cz","city":"Bedihost'","coordinates":{"lat":"49.448453","long":"17.167143"}},{"country":"cz","city":"Bedlno","coordinates":{"lat":"50.122775","long":"13.506001"}},{"country":"cz","city":"Bednare","coordinates":{"lat":"48.73845","long":"14.162703"}},{"country":"cz","city":"Bednarec","coordinates":{"lat":"49.195614","long":"15.094264"}},{"country":"cz","city":"Bednarecek","coordinates":{"lat":"49.211005","long":"15.143161"}},{"country":"cz","city":"Bedovice","coordinates":{"lat":"50.199445","long":"16.018895"}},{"country":"cz","city":"Bedrc","coordinates":{"lat":"49.808578","long":"14.718359"}},{"country":"cz","city":"Bedrichau","coordinates":{"lat":"49.461551","long":"16.465359"}},{"country":"cz","city":"Bedrichov","coordinates":{"lat":"49.461551","long":"16.465359"}},{"country":"cz","city":"Bedrichov","coordinates":{"lat":"48.716667","long":"14.2"}},{"country":"cz","city":"Bedrichov","coordinates":{"lat":"49.430204","long":"15.600952"}},{"country":"cz","city":"Bedrichov","coordinates":{"lat":"50.72802","long":"15.600062"}},{"country":"cz","city":"Bedrichov","coordinates":{"lat":"50.791719","long":"15.141088"}},{"country":"cz","city":"Bedrichov","coordinates":{"lat":"49.937883","long":"17.159458"}},{"country":"cz","city":"Bedrichov","coordinates":{"lat":"49.509008","long":"12.679257"}},{"country":"cz","city":"Bedrichov","coordinates":{"lat":"49.882818","long":"15.170859"}},{"country":"cz","city":"Bedrichovice","coordinates":{"lat":"49.180176","long":"16.720745"}},{"country":"cz","city":"Bedrichovice","coordinates":{"lat":"49.676861","long":"14.774904"}},{"country":"cz","city":"Bedrichovka","coordinates":{"lat":"50.299095","long":"16.440902"}},{"country":"cz","city":"Bedrichovka","coordinates":{"lat":"50.8","long":"15"}},{"country":"cz","city":"Bedrichowitz","coordinates":{"lat":"50.303892","long":"13.88058"}},{"country":"cz","city":"Bedrichuv Svetec","coordinates":{"lat":"50.452846","long":"13.752277"}},{"country":"cz","city":"Beerhof","coordinates":{"lat":"49.816667","long":"16.783333"}},{"country":"cz","city":"Behanky","coordinates":{"lat":"50.680012","long":"13.805913"}},{"country":"cz","city":"Beharov","coordinates":{"lat":"49.345106","long":"13.160549"}},{"country":"cz","city":"Beharovice","coordinates":{"lat":"49.004472","long":"16.07794"}},{"country":"cz","city":"Bejscht","coordinates":{"lat":"50.131957","long":"15.911315"}},{"country":"cz","city":"Bela","coordinates":{"lat":"48.65696","long":"14.585907"}},{"country":"cz","city":"Bela","coordinates":{"lat":"49.31282","long":"15.259959"}},{"country":"cz","city":"Bela","coordinates":{"lat":"50.107234","long":"15.606033"}},{"country":"cz","city":"Bela","coordinates":{"lat":"50.540793","long":"15.437896"}},{"country":"cz","city":"Bela","coordinates":{"lat":"49.729764","long":"17.46631"}},{"country":"cz","city":"Bela","coordinates":{"lat":"49.973687","long":"18.146074"}},{"country":"cz","city":"Bela","coordinates":{"lat":"49.640006","long":"16.485712"}},{"country":"cz","city":"Bela","coordinates":{"lat":"49.752721","long":"15.23755"}},{"country":"cz","city":"Bela","coordinates":{"lat":"50.790265","long":"14.167755"}},{"country":"cz","city":"Bela nad Radbuzou","coordinates":{"lat":"49.591264","long":"12.71637"}},{"country":"cz","city":"Bela pod Bezdezem","coordinates":{"lat":"50.503175","long":"14.799517"}},{"country":"cz","city":"Bela pri Bedez","coordinates":{"lat":"50.503175","long":"14.799517"}},{"country":"cz","city":"Belaun","coordinates":{"lat":"50.4551","long":"15.936381"}},{"country":"cz","city":"Bela u Pecky","coordinates":{"lat":"50.474152","long":"15.583091"}},{"country":"cz","city":"Belbozice","coordinates":{"lat":"50.018401","long":"13.601224"}},{"country":"cz","city":"Belcice","coordinates":{"lat":"49.502785","long":"13.874678"}},{"country":"cz","city":"Belcitz","coordinates":{"lat":"49.502785","long":"13.874678"}},{"country":"cz","city":"Belcovice","coordinates":{"lat":"48.985503","long":"15.509268"}},{"country":"cz","city":"Belec","coordinates":{"lat":"49.048816","long":"14.036649"}},{"country":"cz","city":"Belec","coordinates":{"lat":"49.435236","long":"16.3825"}},{"country":"cz","city":"Belec","coordinates":{"lat":"50.057163","long":"13.991968"}},{"country":"cz","city":"Belecko","coordinates":{"lat":"50.15368","long":"15.95356"}},{"country":"cz","city":"Belec nad Orlici","coordinates":{"lat":"50.194159","long":"15.946545"}},{"country":"cz","city":"Belecska Lhota","coordinates":{"lat":"49.037715","long":"14.032148"}},{"country":"cz","city":"Belen","coordinates":{"lat":"48.687952","long":"14.328595"}},{"country":"cz","city":"Belesovice","coordinates":{"lat":"49.983877","long":"15.954626"}},{"country":"cz","city":"Belice","coordinates":{"lat":"49.766193","long":"14.47176"}},{"country":"cz","city":"Belidlo","coordinates":{"lat":"49.948095","long":"15.284965"}},{"country":"cz","city":"Belkovice","coordinates":{"lat":"49.670593","long":"17.3175"}},{"country":"cz","city":"Belohrad","coordinates":{"lat":"49.706514","long":"14.201421"}},{"country":"cz","city":"Belokozly","coordinates":{"lat":"49.85","long":"14.9"}},{"country":"cz","city":"Beloky","coordinates":{"lat":"50.132611","long":"14.221426"}},{"country":"cz","city":"Belotin","coordinates":{"lat":"49.593683","long":"17.805603"}},{"country":"cz","city":"Belov","coordinates":{"lat":"49.213642","long":"17.481886"}},{"country":"cz","city":"Beloves","coordinates":{"lat":"50.423249","long":"16.182934"}},{"country":"cz","city":"Belowes","coordinates":{"lat":"50.423249","long":"16.182934"}},{"country":"cz","city":"Belun","coordinates":{"lat":"50.38766","long":"15.931169"}},{"country":"cz","city":"Belusice","coordinates":{"lat":"50.069285","long":"15.322216"}},{"country":"cz","city":"Belvedere","coordinates":{"lat":"48.75","long":"16.766667"}},{"country":"cz","city":"Bely","coordinates":{"lat":"50.514135","long":"16.273969"}},{"country":"cz","city":"Benatecka Vrutice","coordinates":{"lat":"50.229935","long":"14.837272"}},{"country":"cz","city":"Benatek","coordinates":{"lat":"50.221072","long":"16.33197"}},{"country":"cz","city":"Benatky","coordinates":{"lat":"49.34415","long":"15.247959"}},{"country":"cz","city":"Benatky","coordinates":{"lat":"50.221072","long":"16.33197"}},{"country":"cz","city":"Benatky","coordinates":{"lat":"49.708964","long":"15.845048"}},{"country":"cz","city":"Benatky","coordinates":{"lat":"49.90353","long":"14.933848"}},{"country":"cz","city":"Benatky nad Jizerou","coordinates":{"lat":"50.28619","long":"14.834337"}},{"country":"cz","city":"Bencice","coordinates":{"lat":"48.704422","long":"14.49659"}},{"country":"cz","city":"Bendovo Zahori","coordinates":{"lat":"49.5","long":"14.8"}},{"country":"cz","city":"Benecko","coordinates":{"lat":"50.66784","long":"15.551604"}},{"country":"cz","city":"Beneschau","coordinates":{"lat":"49.509161","long":"16.769879"}},{"country":"cz","city":"Beneschau","coordinates":{"lat":"49.922199","long":"18.113812"}},{"country":"cz","city":"Beneschau","coordinates":{"lat":"49.727827","long":"12.901279"}},{"country":"cz","city":"Beneschau","coordinates":{"lat":"49.782377","long":"14.686569"}},{"country":"cz","city":"Benesova Hora","coordinates":{"lat":"49.125003","long":"13.698165"}},{"country":"cz","city":"Benesov","coordinates":{"lat":"49.509161","long":"16.769879"}},{"country":"cz","city":"Benesov","coordinates":{"lat":"49.338186","long":"15.004312"}},{"country":"cz","city":"Benesov","coordinates":{"lat":"50.613865","long":"16.347438"}},{"country":"cz","city":"Benesov","coordinates":{"lat":"49.782377","long":"14.686569"}},{"country":"cz","city":"Benesovice","coordinates":{"lat":"50.609097","long":"14.964813"}},{"country":"cz","city":"Benesovice","coordinates":{"lat":"50.01751","long":"15.558018"}},{"country":"cz","city":"Benesovice","coordinates":{"lat":"49.727827","long":"12.901279"}},{"country":"cz","city":"Benesov nad Cernou","coordinates":{"lat":"48.7287","long":"14.62642"}},{"country":"cz","city":"Benesov nad Ploucnici","coordinates":{"lat":"50.738658","long":"14.311497"}},{"country":"cz","city":"Benesov u Semil","coordinates":{"lat":"50.604346","long":"15.364595"}},{"country":"cz","city":"Benetice","coordinates":{"lat":"49.297435","long":"15.866075"}},{"country":"cz","city":"Benetschlag","coordinates":{"lat":"48.816667","long":"14.133333"}},{"country":"cz","city":"Benice","coordinates":{"lat":"49.794117","long":"14.558384"}},{"country":"cz","city":"Benikovice","coordinates":{"lat":"48.82978","long":"14.188425"}},{"country":"cz","city":"Benisch","coordinates":{"lat":"49.967143","long":"17.603331"}},{"country":"cz","city":"Benitz","coordinates":{"lat":"49.794117","long":"14.558384"}},{"country":"cz","city":"Benkov","coordinates":{"lat":"49.767857","long":"17.073458"}},{"country":"cz","city":"Benkovice","coordinates":{"lat":"49.868571","long":"17.837389"}},{"country":"cz","city":"Bennisch","coordinates":{"lat":"49.967143","long":"17.603331"}},{"country":"cz","city":"Benov","coordinates":{"lat":"49.418452","long":"17.500476"}},{"country":"cz","city":"Benovy","coordinates":{"lat":"49.390216","long":"13.262461"}},{"country":"cz","city":"Bensen","coordinates":{"lat":"50.738658","long":"14.311497"}},{"country":"cz","city":"Berani Dvur","coordinates":{"lat":"49.7","long":"13.033333"}},{"country":"cz","city":"Beranova Lhota","coordinates":{"lat":"49.35","long":"14.716667"}},{"country":"cz","city":"Beranov","coordinates":{"lat":"49.404626","long":"15.667805"}},{"country":"cz","city":"Beranov","coordinates":{"lat":"50.000714","long":"12.898572"}},{"country":"cz","city":"Beranovec","coordinates":{"lat":"49.318048","long":"15.571403"}},{"country":"cz","city":"Beranovka","coordinates":{"lat":"49.941537","long":"12.843474"}},{"country":"cz","city":"Beraun","coordinates":{"lat":"49.966171","long":"14.060086"}},{"country":"cz","city":"Bergau","coordinates":{"lat":"50.337247","long":"17.052665"}},{"country":"cz","city":"Berg","coordinates":{"lat":"50.181531","long":"12.482932"}},{"country":"cz","city":"Berg","coordinates":{"lat":"49.519308","long":"12.740801"}},{"country":"cz","city":"Bergersdorf","coordinates":{"lat":"49.510137","long":"15.651497"}},{"country":"cz","city":"Bergesgrun","coordinates":{"lat":"50.597025","long":"13.593277"}},{"country":"cz","city":"Berggraben","coordinates":{"lat":"50.666667","long":"15.983333"}},{"country":"cz","city":"Berghauseln","coordinates":{"lat":"50.219995","long":"12.901693"}},{"country":"cz","city":"Bergles","coordinates":{"lat":"50.176248","long":"13.047723"}},{"country":"cz","city":"Bergov","coordinates":{"lat":"50.337247","long":"17.052665"}},{"country":"cz","city":"Bergreichenstein","coordinates":{"lat":"49.143041","long":"13.555578"}},{"country":"cz","city":"Bergstadt","coordinates":{"lat":"49.908547","long":"17.212741"}},{"country":"cz","city":"Bergstadtl","coordinates":{"lat":"49.267668","long":"13.435153"}},{"country":"cz","city":"Bergstadtl-Ratiboritz","coordinates":{"lat":"49.465049","long":"14.771742"}},{"country":"cz","city":"Bergstadt Platten","coordinates":{"lat":"50.390755","long":"12.769616"}},{"country":"cz","city":"Berin","coordinates":{"lat":"49.788899","long":"13.992539"}},{"country":"cz","city":"Berlau","coordinates":{"lat":"48.928508","long":"14.220394"}},{"country":"cz","city":"Bernaditz","coordinates":{"lat":"49.367906","long":"14.380688"}},{"country":"cz","city":"Bernardov","coordinates":{"lat":"50.01436","long":"15.399015"}},{"country":"cz","city":"Bernartice","coordinates":{"lat":"49.367906","long":"14.380688"}},{"country":"cz","city":"Bernartice","coordinates":{"lat":"50.645798","long":"15.965213"}},{"country":"cz","city":"Bernartice","coordinates":{"lat":"50.389756","long":"17.078003"}},{"country":"cz","city":"Bernartice","coordinates":{"lat":"49.319489","long":"13.382605"}},{"country":"cz","city":"Bernartice","coordinates":{"lat":"49.67517","long":"15.129067"}},{"country":"cz","city":"Bernartice nad Odrou","coordinates":{"lat":"49.611194","long":"17.947977"}},{"country":"cz","city":"Bernau","coordinates":{"lat":"50.320688","long":"12.673003"}},{"country":"cz","city":"Bernetzreith","coordinates":{"lat":"49.773683","long":"12.679774"}},{"country":"cz","city":"Bernhau","coordinates":{"lat":"49.714131","long":"17.662917"}},{"country":"cz","city":"Bernklau","coordinates":{"lat":"49.994596","long":"13.060243"}},{"country":"cz","city":"Berno","coordinates":{"lat":"49.2","long":"16.633333"}},{"country":"cz","city":"Bernov","coordinates":{"lat":"50.233818","long":"12.510081"}},{"country":"cz","city":"Bernschlag Deutsch","coordinates":{"lat":"49.004538","long":"15.237377"}},{"country":"cz","city":"Bernsdorf","coordinates":{"lat":"50.645798","long":"15.965213"}},{"country":"cz","city":"Bernsdorf pod Smrkem","coordinates":{"lat":"50.964465","long":"15.199942"}},{"country":"cz","city":"Beroun","coordinates":{"lat":"49.950816","long":"12.924054"}},{"country":"cz","city":"Beroun","coordinates":{"lat":"49.796431","long":"17.444735"}},{"country":"cz","city":"Beroun","coordinates":{"lat":"49.966171","long":"14.060086"}},{"country":"cz","city":"Berovice","coordinates":{"lat":"50.269094","long":"14.123238"}},{"country":"cz","city":"Berunice","coordinates":{"lat":"50.186082","long":"15.332337"}},{"country":"cz","city":"Berunicky","coordinates":{"lat":"50.196138","long":"15.331324"}},{"country":"cz","city":"Berzdorf","coordinates":{"lat":"50.770028","long":"15.013847"}},{"country":"cz","city":"Beschin","coordinates":{"lat":"49.300535","long":"13.313302"}},{"country":"cz","city":"Beschkaben","coordinates":{"lat":"50.516317","long":"14.579563"}},{"country":"cz","city":"Besdiekow","coordinates":{"lat":"49.864387","long":"14.752253"}},{"country":"cz","city":"Besedice","coordinates":{"lat":"50.627229","long":"15.210177"}},{"country":"cz","city":"Besednice","coordinates":{"lat":"48.78971","long":"14.556441"}},{"country":"cz","city":"Besetin","coordinates":{"lat":"49.240228","long":"13.626711"}},{"country":"cz","city":"Besidka","coordinates":{"lat":"49.765913","long":"14.262513"}},{"country":"cz","city":"Besikau","coordinates":{"lat":"50.006526","long":"12.976399"}},{"country":"cz","city":"Besiny","coordinates":{"lat":"49.300535","long":"13.313302"}},{"country":"cz","city":"Beskov","coordinates":{"lat":"50.516317","long":"14.579563"}},{"country":"cz","city":"Besno","coordinates":{"lat":"50.179856","long":"13.5118"}},{"country":"cz","city":"Bestin","coordinates":{"lat":"49.807816","long":"14.016667"}},{"country":"cz","city":"Bestovice","coordinates":{"lat":"50.017347","long":"16.21245"}},{"country":"cz","city":"Bestvina","coordinates":{"lat":"49.83699","long":"15.597045"}},{"country":"cz","city":"Bestviny","coordinates":{"lat":"50.320749","long":"16.146054"}},{"country":"cz","city":"Bestwin","coordinates":{"lat":"49.83699","long":"15.597045"}},{"country":"cz","city":"Betlem","coordinates":{"lat":"49.716667","long":"16.05"}},{"country":"cz","city":"Bettlern","coordinates":{"lat":"50.413061","long":"13.161048"}},{"country":"cz","city":"Bevorovice","coordinates":{"lat":"49.024095","long":"14.441268"}},{"country":"cz","city":"Bezdecin","coordinates":{"lat":"49.332597","long":"14.616888"}},{"country":"cz","city":"Bezdecin","coordinates":{"lat":"49.320745","long":"15.374915"}},{"country":"cz","city":"Bezdecin","coordinates":{"lat":"50.554868","long":"15.316088"}},{"country":"cz","city":"Bezdecin","coordinates":{"lat":"50.385891","long":"14.898479"}},{"country":"cz","city":"Bezdeci u Trnavky","coordinates":{"lat":"49.692851","long":"16.762849"}},{"country":"cz","city":"Bezdeci u Velkych Opatovic","coordinates":{"lat":"49.607149","long":"16.616191"}},{"country":"cz","city":"Bezdedice","coordinates":{"lat":"50.483119","long":"14.697287"}},{"country":"cz","city":"Bezdedice","coordinates":{"lat":"49.832928","long":"14.029895"}},{"country":"cz","city":"Bezdedicky","coordinates":{"lat":"49.816667","long":"14.016667"}},{"country":"cz","city":"Bezdedovice","coordinates":{"lat":"49.444529","long":"13.881642"}},{"country":"cz","city":"Bezdek","coordinates":{"lat":"50.326166","long":"13.583884"}},{"country":"cz","city":"Bezdekov","coordinates":{"lat":"48.833333","long":"14.15"}},{"country":"cz","city":"Bezdekov","coordinates":{"lat":"49.250099","long":"15.529781"}},{"country":"cz","city":"Bezdekov","coordinates":{"lat":"50.006526","long":"12.976399"}},{"country":"cz","city":"Bezdekov","coordinates":{"lat":"50.584478","long":"16.002048"}},{"country":"cz","city":"Bezdekov","coordinates":{"lat":"49.836734","long":"15.696735"}},{"country":"cz","city":"Bezdekov","coordinates":{"lat":"49.379585","long":"13.227827"}},{"country":"cz","city":"Bezdekov","coordinates":{"lat":"49.529803","long":"14.480759"}},{"country":"cz","city":"Bezdekovec","coordinates":{"lat":"49.461059","long":"13.641898"}},{"country":"cz","city":"Bezdekov nad Metuji","coordinates":{"lat":"50.509074","long":"16.228727"}},{"country":"cz","city":"Bezdekov nad Trebuvkou","coordinates":{"lat":"49.713098","long":"16.869642"}},{"country":"cz","city":"Bezdekov pod Tremsinem","coordinates":{"lat":"49.577265","long":"13.878657"}},{"country":"cz","city":"Bezdekov u Usova","coordinates":{"lat":"49.837854","long":"16.996312"}},{"country":"cz","city":"Bezdez","coordinates":{"lat":"50.535157","long":"14.719251"}},{"country":"cz","city":"Bezdruzice","coordinates":{"lat":"49.907036","long":"12.971154"}},{"country":"cz","city":"Bezemin","coordinates":{"lat":"49.842306","long":"12.996227"}},{"country":"cz","city":"Bezerovice","coordinates":{"lat":"49.298088","long":"14.516667"}},{"country":"cz","city":"Bezkov","coordinates":{"lat":"48.871797","long":"15.950395"}},{"country":"cz","city":"Bezkyd","coordinates":{"lat":"49.4","long":"18.45"}},{"country":"cz","city":"Bezmerov","coordinates":{"lat":"49.329288","long":"17.334813"}},{"country":"cz","city":"Bezmir","coordinates":{"lat":"49.65228","long":"14.538701"}},{"country":"cz","city":"Beznik","coordinates":{"lat":"50.446741","long":"15.645594"}},{"country":"cz","city":"Bezno","coordinates":{"lat":"50.367469","long":"14.79398"}},{"country":"cz","city":"Bezpravi","coordinates":{"lat":"50","long":"16.333333"}},{"country":"cz","city":"Bezpravovice","coordinates":{"lat":"49.448088","long":"13.14327"}},{"country":"cz","city":"Beztahov","coordinates":{"lat":"49.640099","long":"14.610931"}},{"country":"cz","city":"Bezuchov","coordinates":{"lat":"49.462622","long":"17.607744"}},{"country":"cz","city":"Bezverov","coordinates":{"lat":"49.946533","long":"12.823952"}},{"country":"cz","city":"Bezverov","coordinates":{"lat":"49.55","long":"12.716667"}},{"country":"cz","city":"Biberteich","coordinates":{"lat":"50.220629","long":"17.171807"}},{"country":"cz","city":"Biebersdorf","coordinates":{"lat":"50.670146","long":"14.253706"}},{"country":"cz","city":"Bielai","coordinates":{"lat":"50.186305","long":"16.380237"}},{"country":"cz","city":"Bielau","coordinates":{"lat":"49.734998","long":"18.001666"}},{"country":"cz","city":"Bielitz","coordinates":{"lat":"49.766193","long":"14.47176"}},{"country":"cz","city":"Bielowiec","coordinates":{"lat":"49.75703","long":"18.016558"}},{"country":"cz","city":"Bieltschitz","coordinates":{"lat":"49.843528","long":"14.808357"}},{"country":"cz","city":"Bierbruck","coordinates":{"lat":"48.95","long":"13.933333"}},{"country":"cz","city":"Biharzowitz","coordinates":{"lat":"49.004472","long":"16.07794"}},{"country":"cz","city":"Bila","coordinates":{"lat":"50.665926","long":"15.036121"}},{"country":"cz","city":"Bila","coordinates":{"lat":"49.442851","long":"18.456662"}},{"country":"cz","city":"Bila Hlina","coordinates":{"lat":"50.531093","long":"14.923273"}},{"country":"cz","city":"Bila Hora","coordinates":{"lat":"49.773703","long":"13.409835"}},{"country":"cz","city":"Bila Hurka","coordinates":{"lat":"49.154027","long":"14.303908"}},{"country":"cz","city":"Bila Lhota","coordinates":{"lat":"49.709886","long":"16.973687"}},{"country":"cz","city":"Bilan","coordinates":{"lat":"49.957552","long":"15.735238"}},{"country":"cz","city":"Bilantova Lhota","coordinates":{"lat":"49.659729","long":"15.327346"}},{"country":"cz","city":"Bilany","coordinates":{"lat":"49.310945","long":"17.426427"}},{"country":"cz","city":"Bila Skala","coordinates":{"lat":"49.885092","long":"13.677756"}},{"country":"cz","city":"Bila Studne","coordinates":{"lat":"49.783511","long":"16.6884"}},{"country":"cz","city":"Bila Tremesna","coordinates":{"lat":"50.444698","long":"15.744118"}},{"country":"cz","city":"Bila Voda","coordinates":{"lat":"50.023003","long":"16.745092"}},{"country":"cz","city":"Bilavsko","coordinates":{"lat":"49.384641","long":"17.644646"}},{"country":"cz","city":"Bilcice","coordinates":{"lat":"49.869879","long":"17.565596"}},{"country":"cz","city":"Bilek","coordinates":{"lat":"49.702891","long":"15.731875"}},{"country":"cz","city":"Bilence","coordinates":{"lat":"50.424143","long":"13.50504"}},{"country":"cz","city":"Bilenec","coordinates":{"lat":"50.136547","long":"13.463453"}},{"country":"cz","city":"Bilenice","coordinates":{"lat":"49.238726","long":"13.64092"}},{"country":"cz","city":"Bile Podoli","coordinates":{"lat":"49.955714","long":"15.490135"}},{"country":"cz","city":"Bile Policany","coordinates":{"lat":"50.390264","long":"15.731092"}},{"country":"cz","city":"Biletin","coordinates":{"lat":"49.811787","long":"12.678859"}},{"country":"cz","city":"Biletitz","coordinates":{"lat":"48.834043","long":"14.183333"}},{"country":"cz","city":"Bile Vchynice","coordinates":{"lat":"50.097806","long":"15.436185"}},{"country":"cz","city":"Bilichov","coordinates":{"lat":"50.261188","long":"13.916439"}},{"country":"cz","city":"Bilina","coordinates":{"lat":"49.381438","long":"14.365838"}},{"country":"cz","city":"Bilina","coordinates":{"lat":"50.548752","long":"13.775444"}},{"country":"cz","city":"Bilina Kyselka","coordinates":{"lat":"50.55","long":"13.766667"}},{"country":"cz","city":"Bilin","coordinates":{"lat":"50.548752","long":"13.775444"}},{"country":"cz","city":"Bilinka","coordinates":{"lat":"49.357903","long":"14.3767"}},{"country":"cz","city":"Bilinka","coordinates":{"lat":"50.521345","long":"14.003142"}},{"country":"cz","city":"Bilka","coordinates":{"lat":"50.5684","long":"13.934295"}},{"country":"cz","city":"Bilkau","coordinates":{"lat":"49.084873","long":"15.478861"}},{"country":"cz","city":"Bilkov","coordinates":{"lat":"49.084873","long":"15.478861"}},{"country":"cz","city":"Bilkovice","coordinates":{"lat":"49.760343","long":"14.861372"}},{"country":"cz","city":"Bilnitz","coordinates":{"lat":"49.074291","long":"18.011432"}},{"country":"cz","city":"Bilova","coordinates":{"lat":"49.410243","long":"17.846907"}},{"country":"cz","city":"Bilov","coordinates":{"lat":"49.734998","long":"18.001666"}},{"country":"cz","city":"Bilov","coordinates":{"lat":"50.018401","long":"13.427215"}},{"country":"cz","city":"Bilovec","coordinates":{"lat":"49.75703","long":"18.016558"}},{"country":"cz","city":"Bilovice","coordinates":{"lat":"48.834043","long":"14.183333"}},{"country":"cz","city":"Bilovice","coordinates":{"lat":"49.511194","long":"17.040006"}},{"country":"cz","city":"Bilovice","coordinates":{"lat":"49.099309","long":"17.548318"}},{"country":"cz","city":"Bilovice nad Svitavou","coordinates":{"lat":"49.245536","long":"16.671772"}},{"country":"cz","city":"Bilowitz","coordinates":{"lat":"49.245536","long":"16.671772"}},{"country":"cz","city":"Bilowitz","coordinates":{"lat":"49.099309","long":"17.548318"}},{"country":"cz","city":"Bilsko","coordinates":{"lat":"49.159088","long":"14.061456"}},{"country":"cz","city":"Bilsko","coordinates":{"lat":"50.349974","long":"15.270005"}},{"country":"cz","city":"Bilsko","coordinates":{"lat":"49.644289","long":"17.020355"}},{"country":"cz","city":"Biluky","coordinates":{"lat":"49.469216","long":"13.422479"}},{"country":"cz","city":"Bily Dvur","coordinates":{"lat":"49.054439","long":"15.308188"}},{"country":"cz","city":"Bily Kamen","coordinates":{"lat":"49.436685","long":"15.507372"}},{"country":"cz","city":"Bily Kamen","coordinates":{"lat":"49.93102","long":"15.551905"}},{"country":"cz","city":"Bily Kostel","coordinates":{"lat":"50.824064","long":"14.925302"}},{"country":"cz","city":"Bily Kostelec","coordinates":{"lat":"50.635372","long":"14.336801"}},{"country":"cz","city":"Bily Kostel nad Nisou","coordinates":{"lat":"50.824064","long":"14.925302"}},{"country":"cz","city":"Bily Kun","coordinates":{"lat":"49.882558","long":"16.067802"}},{"country":"cz","city":"Bily Potok","coordinates":{"lat":"50.872984","long":"15.231097"}},{"country":"cz","city":"Bily Potok","coordinates":{"lat":"50.411754","long":"16.994492"}},{"country":"cz","city":"Bily Ujezd","coordinates":{"lat":"50.238163","long":"16.22454"}},{"country":"cz","city":"Bily Ujezd","coordinates":{"lat":"50.54722","long":"13.976259"}},{"country":"cz","city":"Binai","coordinates":{"lat":"50.554116","long":"14.61633"}},{"country":"cz","city":"Binsdorf","coordinates":{"lat":"50.820232","long":"14.265391"}},{"country":"cz","city":"Birkau","coordinates":{"lat":"49.275079","long":"13.290364"}},{"country":"cz","city":"Birkenberg","coordinates":{"lat":"49.679898","long":"13.98203"}},{"country":"cz","city":"Birkigt","coordinates":{"lat":"50.609381","long":"16.23061"}},{"country":"cz","city":"Birkigt","coordinates":{"lat":"50.760958","long":"14.258171"}},{"country":"cz","city":"Birkov","coordinates":{"lat":"49.517891","long":"13.231191"}},{"country":"cz","city":"Birnai","coordinates":{"lat":"50.619332","long":"14.079506"}},{"country":"cz","city":"Birnbaum","coordinates":{"lat":"49.128992","long":"16.833727"}},{"country":"cz","city":"Birnbaumhof","coordinates":{"lat":"49.407682","long":"15.607498"}},{"country":"cz","city":"Birndorf","coordinates":{"lat":"50.154992","long":"12.711029"}},{"country":"cz","city":"Bischitz","coordinates":{"lat":"50.311153","long":"14.61104"}},{"country":"cz","city":"Bischkowitz","coordinates":{"lat":"49.468333","long":"17.716072"}},{"country":"cz","city":"Bischofstein","coordinates":{"lat":"50.572912","long":"16.137576"}},{"country":"cz","city":"Bischofswalde","coordinates":{"lat":"50.176004","long":"17.610957"}},{"country":"cz","city":"Bischofteinitz","coordinates":{"lat":"49.527415","long":"12.941255"}},{"country":"cz","city":"Bisenz","coordinates":{"lat":"48.970968","long":"17.269298"}},{"country":"cz","city":"Biskoupky","coordinates":{"lat":"49.097764","long":"16.281491"}},{"country":"cz","city":"Biskoupky","coordinates":{"lat":"49.874768","long":"13.68165"}},{"country":"cz","city":"Biskupice","coordinates":{"lat":"49.037476","long":"16.010058"}},{"country":"cz","city":"Biskupice","coordinates":{"lat":"49.460481","long":"17.236545"}},{"country":"cz","city":"Biskupice","coordinates":{"lat":"50.176004","long":"17.610957"}},{"country":"cz","city":"Biskupice","coordinates":{"lat":"49.647383","long":"16.757733"}},{"country":"cz","city":"Biskupice","coordinates":{"lat":"49.083234","long":"17.708578"}},{"country":"cz","city":"Biskupitz","coordinates":{"lat":"49.037476","long":"16.010058"}},{"country":"cz","city":"Biskupitz","coordinates":{"lat":"49.647383","long":"16.757733"}},{"country":"cz","city":"Bisterz","coordinates":{"lat":"49.222547","long":"16.525967"}},{"country":"cz","city":"Bistrau","coordinates":{"lat":"49.630834","long":"16.342375"}},{"country":"cz","city":"Bistritz","coordinates":{"lat":"50.39455","long":"15.246379"}},{"country":"cz","city":"Bistritz","coordinates":{"lat":"49.731793","long":"14.667197"}},{"country":"cz","city":"Bitetice","coordinates":{"lat":"49.466667","long":"15.15"}},{"country":"cz","city":"Bitouchov","coordinates":{"lat":"50.532348","long":"15.303014"}},{"country":"cz","city":"Bitouchov","coordinates":{"lat":"50.475793","long":"14.889693"}},{"country":"cz","city":"Bitovanky","coordinates":{"lat":"49.145133","long":"15.690962"}},{"country":"cz","city":"Bitovanky","coordinates":{"lat":"49.89318","long":"15.874905"}},{"country":"cz","city":"Bitovany","coordinates":{"lat":"49.898008","long":"15.860401"}},{"country":"cz","city":"Bitov","coordinates":{"lat":"49.378994","long":"14.819021"}},{"country":"cz","city":"Bitov","coordinates":{"lat":"48.938556","long":"15.728407"}},{"country":"cz","city":"Bitov","coordinates":{"lat":"49.801428","long":"18.047264"}},{"country":"cz","city":"Bitov","coordinates":{"lat":"49.695004","long":"13.096737"}},{"country":"cz","city":"Bitov","coordinates":{"lat":"49.928458","long":"14.069751"}},{"country":"cz","city":"Bitozeves","coordinates":{"lat":"50.373698","long":"13.641965"}},{"country":"cz","city":"Bittischka","coordinates":{"lat":"49.275743","long":"16.436621"}},{"country":"cz","city":"Bladensdorf","coordinates":{"lat":"49.922497","long":"17.083809"}},{"country":"cz","city":"Bladowitz","coordinates":{"lat":"49.751666","long":"17.232738"}},{"country":"cz","city":"Blahonov","coordinates":{"lat":"49.335799","long":"16.313609"}},{"country":"cz","city":"Blahotice","coordinates":{"lat":"50.236948","long":"14.120716"}},{"country":"cz","city":"Blahousty","coordinates":{"lat":"49.8","long":"13.083333"}},{"country":"cz","city":"Blahova Lhota","coordinates":{"lat":"49.610508","long":"14.340794"}},{"country":"cz","city":"Blahov","coordinates":{"lat":"50.633408","long":"14.202799"}},{"country":"cz","city":"Blahunov","coordinates":{"lat":"50.447735","long":"13.291888"}},{"country":"cz","city":"Blahussen","coordinates":{"lat":"49.8","long":"13.083333"}},{"country":"cz","city":"Blahutovice","coordinates":{"lat":"49.586188","long":"17.871079"}},{"country":"cz","city":"Blanice","coordinates":{"lat":"49.100914","long":"14.072883"}},{"country":"cz","city":"Blanicka","coordinates":{"lat":"49.09447","long":"14.074987"}},{"country":"cz","city":"Blankartice","coordinates":{"lat":"50.699679","long":"14.298626"}},{"country":"cz","city":"Blankersdorf","coordinates":{"lat":"50.699679","long":"14.298626"}},{"country":"cz","city":"Blanne","coordinates":{"lat":"48.992014","long":"15.883333"}},{"country":"cz","city":"Blansko","coordinates":{"lat":"49.363931","long":"16.647513"}},{"country":"cz","city":"Blansko","coordinates":{"lat":"48.741199","long":"14.517002"}},{"country":"cz","city":"Blansko","coordinates":{"lat":"49.94762","long":"15.938915"}},{"country":"cz","city":"Blansko","coordinates":{"lat":"50.702358","long":"14.098555"}},{"country":"cz","city":"Blaschdorf","coordinates":{"lat":"49.776908","long":"18.068452"}},{"country":"cz","city":"Blaschenitz","coordinates":{"lat":"49.789572","long":"14.468897"}},{"country":"cz","city":"Blaschim","coordinates":{"lat":"49.762167","long":"14.453316"}},{"country":"cz","city":"Blaschke","coordinates":{"lat":"50.089579","long":"16.894557"}},{"country":"cz","city":"Blata","coordinates":{"lat":"50.470904","long":"15.263734"}},{"country":"cz","city":"Blata","coordinates":{"lat":"49.301606","long":"13.197629"}},{"country":"cz","city":"Blata","coordinates":{"lat":"50.353039","long":"14.498424"}},{"country":"cz","city":"Blatce","coordinates":{"lat":"50.505066","long":"14.600405"}},{"country":"cz","city":"Blatec","coordinates":{"lat":"49.261372","long":"14.533995"}},{"country":"cz","city":"Blatec","coordinates":{"lat":"50.549247","long":"15.246291"}},{"country":"cz","city":"Blatec","coordinates":{"lat":"49.527503","long":"17.237735"}},{"country":"cz","city":"Blatecky","coordinates":{"lat":"50.495282","long":"14.589695"}},{"country":"cz","city":"Blatenka","coordinates":{"lat":"49.400597","long":"13.855073"}},{"country":"cz","city":"Blatiny","coordinates":{"lat":"49.455148","long":"14.919977"}},{"country":"cz","city":"Blatiny","coordinates":{"lat":"49.652041","long":"16.099387"}},{"country":"cz","city":"Blatky","coordinates":{"lat":"49.650136","long":"16.049728"}},{"country":"cz","city":"Blatna","coordinates":{"lat":"49.427165","long":"13.884526"}},{"country":"cz","city":"Blatnice","coordinates":{"lat":"48.947139","long":"17.464009"}},{"country":"cz","city":"Blatnice","coordinates":{"lat":"49.069561","long":"15.873639"}},{"country":"cz","city":"Blatnice","coordinates":{"lat":"49.720032","long":"13.156934"}},{"country":"cz","city":"Blatnice","coordinates":{"lat":"49.513211","long":"14.899191"}},{"country":"cz","city":"Blatnicka","coordinates":{"lat":"48.935996","long":"17.529781"}},{"country":"cz","city":"Blatnikovska Lhotka","coordinates":{"lat":"50.055578","long":"15.711837"}},{"country":"cz","city":"Blatno","coordinates":{"lat":"49.75993","long":"15.923026"}},{"country":"cz","city":"Blatno","coordinates":{"lat":"50.098229","long":"13.387226"}},{"country":"cz","city":"Blatno","coordinates":{"lat":"50.510852","long":"13.360069"}},{"country":"cz","city":"Blato","coordinates":{"lat":"48.816667","long":"14.133333"}},{"country":"cz","city":"Blato","coordinates":{"lat":"49.989249","long":"15.764132"}},{"country":"cz","city":"Blato","coordinates":{"lat":"49.890899","long":"15.030192"}},{"country":"cz","city":"Blattendorf","coordinates":{"lat":"49.586188","long":"17.871079"}},{"country":"cz","city":"Blauda","coordinates":{"lat":"49.942862","long":"16.926266"}},{"country":"cz","city":"Blauendorf","coordinates":{"lat":"49.575709","long":"18.022863"}},{"country":"cz","city":"Blauenschlag","coordinates":{"lat":"49.141911","long":"15.097647"}},{"country":"cz","city":"Blazejov","coordinates":{"lat":"49.141911","long":"15.097647"}},{"country":"cz","city":"Blazejovice","coordinates":{"lat":"48.952842","long":"13.95"}},{"country":"cz","city":"Blazejovice","coordinates":{"lat":"49.619756","long":"15.200662"}},{"country":"cz","city":"Blazenice","coordinates":{"lat":"49.789572","long":"14.468897"}},{"country":"cz","city":"Blazice","coordinates":{"lat":"49.442981","long":"17.643456"}},{"country":"cz","city":"Blazim","coordinates":{"lat":"49.916565","long":"13.047655"}},{"country":"cz","city":"Blazim","coordinates":{"lat":"49.762167","long":"14.453316"}},{"country":"cz","city":"Blazkov","coordinates":{"lat":"48.741484","long":"14.450875"}},{"country":"cz","city":"Blazkov","coordinates":{"lat":"49.47333","long":"16.185236"}},{"country":"cz","city":"Blazkov","coordinates":{"lat":"50.303078","long":"15.558752"}},{"country":"cz","city":"Blaznov","coordinates":{"lat":"49.576908","long":"15.052819"}},{"country":"cz","city":"Blazov","coordinates":{"lat":"49.683333","long":"16.883333"}},{"country":"cz","city":"Blazovice","coordinates":{"lat":"49.165483","long":"16.787016"}},{"country":"cz","city":"Blehov","coordinates":{"lat":"49.493249","long":"14.398934"}},{"country":"cz","city":"Bleistadt","coordinates":{"lat":"50.244662","long":"12.55825"}},{"country":"cz","city":"Bleiswedel","coordinates":{"lat":"50.608444","long":"14.396754"}},{"country":"cz","city":"Blesno","coordinates":{"lat":"50.214035","long":"15.930207"}},{"country":"cz","city":"Blesno","coordinates":{"lat":"50.480544","long":"13.903822"}},{"country":"cz","city":"Blevice","coordinates":{"lat":"50.209273","long":"14.237075"}},{"country":"cz","city":"Blinka","coordinates":{"lat":"50.039584","long":"15.060637"}},{"country":"cz","city":"Blisice","coordinates":{"lat":"49.122586","long":"17.164826"}},{"country":"cz","city":"Blisowa","coordinates":{"lat":"49.499592","long":"12.989451"}},{"country":"cz","city":"Blizanovy","coordinates":{"lat":"49.424927","long":"13.507546"}},{"country":"cz","city":"Blizejov","coordinates":{"lat":"49.499592","long":"12.989451"}},{"country":"cz","city":"Blizevedly","coordinates":{"lat":"50.608444","long":"14.396754"}},{"country":"cz","city":"Blizkov","coordinates":{"lat":"49.400952","long":"15.907619"}},{"country":"cz","city":"Blizkovice","coordinates":{"lat":"48.998229","long":"15.835799"}},{"country":"cz","city":"Blizna","coordinates":{"lat":"48.722609","long":"14.095654"}},{"country":"cz","city":"Bliznaky","coordinates":{"lat":"49.35","long":"17.833333"}},{"country":"cz","city":"Bliznovice","coordinates":{"lat":"49.95","long":"15.95"}},{"country":"cz","city":"Blizsi Lhota","coordinates":{"lat":"48.757024","long":"14.012015"}},{"country":"cz","city":"Blosdorf","coordinates":{"lat":"49.825947","long":"16.599881"}},{"country":"cz","city":"Blottendorf","coordinates":{"lat":"50.786509","long":"14.53772"}},{"country":"cz","city":"Blov","coordinates":{"lat":"50.325281","long":"13.295638"}},{"country":"cz","city":"Blovice","coordinates":{"lat":"49.583231","long":"13.533991"}},{"country":"cz","city":"Blowitz","coordinates":{"lat":"49.583231","long":"13.533991"}},{"country":"cz","city":"Blsany","coordinates":{"lat":"50.216493","long":"13.469709"}},{"country":"cz","city":"Blsany","coordinates":{"lat":"50.348747","long":"13.849916"}},{"country":"cz","city":"Blucina","coordinates":{"lat":"49.055618","long":"16.647764"}},{"country":"cz","city":"Bludau","coordinates":{"lat":"48.583333","long":"14.416667"}},{"country":"cz","city":"Bludna","coordinates":{"lat":"50.399839","long":"12.813772"}},{"country":"cz","city":"Bludov","coordinates":{"lat":"48.583333","long":"14.416667"}},{"country":"cz","city":"Bludov","coordinates":{"lat":"49.942862","long":"16.926266"}},{"country":"cz","city":"Bludov","coordinates":{"lat":"49.807486","long":"15.254479"}},{"country":"cz","city":"Bludovice","coordinates":{"lat":"49.575709","long":"18.022863"}},{"country":"cz","city":"Blum Bernschlag","coordinates":{"lat":"49.033333","long":"15.05"}},{"country":"cz","city":"Blumenau","coordinates":{"lat":"48.866667","long":"14.05"}},{"country":"cz","city":"Blumenau","coordinates":{"lat":"49.735238","long":"16.348503"}},{"country":"cz","city":"Blumenbach","coordinates":{"lat":"50.178669","long":"16.937091"}},{"country":"cz","city":"Blumendorf","coordinates":{"lat":"49.543179","long":"15.593052"}},{"country":"cz","city":"Bobnice","coordinates":{"lat":"50.217878","long":"15.05534"}},{"country":"cz","city":"Bobov","coordinates":{"lat":"51.65","long":"15.183333"}},{"country":"cz","city":"Bobovec","coordinates":{"lat":"48.705372","long":"14.168259"}},{"country":"cz","city":"Bobr","coordinates":{"lat":"50.670616","long":"15.900864"}},{"country":"cz","city":"Bobrovnik","coordinates":{"lat":"50.220629","long":"17.171807"}},{"country":"cz","city":"Bobrovnik","coordinates":{"lat":"48.869879","long":"17.99297"}},{"country":"cz","city":"Bobrovniky","coordinates":{"lat":"49.872259","long":"18.209172"}},{"country":"cz","city":"Bobruvka","coordinates":{"lat":"49.448434","long":"16.09435"}},{"country":"cz","city":"Bocanovice","coordinates":{"lat":"49.569344","long":"18.738132"}},{"country":"cz","city":"Boc","coordinates":{"lat":"50.36197","long":"13.082662"}},{"country":"cz","city":"Bochor","coordinates":{"lat":"49.422735","long":"17.425837"}},{"country":"cz","city":"Bochorz","coordinates":{"lat":"49.422735","long":"17.425837"}},{"country":"cz","city":"Bochov","coordinates":{"lat":"50.150569","long":"13.046016"}},{"country":"cz","city":"Bochovice","coordinates":{"lat":"49.320515","long":"15.897534"}},{"country":"cz","city":"Bockhutte","coordinates":{"lat":"49.041052","long":"13.646482"}},{"country":"cz","city":"Bodenbach","coordinates":{"lat":"50.766667","long":"14.2"}},{"country":"cz","city":"Boden","coordinates":{"lat":"49.992383","long":"12.440876"}},{"country":"cz","city":"Bodenstadt","coordinates":{"lat":"49.638579","long":"17.652736"}},{"country":"cz","city":"Bodisch","coordinates":{"lat":"50.593204","long":"16.198324"}},{"country":"cz","city":"Bogumin","coordinates":{"lat":"49.916905","long":"18.336188"}},{"country":"cz","city":"Bohanka","coordinates":{"lat":"50.365431","long":"15.707959"}},{"country":"cz","city":"Boharyne","coordinates":{"lat":"50.204076","long":"15.63109"}},{"country":"cz","city":"Bohate Malkovice","coordinates":{"lat":"49.188068","long":"17.016273"}},{"country":"cz","city":"Bohatice","coordinates":{"lat":"50.245771","long":"12.87848"}},{"country":"cz","city":"Bohatice","coordinates":{"lat":"50.669224","long":"14.681938"}},{"country":"cz","city":"Bohdalau","coordinates":{"lat":"49.480884","long":"15.875034"}},{"country":"cz","city":"Bohdal","coordinates":{"lat":"50.350721","long":"14.045992"}},{"country":"cz","city":"Bohdalec","coordinates":{"lat":"49.473572","long":"16.05967"}},{"country":"cz","city":"Bohdalice","coordinates":{"lat":"49.213806","long":"17.029781"}},{"country":"cz","city":"Bohdalin","coordinates":{"lat":"49.308137","long":"15.015932"}},{"country":"cz","city":"Bohdalov","coordinates":{"lat":"49.480884","long":"15.875034"}},{"country":"cz","city":"Bohdalov","coordinates":{"lat":"49.739638","long":"16.781429"}},{"country":"cz","city":"Bohdalovice","coordinates":{"lat":"48.742792","long":"14.286898"}},{"country":"cz","city":"Bohdalovice","coordinates":{"lat":"50.717826","long":"15.326944"}},{"country":"cz","city":"Bohdanec","coordinates":{"lat":"50.082108","long":"15.673401"}},{"country":"cz","city":"Bohdanec","coordinates":{"lat":"49.777891","long":"15.222449"}},{"country":"cz","city":"Bohdanovice","coordinates":{"lat":"49.899643","long":"17.638092"}},{"country":"cz","city":"Bohdasice","coordinates":{"lat":"49.179433","long":"13.523015"}},{"country":"cz","city":"Bohdasin","coordinates":{"lat":"50.338702","long":"16.227126"}},{"country":"cz","city":"Bohentsch","coordinates":{"lat":"50.140162","long":"13.12565"}},{"country":"cz","city":"Bohmdorf","coordinates":{"lat":"48.616667","long":"14.566667"}},{"country":"cz","city":"Bohmisch Aicha","coordinates":{"lat":"50.660313","long":"14.995326"}},{"country":"cz","city":"Bohmisch Bela","coordinates":{"lat":"49.644312","long":"15.69167"}},{"country":"cz","city":"Bohmisch","coordinates":{"lat":"50.394014","long":"16.049184"}},{"country":"cz","city":"Bohmisch Bokau","coordinates":{"lat":"50.700964","long":"14.151334"}},{"country":"cz","city":"Bohmisch Borau","coordinates":{"lat":"50.000714","long":"12.898572"}},{"country":"cz","city":"Bohmisch Brod","coordinates":{"lat":"50.07358","long":"14.858163"}},{"country":"cz","city":"Bohmisch Budweis","coordinates":{"lat":"48.983333","long":"14.466667"}},{"country":"cz","city":"Bohmisch Domaschlag","coordinates":{"lat":"49.876705","long":"12.910447"}},{"country":"cz","city":"Bohmischdorf","coordinates":{"lat":"50.760053","long":"14.761376"}},{"country":"cz","city":"Bohmischdorf","coordinates":{"lat":"50.257388","long":"17.228514"}},{"country":"cz","city":"Bohmischdorf","coordinates":{"lat":"49.716667","long":"12.45"}},{"country":"cz","city":"Bohmisch Einsiedel","coordinates":{"lat":"50.626209","long":"13.505016"}},{"country":"cz","city":"Bohmische Lichwe","coordinates":{"lat":"50.032218","long":"16.374787"}},{"country":"cz","city":"Bohmische Rybna","coordinates":{"lat":"50.071709","long":"16.40272"}},{"country":"cz","city":"Bohmisch Gilowitz","coordinates":{"lat":"48.673655","long":"14.345499"}},{"country":"cz","city":"Bohmisch Grillowitz","coordinates":{"lat":"48.833333","long":"16.283333"}},{"country":"cz","city":"Bohmisch Haidl","coordinates":{"lat":"48.789578","long":"14.043368"}},{"country":"cz","city":"Bohmisch Hammer","coordinates":{"lat":"50.438928","long":"13.014822"}},{"country":"cz","city":"Bohmisch Hermsdorf","coordinates":{"lat":"49.739463","long":"16.531939"}},{"country":"cz","city":"Bohmisch Kahn","coordinates":{"lat":"50.732248","long":"14.037198"}},{"country":"cz","city":"Bohmisch Kamnitz","coordinates":{"lat":"50.800341","long":"14.418459"}},{"country":"cz","city":"Bohmisch Kilmes","coordinates":{"lat":"50.114171","long":"12.949723"}},{"country":"cz","city":"Bohmisch Kopist","coordinates":{"lat":"50.524776","long":"14.167879"}},{"country":"cz","city":"Bohmisch Krumau","coordinates":{"lat":"48.81264","long":"14.318207"}},{"country":"cz","city":"Bohmisch Kubitzen","coordinates":{"lat":"49.368656","long":"12.858489"}},{"country":"cz","city":"Bohmisch-Leipa","coordinates":{"lat":"50.686736","long":"14.538125"}},{"country":"cz","city":"Bohmisch Liebau","coordinates":{"lat":"49.857625","long":"17.113098"}},{"country":"cz","city":"Bohmisch Lotschnau","coordinates":{"lat":"49.794226","long":"16.484954"}},{"country":"cz","city":"Bohmisch Neudorfel","coordinates":{"lat":"50.678822","long":"13.963778"}},{"country":"cz","city":"Bohmisch Petersdorf","coordinates":{"lat":"50.122556","long":"16.597769"}},{"country":"cz","city":"Bohmisch Rohren","coordinates":{"lat":"48.880448","long":"13.827256"}},{"country":"cz","city":"Bohmisch Rothmuhl","coordinates":{"lat":"49.701186","long":"16.423868"}},{"country":"cz","city":"Bohmisch Rudoletz","coordinates":{"lat":"49.068443","long":"15.324306"}},{"country":"cz","city":"Bohmisch Rust","coordinates":{"lat":"50.279726","long":"13.226984"}},{"country":"cz","city":"Bohmisch-Trubau","coordinates":{"lat":"49.901115","long":"16.445046"}},{"country":"cz","city":"Bohmisch Wiesen","coordinates":{"lat":"49.66047","long":"16.500476"}},{"country":"cz","city":"Bohmisch Wiesenthal","coordinates":{"lat":"50.412857","long":"12.978925"}},{"country":"cz","city":"Bohmisch Zlatnik","coordinates":{"lat":"50.511607","long":"13.698114"}},{"country":"cz","city":"Bohnau","coordinates":{"lat":"49.668452","long":"16.464288"}},{"country":"cz","city":"Bohnice","coordinates":{"lat":"50.133333","long":"14.416667"}},{"country":"cz","city":"Bohnitz","coordinates":{"lat":"50.133333","long":"14.416667"}},{"country":"cz","city":"Boholib","coordinates":{"lat":"49.880636","long":"14.458708"}},{"country":"cz","city":"Bohosoudov","coordinates":{"lat":"49.106671","long":"15.574691"}},{"country":"cz","city":"Bohostice","coordinates":{"lat":"49.601895","long":"14.139578"}},{"country":"cz","city":"Bohosudov","coordinates":{"lat":"50.684185","long":"13.876685"}},{"country":"cz","city":"Bohounovice Druha","coordinates":{"lat":"49.914755","long":"14.972624"}},{"country":"cz","city":"Bohounovice I","coordinates":{"lat":"49.974463","long":"15.182818"}},{"country":"cz","city":"Bohounovice II","coordinates":{"lat":"49.914755","long":"14.972624"}},{"country":"cz","city":"Bohounovice Predni","coordinates":{"lat":"49.974463","long":"15.182818"}},{"country":"cz","city":"Bohouskovice","coordinates":{"lat":"48.923674","long":"14.314922"}},{"country":"cz","city":"Bohousova","coordinates":{"lat":"50.087483","long":"16.38458"}},{"country":"cz","city":"Bohucovice","coordinates":{"lat":"49.867262","long":"17.901904"}},{"country":"cz","city":"Bohuliby","coordinates":{"lat":"49.880636","long":"14.458708"}},{"country":"cz","city":"Bohumilec","coordinates":{"lat":"50.638239","long":"14.982638"}},{"country":"cz","city":"Bohumilec","coordinates":{"lat":"50.100823","long":"15.858358"}},{"country":"cz","city":"Bohumilice","coordinates":{"lat":"48.83796","long":"16.081696"}},{"country":"cz","city":"Bohumilice","coordinates":{"lat":"49.095723","long":"13.816568"}},{"country":"cz","city":"Bohumilice","coordinates":{"lat":"49.69361","long":"15.252456"}},{"country":"cz","city":"Bohumin","coordinates":{"lat":"49.901831","long":"18.360679"}},{"country":"cz","city":"Bohunice","coordinates":{"lat":"48.9","long":"16.183333"}},{"country":"cz","city":"Bohunice","coordinates":{"lat":"49.132148","long":"13.973062"}},{"country":"cz","city":"Bohunov","coordinates":{"lat":"49.562503","long":"16.215585"}},{"country":"cz","city":"Bohunov","coordinates":{"lat":"49.598453","long":"16.463693"}},{"country":"cz","city":"Bohunovice","coordinates":{"lat":"49.66286","long":"17.289043"}},{"country":"cz","city":"Bohunovice","coordinates":{"lat":"49.909119","long":"16.261394"}},{"country":"cz","city":"Bohunovsko","coordinates":{"lat":"50.646523","long":"15.315508"}},{"country":"cz","city":"Bohusice","coordinates":{"lat":"49.08478","long":"15.852499"}},{"country":"cz","city":"Bohuslav","coordinates":{"lat":"50.033333","long":"12.806424"}},{"country":"cz","city":"Bohuslav","coordinates":{"lat":"50.522462","long":"15.204346"}},{"country":"cz","city":"Bohuslav","coordinates":{"lat":"49.7","long":"12.633333"}},{"country":"cz","city":"Bohuslavice","coordinates":{"lat":"49.051578","long":"17.121232"}},{"country":"cz","city":"Bohuslavice","coordinates":{"lat":"49.149342","long":"15.575612"}},{"country":"cz","city":"Bohuslavice","coordinates":{"lat":"50.314594","long":"16.088857"}},{"country":"cz","city":"Bohuslavice","coordinates":{"lat":"49.621188","long":"16.956673"}},{"country":"cz","city":"Bohuslavice","coordinates":{"lat":"49.942743","long":"18.134047"}},{"country":"cz","city":"Bohuslavice","coordinates":{"lat":"49.089995","long":"17.929883"}},{"country":"cz","city":"Bohuslavice nad Upou","coordinates":{"lat":"50.550811","long":"15.976205"}},{"country":"cz","city":"Bohuslavky","coordinates":{"lat":"49.555354","long":"17.567747"}},{"country":"cz","city":"Bohuslawitz","coordinates":{"lat":"50.314594","long":"16.088857"}},{"country":"cz","city":"Bohuslawitz","coordinates":{"lat":"49.165813","long":"17.638462"}},{"country":"cz","city":"Bohuslow","coordinates":{"lat":"49.051578","long":"17.121232"}},{"country":"cz","city":"Bohusoudov","coordinates":{"lat":"49.106671","long":"15.574691"}},{"country":"cz","city":"Bohusov","coordinates":{"lat":"50.244289","long":"17.714383"}},{"country":"cz","city":"Bohusovice nad Ohri","coordinates":{"lat":"50.494477","long":"14.149776"}},{"country":"cz","city":"Bohutice","coordinates":{"lat":"48.983333","long":"16.35"}},{"country":"cz","city":"Bohutin","coordinates":{"lat":"49.375419","long":"15.020197"}},{"country":"cz","city":"Bohutin","coordinates":{"lat":"49.953212","long":"16.878336"}},{"country":"cz","city":"Bohutin","coordinates":{"lat":"49.65604","long":"13.942065"}},{"country":"cz","city":"Bohy","coordinates":{"lat":"49.937979","long":"13.575303"}},{"country":"cz","city":"Boidensdorf","coordinates":{"lat":"49.899643","long":"17.638092"}},{"country":"cz","city":"Bojanov","coordinates":{"lat":"49.394884","long":"16.160005"}},{"country":"cz","city":"Bojanov","coordinates":{"lat":"49.841728","long":"15.70531"}},{"country":"cz","city":"Bojanovice","coordinates":{"lat":"48.967588","long":"15.989515"}},{"country":"cz","city":"Bojanovice","coordinates":{"lat":"49.310354","long":"17.312623"}},{"country":"cz","city":"Bojanovice","coordinates":{"lat":"49.293082","long":"13.638521"}},{"country":"cz","city":"Bojanovice","coordinates":{"lat":"49.854738","long":"14.352487"}},{"country":"cz","city":"Bojanow","coordinates":{"lat":"49.841728","long":"15.70531"}},{"country":"cz","city":"Bojanowitz","coordinates":{"lat":"49.854738","long":"14.352487"}},{"country":"cz","city":"Bojau","coordinates":{"lat":"49.867615","long":"14.340643"}},{"country":"cz","city":"Bojecnice","coordinates":{"lat":"49.68578","long":"12.8132"}},{"country":"cz","city":"Bojenice","coordinates":{"lat":"49.36143","long":"14.358996"}},{"country":"cz","city":"Bojesice","coordinates":{"lat":"49.539254","long":"14.04171"}},{"country":"cz","city":"Bojetice","coordinates":{"lat":"50.376973","long":"14.966944"}},{"country":"cz","city":"Bojiste","coordinates":{"lat":"49.668028","long":"15.286462"}},{"country":"cz","city":"Bojiste","coordinates":{"lat":"50.547276","long":"15.901426"}},{"country":"cz","city":"Bojiste","coordinates":{"lat":"49.971447","long":"15.201691"}},{"country":"cz","city":"Bojkovice","coordinates":{"lat":"49.037279","long":"17.816865"}},{"country":"cz","city":"Bojkowitz","coordinates":{"lat":"49.037279","long":"17.816865"}},{"country":"cz","city":"Bojmany","coordinates":{"lat":"49.95932","long":"15.437414"}},{"country":"cz","city":"Bojov","coordinates":{"lat":"49.867615","long":"14.340643"}},{"country":"cz","city":"Boksgruen","coordinates":{"lat":"50.37584","long":"13.054138"}},{"country":"cz","city":"Boksgrun","coordinates":{"lat":"50.37584","long":"13.054138"}},{"country":"cz","city":"Bokwen","coordinates":{"lat":"50.715584","long":"14.577986"}},{"country":"cz","city":"Bolatice","coordinates":{"lat":"49.953699","long":"18.082143"}},{"country":"cz","city":"Bolatitz","coordinates":{"lat":"49.953699","long":"18.082143"}},{"country":"cz","city":"Bolebor","coordinates":{"lat":"50.538589","long":"13.415102"}},{"country":"cz","city":"Bolechov","coordinates":{"lat":"49.538701","long":"15.206839"}},{"country":"cz","city":"Bolechovice","coordinates":{"lat":"49.61174","long":"14.500662"}},{"country":"cz","city":"Bolechy","coordinates":{"lat":"48.663469","long":"14.2733"}},{"country":"cz","city":"Bolehoscht","coordinates":{"lat":"50.213946","long":"16.077346"}},{"country":"cz","city":"Bolehost'","coordinates":{"lat":"50.213946","long":"16.077346"}},{"country":"cz","city":"Bolehost'ska Lhota","coordinates":{"lat":"50.205888","long":"16.084949"}},{"country":"cz","city":"Bolelouc","coordinates":{"lat":"49.496966","long":"17.26863"}},{"country":"cz","city":"Boleradice","coordinates":{"lat":"48.967588","long":"16.813247"}},{"country":"cz","city":"Boleschin","coordinates":{"lat":"49.410468","long":"13.360478"}},{"country":"cz","city":"Bolesin","coordinates":{"lat":"49.542148","long":"16.360243"}},{"country":"cz","city":"Bolesiny","coordinates":{"lat":"49.410468","long":"13.360478"}},{"country":"cz","city":"Boleslav","coordinates":{"lat":"51.005967","long":"15.030088"}},{"country":"cz","city":"Boletice","coordinates":{"lat":"48.821879","long":"14.213706"}},{"country":"cz","city":"Boletice nad Labem","coordinates":{"lat":"50.744527","long":"14.195107"}},{"country":"cz","city":"Bolevec","coordinates":{"lat":"49.773193","long":"13.370542"}},{"country":"cz","city":"Bolewetz","coordinates":{"lat":"49.773193","long":"13.370542"}},{"country":"cz","city":"Bolikov","coordinates":{"lat":"49.036596","long":"15.369154"}},{"country":"cz","city":"Bolikov","coordinates":{"lat":"49.191121","long":"15.314398"}},{"country":"cz","city":"Bolikovice","coordinates":{"lat":"49.089525","long":"13.899945"}},{"country":"cz","city":"Bolikovice","coordinates":{"lat":"49.135306","long":"15.769134"}},{"country":"cz","city":"Bolina","coordinates":{"lat":"49.681421","long":"14.955148"}},{"country":"cz","city":"Bolinka","coordinates":{"lat":"49.686789","long":"14.937378"}},{"country":"cz","city":"Bolkov","coordinates":{"lat":"50.616667","long":"15.733333"}},{"country":"cz","city":"Bolkov","coordinates":{"lat":"49.533231","long":"13.224417"}},{"country":"cz","city":"Bolten","coordinates":{"lat":"49.593683","long":"17.805603"}},{"country":"cz","city":"Boly","coordinates":{"lat":"48.747631","long":"14.449408"}},{"country":"cz","city":"Bomisch-Haidl","coordinates":{"lat":"49.178591","long":"13.343122"}},{"country":"cz","city":"Bonaventura","coordinates":{"lat":"48.65","long":"14.716667"}},{"country":"cz","city":"Bonenov","coordinates":{"lat":"49.911263","long":"12.802651"}},{"country":"cz","city":"Bonetice","coordinates":{"lat":"49.666055","long":"12.826864"}},{"country":"cz","city":"Boneticky","coordinates":{"lat":"49.666565","long":"12.841184"}},{"country":"cz","city":"Bonitz","coordinates":{"lat":"48.9","long":"16.183333"}},{"country":"cz","city":"Bonkov","coordinates":{"lat":"49.547007","long":"15.447959"}},{"country":"cz","city":"Bonkov","coordinates":{"lat":"49.606781","long":"17.683214"}},{"country":"cz","city":"Bonkovice","coordinates":{"lat":"49.527964","long":"14.597132"}},{"country":"cz","city":"Bonnesdorf","coordinates":{"lat":"48.714891","long":"14.426616"}},{"country":"cz","city":"Bonov","coordinates":{"lat":"49.116968","long":"15.920482"}},{"country":"cz","city":"Bonrepos","coordinates":{"lat":"50.241968","long":"14.792998"}},{"country":"cz","city":"Borac","coordinates":{"lat":"49.4","long":"16.35"}},{"country":"cz","city":"Boranovice","coordinates":{"lat":"50.178224","long":"14.477839"}},{"country":"cz","city":"Borau","coordinates":{"lat":"49.637696","long":"15.779229"}},{"country":"cz","city":"Bor","coordinates":{"lat":"48.812877","long":"14.450355"}},{"country":"cz","city":"Bor","coordinates":{"lat":"49.380244","long":"15.127082"}},{"country":"cz","city":"Bor","coordinates":{"lat":"50.18043","long":"12.455856"}},{"country":"cz","city":"Bor","coordinates":{"lat":"49.713098","long":"12.776297"}},{"country":"cz","city":"Bor","coordinates":{"lat":"49.55589","long":"13.987359"}},{"country":"cz","city":"Borcice","coordinates":{"lat":"49.109206","long":"14.037833"}},{"country":"cz","city":"Bordovice","coordinates":{"lat":"49.549762","long":"18.15941"}},{"country":"cz","city":"Borec","coordinates":{"lat":"50.407138","long":"14.732548"}},{"country":"cz","city":"Borecek","coordinates":{"lat":"50.639874","long":"14.717077"}},{"country":"cz","city":"Borecek","coordinates":{"lat":"49.7","long":"12.766667"}},{"country":"cz","city":"Borecnice","coordinates":{"lat":"49.360864","long":"14.138781"}},{"country":"cz","city":"Borejov","coordinates":{"lat":"50.509929","long":"14.618795"}},{"country":"cz","city":"Borek","coordinates":{"lat":"49.023683","long":"14.500893"}},{"country":"cz","city":"Borek","coordinates":{"lat":"49.791245","long":"15.588987"}},{"country":"cz","city":"Borek","coordinates":{"lat":"50.055506","long":"13.142556"}},{"country":"cz","city":"Borek","coordinates":{"lat":"50.126834","long":"15.857042"}},{"country":"cz","city":"Borek","coordinates":{"lat":"50.617953","long":"14.531139"}},{"country":"cz","city":"Borek","coordinates":{"lat":"49.806939","long":"16.158232"}},{"country":"cz","city":"Borek","coordinates":{"lat":"49.636188","long":"12.777929"}},{"country":"cz","city":"Borek","coordinates":{"lat":"49.712285","long":"13.946684"}},{"country":"cz","city":"Borek","coordinates":{"lat":"50.719633","long":"14.173992"}},{"country":"cz","city":"Borena Hora","coordinates":{"lat":"49.661814","long":"14.505589"}},{"country":"cz","city":"Borenovice","coordinates":{"lat":"49.764902","long":"14.792646"}},{"country":"cz","city":"Borenovice","coordinates":{"lat":"49.362146","long":"17.564645"}},{"country":"cz","city":"Boretice","coordinates":{"lat":"48.911932","long":"16.855261"}},{"country":"cz","city":"Boretice","coordinates":{"lat":"49.496544","long":"15.109754"}},{"country":"cz","city":"Boretice","coordinates":{"lat":"49.611372","long":"14.70946"}},{"country":"cz","city":"Boretin","coordinates":{"lat":"49.189069","long":"15.211546"}},{"country":"cz","city":"Boretin","coordinates":{"lat":"49.31049","long":"14.949118"}},{"country":"cz","city":"Boretin","coordinates":{"lat":"50.66939","long":"14.473323"}},{"country":"cz","city":"Borice","coordinates":{"lat":"49.401776","long":"14.017378"}},{"country":"cz","city":"Borice","coordinates":{"lat":"49.977547","long":"15.924187"}},{"country":"cz","city":"Borice","coordinates":{"lat":"49.428744","long":"12.971403"}},{"country":"cz","city":"Borikovice","coordinates":{"lat":"50.07673","long":"16.710689"}},{"country":"cz","city":"Borikovsky Dvur","coordinates":{"lat":"49.068838","long":"16.066766"}},{"country":"cz","city":"Borikovy","coordinates":{"lat":"49.326779","long":"13.387338"}},{"country":"cz","city":"Borislav","coordinates":{"lat":"50.581375","long":"13.932463"}},{"country":"cz","city":"Boritov","coordinates":{"lat":"49.416667","long":"16.6"}},{"country":"cz","city":"Boritov","coordinates":{"lat":"50.06176","long":"16.587437"}},{"country":"cz","city":"Borkovany","coordinates":{"lat":"49.030176","long":"16.809564"}},{"country":"cz","city":"Borkov","coordinates":{"lat":"50.587135","long":"15.347945"}},{"country":"cz","city":"Borkovice","coordinates":{"lat":"49.207281","long":"14.643326"}},{"country":"cz","city":"Borkovice","coordinates":{"lat":"49.613946","long":"14.798603"}},{"country":"cz","city":"Borkowan","coordinates":{"lat":"49.030176","long":"16.809564"}},{"country":"cz","city":"Borky","coordinates":{"lat":"49.40232","long":"16.231658"}},{"country":"cz","city":"Borohradek","coordinates":{"lat":"50.096142","long":"16.092833"}},{"country":"cz","city":"Borosin","coordinates":{"lat":"49.693694","long":"18.237746"}},{"country":"cz","city":"Borotice","coordinates":{"lat":"48.85","long":"16.233333"}},{"country":"cz","city":"Borotice","coordinates":{"lat":"49.735272","long":"14.28015"}},{"country":"cz","city":"Borotin","coordinates":{"lat":"49.5825","long":"16.671426"}},{"country":"cz","city":"Borotin","coordinates":{"lat":"49.505516","long":"14.61424"}},{"country":"cz","city":"Borova","coordinates":{"lat":"49.577979","long":"16.559172"}},{"country":"cz","city":"Borova","coordinates":{"lat":"48.877766","long":"14.21643"}},{"country":"cz","city":"Borova","coordinates":{"lat":"49.078071","long":"15.592634"}},{"country":"cz","city":"Borova","coordinates":{"lat":"50.386372","long":"16.253669"}},{"country":"cz","city":"Borova","coordinates":{"lat":"49.958577","long":"18.105127"}},{"country":"cz","city":"Borova","coordinates":{"lat":"49.736821","long":"16.165834"}},{"country":"cz","city":"Borova","coordinates":{"lat":"49.798529","long":"15.182671"}},{"country":"cz","city":"Borova Krcma","coordinates":{"lat":"49.734943","long":"16.376645"}},{"country":"cz","city":"Borova Lada","coordinates":{"lat":"48.983333","long":"13.666667"}},{"country":"cz","city":"Borovany","coordinates":{"lat":"48.899809","long":"14.642921"}},{"country":"cz","city":"Borovany","coordinates":{"lat":"49.69378","long":"12.851937"}},{"country":"cz","city":"Boroveach","coordinates":{"lat":"50.563191","long":"14.93032"}},{"country":"cz","city":"Borovec","coordinates":{"lat":"49.51167","long":"16.33833"}},{"country":"cz","city":"Borovec","coordinates":{"lat":"49.633333","long":"18.1"}},{"country":"cz","city":"Borovice","coordinates":{"lat":"50.244554","long":"15.981523"}},{"country":"cz","city":"Borovice","coordinates":{"lat":"49.567279","long":"12.942714"}},{"country":"cz","city":"Borovice","coordinates":{"lat":"50.563191","long":"14.93032"}},{"country":"cz","city":"Borovka","coordinates":{"lat":"49.774053","long":"14.527979"}},{"country":"cz","city":"Borovna","coordinates":{"lat":"49.164694","long":"15.395166"}},{"country":"cz","city":"Borovnice","coordinates":{"lat":"48.912394","long":"14.520239"}},{"country":"cz","city":"Borovnice","coordinates":{"lat":"50.063217","long":"16.243622"}},{"country":"cz","city":"Borovnice","coordinates":{"lat":"50.509307","long":"15.614175"}},{"country":"cz","city":"Borovnice","coordinates":{"lat":"49.667857","long":"16.202023"}},{"country":"cz","city":"Borovnice","coordinates":{"lat":"49.649191","long":"15.020712"}},{"country":"cz","city":"Borovnicka","coordinates":{"lat":"50.501426","long":"15.665173"}},{"country":"cz","city":"Borovnik","coordinates":{"lat":"49.356425","long":"16.229407"}},{"country":"cz","city":"Borovno","coordinates":{"lat":"49.621868","long":"13.690674"}},{"country":"cz","city":"Borovsko","coordinates":{"lat":"49.696911","long":"15.114535"}},{"country":"cz","city":"Borovy","coordinates":{"lat":"49.525277","long":"13.301326"}},{"country":"cz","city":"Borowa","coordinates":{"lat":"49.736821","long":"16.165834"}},{"country":"cz","city":"Borowitz","coordinates":{"lat":"50.509307","long":"15.614175"}},{"country":"cz","city":"Borowitz","coordinates":{"lat":"50.563191","long":"14.93032"}},{"country":"cz","city":"Borowka","coordinates":{"lat":"49.774053","long":"14.527979"}},{"country":"cz","city":"Borschenowitz","coordinates":{"lat":"49.764902","long":"14.792646"}},{"country":"cz","city":"Borschitz","coordinates":{"lat":"49.061597","long":"17.350058"}},{"country":"cz","city":"Borsice","coordinates":{"lat":"48.932741","long":"17.573665"}},{"country":"cz","city":"Borsice","coordinates":{"lat":"49.061597","long":"17.350058"}},{"country":"cz","city":"Borsikov","coordinates":{"lat":"48.566667","long":"14.333333"}},{"country":"cz","city":"Borsov","coordinates":{"lat":"49.024783","long":"17.123112"}},{"country":"cz","city":"Borsov","coordinates":{"lat":"48.666667","long":"14.266667"}},{"country":"cz","city":"Borsov","coordinates":{"lat":"49.404354","long":"15.433469"}},{"country":"cz","city":"Borsov","coordinates":{"lat":"49.744884","long":"16.623458"}},{"country":"cz","city":"Borstendorf","coordinates":{"lat":"49.416667","long":"16.6"}},