[{"country":"tz","city":"Abdulla","coordinates":{"lat":"-10.4666667","long":"37.8833333"}},{"country":"tz","city":"Adawani","coordinates":{"lat":"-10.9666667","long":"38.3833333"}},{"country":"tz","city":"Ahakachwamba","coordinates":{"lat":"-1.8163889","long":"30.9519444"}},{"country":"tz","city":"Ahakishake","coordinates":{"lat":"-1.6994444","long":"30.9822222"}},{"country":"tz","city":"Aimabu","coordinates":{"lat":"-5.0333333","long":"36.05"}},{"country":"tz","city":"Aimba","coordinates":{"lat":"-5.0333333","long":"36.05"}},{"country":"tz","city":"Akumawale","coordinates":{"lat":"-10.9166667","long":"39.1666667"}},{"country":"tz","city":"Akwungwasi","coordinates":{"lat":"-10.7666667","long":"38.7333333"}},{"country":"tz","city":"Ali Makuro","coordinates":{"lat":"-9.5833333","long":"37.4333333"}},{"country":"tz","city":"Alyhanya","coordinates":{"lat":"-8.6833333","long":"36.3"}},{"country":"tz","city":"Amani","coordinates":{"lat":"-5.1","long":"38.6333333"}},{"country":"tz","city":"Amani","coordinates":{"lat":"-5.3666667","long":"39.7166667"}},{"country":"tz","city":"Ambangulu","coordinates":{"lat":"-5.0833333","long":"38.4333333"}},{"country":"tz","city":"Amboni","coordinates":{"lat":"-5.05","long":"39.05"}},{"country":"tz","city":"Amushenye","coordinates":{"lat":"-1.2888889","long":"31.665"}},{"country":"tz","city":"Araa","coordinates":{"lat":"-5.0","long":"35.9333333"}},{"country":"tz","city":"Arabe","coordinates":{"lat":"-5.3833333","long":"38.8666667"}},{"country":"tz","city":"Arash","coordinates":{"lat":"-2.4","long":"35.5"}},{"country":"tz","city":"Arogongo","coordinates":{"lat":"-2.4666667","long":"32.6333333"}},{"country":"tz","city":"Aruscha","coordinates":{"lat":"-3.3666667","long":"36.6833333"}},{"country":"tz","city":"Arusha","coordinates":{"lat":"-3.3666667","long":"36.6833333"}},{"country":"tz","city":"Arusha Chini","coordinates":{"lat":"-3.5833333","long":"37.3333333"}},{"country":"tz","city":"Asumani","coordinates":{"lat":"-7.5","long":"35.8"}},{"country":"tz","city":"Aukanga","coordinates":{"lat":"-7.4333333","long":"39.1166667"}},{"country":"tz","city":"Auriole","coordinates":{"lat":"-3.1666667","long":"32.2666667"}},{"country":"tz","city":"Ausia","coordinates":{"lat":"-4.9666667","long":"35.8"}},{"country":"tz","city":"Azala","coordinates":{"lat":"-6.1166667","long":"39.2833333"}},{"country":"tz","city":"Babaiyo","coordinates":{"lat":"-5.6333333","long":"35.7"}},{"country":"tz","city":"Babala","coordinates":{"lat":"-6.3","long":"35.5833333"}},{"country":"tz","city":"Babati","coordinates":{"lat":"-4.2166667","long":"35.75"}},{"country":"tz","city":"Babayo","coordinates":{"lat":"-5.6333333","long":"35.7"}},{"country":"tz","city":"Babayu","coordinates":{"lat":"-5.6333333","long":"35.7"}},{"country":"tz","city":"Badi","coordinates":{"lat":"-3.6","long":"33.9833333"}},{"country":"tz","city":"Badugu","coordinates":{"lat":"-2.4666667","long":"33.65"}},{"country":"tz","city":"Baga","coordinates":{"lat":"-4.7833333","long":"38.4166667"}},{"country":"tz","city":"Bagai","coordinates":{"lat":"-4.55","long":"38.35"}},{"country":"tz","city":"Bagamojo","coordinates":{"lat":"-6.4333333","long":"38.9"}},{"country":"tz","city":"Bagamoyo","coordinates":{"lat":"-6.6","long":"34.1"}},{"country":"tz","city":"Bagamoyo","coordinates":{"lat":"-5.1","long":"39.75"}},{"country":"tz","city":"Bagamoyo","coordinates":{"lat":"-4.8","long":"33.4166667"}},{"country":"tz","city":"Bagamoyo","coordinates":{"lat":"-4.55","long":"37.8666667"}},{"country":"tz","city":"Bagamoyo","coordinates":{"lat":"-5.3666667","long":"39.7"}},{"country":"tz","city":"Bagamoyo","coordinates":{"lat":"-6.4333333","long":"38.9"}},{"country":"tz","city":"Bageza","coordinates":{"lat":"-5.4166667","long":"39.75"}},{"country":"tz","city":"Bahareni","coordinates":{"lat":"-5.0333333","long":"39.7666667"}},{"country":"tz","city":"Bahi","coordinates":{"lat":"-5.9833333","long":"35.3166667"}},{"country":"tz","city":"Balangai","coordinates":{"lat":"-4.9333333","long":"38.45"}},{"country":"tz","city":"Balayo","coordinates":{"lat":"-6.3","long":"39.2833333"}},{"country":"tz","city":"Baleni","coordinates":{"lat":"-7.85","long":"39.8"}},{"country":"tz","city":"Baloti","coordinates":{"lat":"-3.25","long":"37.1166667"}},{"country":"tz","city":"Bamba","coordinates":{"lat":"-4.9","long":"39.05"}},{"country":"tz","city":"Bambi","coordinates":{"lat":"-6.0666667","long":"39.35"}},{"country":"tz","city":"Banagi","coordinates":{"lat":"-2.2666667","long":"34.85"}},{"country":"tz","city":"Banani","coordinates":{"lat":"-5.25","long":"39.7333333"}},{"country":"tz","city":"Banda","coordinates":{"lat":"-7.05","long":"38.8"}},{"country":"tz","city":"Banda Baya","coordinates":{"lat":"-6.3666667","long":"39.4666667"}},{"country":"tz","city":"Banda Kuu","coordinates":{"lat":"-5.7333333","long":"39.3"}},{"country":"tz","city":"Banda Maji","coordinates":{"lat":"-5.95","long":"39.3"}},{"country":"tz","city":"Bandani","coordinates":{"lat":"-5.0166667","long":"39.8"}},{"country":"tz","city":"Bandani","coordinates":{"lat":"-5.4166667","long":"39.6833333"}},{"country":"tz","city":"Bandarini","coordinates":{"lat":"-6.8666667","long":"39.4666667"}},{"country":"tz","city":"Bandumadyi","coordinates":{"lat":"-5.9666667","long":"39.2833333"}},{"country":"tz","city":"Banemula","coordinates":{"lat":"-9.9","long":"34.4333333"}},{"country":"tz","city":"Bangala","coordinates":{"lat":"-8.35","long":"32.85"}},{"country":"tz","city":"Bangayega","coordinates":{"lat":"-5.7166667","long":"34.55"}},{"country":"tz","city":"Bangwe","coordinates":{"lat":"-4.9","long":"29.6"}},{"country":"tz","city":"Bangwe","coordinates":{"lat":"-2.3666667","long":"32.1666667"}},{"country":"tz","city":"Banya","coordinates":{"lat":"-3.45","long":"34.1"}},{"country":"tz","city":"Baoni","coordinates":{"lat":"-5.1166667","long":"39.7333333"}},{"country":"tz","city":"Barabara","coordinates":{"lat":"-8.2166667","long":"32.9166667"}},{"country":"tz","city":"Barabarani","coordinates":{"lat":"-11.2333333","long":"35.4666667"}},{"country":"tz","city":"Barangata","coordinates":{"lat":"-3.1833333","long":"37.25"}},{"country":"tz","city":"Barawa","coordinates":{"lat":"-5.1666667","long":"39.7666667"}},{"country":"tz","city":"Bariadi","coordinates":{"lat":"-2.8","long":"33.9833333"}},{"country":"tz","city":"Bariati","coordinates":{"lat":"-2.8","long":"33.9833333"}},{"country":"tz","city":"Barikiwa","coordinates":{"lat":"-9.5","long":"37.9"}},{"country":"tz","city":"Bariri","coordinates":{"lat":"-2.0833333","long":"33.8833333"}},{"country":"tz","city":"Barue","coordinates":{"lat":"-5.6166667","long":"37.9833333"}},{"country":"tz","city":"Basara","coordinates":{"lat":"-5.0333333","long":"39.75"}},{"country":"tz","city":"Bashanet","coordinates":{"lat":"-4.2333333","long":"35.4166667"}},{"country":"tz","city":"Bashay","coordinates":{"lat":"-4.0","long":"35.35"}},{"country":"tz","city":"Bashebi","coordinates":{"lat":"-1.7166667","long":"30.9166667"}},{"country":"tz","city":"Basodesh","coordinates":{"lat":"-4.3","long":"35.1333333"}},{"country":"tz","city":"Basotu","coordinates":{"lat":"-4.3666667","long":"35.0833333"}},{"country":"tz","city":"Basra","coordinates":{"lat":"-6.1","long":"39.2833333"}},{"country":"tz","city":"Bawa","coordinates":{"lat":"-4.8666667","long":"39.1166667"}},{"country":"tz","city":"Beda","coordinates":{"lat":"-2.6","long":"33.0"}},{"country":"tz","city":"Beda","coordinates":{"lat":"-3.55","long":"33.3"}},{"country":"tz","city":"Beku","coordinates":{"lat":"-7.3333333","long":"36.3"}},{"country":"tz","city":"Belengwa","coordinates":{"lat":"-4.9333333","long":"39.7333333"}},{"country":"tz","city":"Bendela","coordinates":{"lat":"-4.6","long":"38.0666667"}},{"country":"tz","city":"Berabera","coordinates":{"lat":"-4.5333333","long":"35.6666667"}},{"country":"tz","city":"Berege","coordinates":{"lat":"-6.5","long":"36.2833333"}},{"country":"tz","city":"Bereko","coordinates":{"lat":"-4.45","long":"35.7333333"}},{"country":"tz","city":"Bereku","coordinates":{"lat":"-4.45","long":"35.7333333"}},{"country":"tz","city":"Berikiwa","coordinates":{"lat":"-9.5","long":"37.9"}},{"country":"tz","city":"Bet-el-Mali","coordinates":{"lat":"-6.0666667","long":"39.2166667"}},{"country":"tz","city":"Bevohoye","coordinates":{"lat":"-5.4","long":"39.7166667"}},{"country":"tz","city":"Biaramulo","coordinates":{"lat":"-2.6319444","long":"31.3088889"}},{"country":"tz","city":"Bibainja","coordinates":{"lat":"-1.4166667","long":"31.7666667"}},{"country":"tz","city":"Bibainji","coordinates":{"lat":"-1.4166667","long":"31.7666667"}},{"country":"tz","city":"Bibi Kundenda","coordinates":{"lat":"-11.2666667","long":"37.0166667"}},{"country":"tz","city":"Bicha","coordinates":{"lat":"-4.9333333","long":"35.8"}},{"country":"tz","city":"Bigamiro","coordinates":{"lat":"-4.7833333","long":"29.65"}},{"country":"tz","city":"Bigenyi","coordinates":{"lat":"-1.4772222","long":"30.8586111"}},{"country":"tz","city":"Bigwa","coordinates":{"lat":"-7.2166667","long":"39.15"}},{"country":"tz","city":"Biharamulo","coordinates":{"lat":"-2.6319444","long":"31.3088889"}},{"country":"tz","city":"Bihata","coordinates":{"lat":"-2.2333333","long":"31.4666667"}},{"country":"tz","city":"Bihonzi","coordinates":{"lat":"-2.6394444","long":"30.6497222"}},{"country":"tz","city":"Biirabo","coordinates":{"lat":"-1.8497222","long":"31.5488889"}},{"country":"tz","city":"Bikoni","coordinates":{"lat":"-2.635","long":"31.0413889"}},{"country":"tz","city":"Bi Moja","coordinates":{"lat":"-6.1","long":"39.35"}},{"country":"tz","city":"Binga","coordinates":{"lat":"-7.25","long":"39.2333333"}},{"country":"tz","city":"Binguni","coordinates":{"lat":"-6.1833333","long":"39.3333333"}},{"country":"tz","city":"Birikani","coordinates":{"lat":"-6.1833333","long":"39.2833333"}},{"country":"tz","city":"Birikani","coordinates":{"lat":"-6.0666667","long":"39.2166667"}},{"country":"tz","city":"Birikao","coordinates":{"lat":"-4.9666667","long":"39.75"}},{"country":"tz","city":"Birikau","coordinates":{"lat":"-5.2166667","long":"39.75"}},{"country":"tz","city":"Birise","coordinates":{"lat":"-5.4166667","long":"35.1833333"}},{"country":"tz","city":"Biro","coordinates":{"lat":"-8.8833333","long":"36.05"}},{"country":"tz","city":"Bisarive","coordinates":{"lat":"-1.85","long":"34.0"}},{"country":"tz","city":"Bisariye","coordinates":{"lat":"-1.85","long":"34.0"}},{"country":"tz","city":"Bisheshe","coordinates":{"lat":"-1.6797222","long":"31.1161111"}},{"country":"tz","city":"Bismarckburg","coordinates":{"lat":"-8.4666667","long":"31.15"}},{"country":"tz","city":"Bitale","coordinates":{"lat":"-4.7502778","long":"29.6602778"}},{"country":"tz","city":"Bituruguru","coordinates":{"lat":"-1.95","long":"33.85"}},{"country":"tz","city":"Biyungu","coordinates":{"lat":"-1.6522222","long":"30.9733333"}},{"country":"tz","city":"Blue Ridge","coordinates":{"lat":"-1.8666667","long":"34.0333333"}},{"country":"tz","city":"Bogamoya","coordinates":{"lat":"-4.9166667","long":"39.75"}},{"country":"tz","city":"Bogoa","coordinates":{"lat":"-5.3833333","long":"39.6833333"}},{"country":"tz","city":"Bogogo","coordinates":{"lat":"-3.6166667","long":"33.9333333"}},{"country":"tz","city":"Bogoni","coordinates":{"lat":"-4.95","long":"39.7666667"}},{"country":"tz","city":"Bolisa","coordinates":{"lat":"-4.8166667","long":"35.8166667"}},{"country":"tz","city":"Bolombola","coordinates":{"lat":"-5.0405556","long":"29.7744444"}},{"country":"tz","city":"Boma","coordinates":{"lat":"-5.25","long":"39.7666667"}},{"country":"tz","city":"Bomalandani","coordinates":{"lat":"-4.8666667","long":"39.2"}},{"country":"tz","city":"Bomalangombe","coordinates":{"lat":"-8.2166667","long":"35.8666667"}},{"country":"tz","city":"Boma la Ngombe","coordinates":{"lat":"-3.3333333","long":"37.15"}},{"country":"tz","city":"Bomandani","coordinates":{"lat":"-4.8666667","long":"39.2"}},{"country":"tz","city":"Bomani","coordinates":{"lat":"-5.1166667","long":"39.8"}},{"country":"tz","city":"Boma ya Lindi","coordinates":{"lat":"-9.2666667","long":"35.6666667"}},{"country":"tz","city":"Boma ya Ngombe","coordinates":{"lat":"-3.3333333","long":"37.15"}},{"country":"tz","city":"Boma ya Ulanga","coordinates":{"lat":"-8.1833333","long":"36.9166667"}},{"country":"tz","city":"Bombo","coordinates":{"lat":"-4.85","long":"38.6833333"}},{"country":"tz","city":"Bombwera","coordinates":{"lat":"-5.2","long":"38.7166667"}},{"country":"tz","city":"Bondemali","coordinates":{"lat":"-5.9333333","long":"39.3"}},{"country":"tz","city":"Bondeni Boloti","coordinates":{"lat":"-3.25","long":"37.1166667"}},{"country":"tz","city":"Bondeni","coordinates":{"lat":"-4.9833333","long":"39.7"}},{"country":"tz","city":"Bondeni","coordinates":{"lat":"-5.9166667","long":"39.25"}},{"country":"tz","city":"Bondeni","coordinates":{"lat":"-6.1","long":"39.2166667"}},{"country":"tz","city":"Bondo","coordinates":{"lat":"-5.3833333","long":"38.5833333"}},{"country":"tz","city":"Bonga","coordinates":{"lat":"-4.35","long":"35.7333333"}},{"country":"tz","city":"Bongo","coordinates":{"lat":"-10.4666667","long":"34.5833333"}},{"country":"tz","city":"Bopwe","coordinates":{"lat":"-5.0333333","long":"39.7333333"}},{"country":"tz","city":"Borawahi","coordinates":{"lat":"-4.95","long":"39.7666667"}},{"country":"tz","city":"Bosa","coordinates":{"lat":"-7.2","long":"39.4166667"}},{"country":"tz","city":"Bosha","coordinates":{"lat":"-4.8333333","long":"38.3"}},{"country":"tz","city":"Boyja","coordinates":{"lat":"-6.2333333","long":"39.5333333"}},{"country":"tz","city":"Boyla","coordinates":{"lat":"-5.3833333","long":"38.05"}},{"country":"tz","city":"Boza","coordinates":{"lat":"-7.2","long":"39.4166667"}},{"country":"tz","city":"Boza","coordinates":{"lat":"-5.4","long":"38.9833333"}},{"country":"tz","city":"Bubada","coordinates":{"lat":"-3.1166667","long":"32.5166667"}},{"country":"tz","city":"Bubiki","coordinates":{"lat":"-3.3666667","long":"33.3833333"}},{"country":"tz","city":"Bubinza","coordinates":{"lat":"-2.5333333","long":"33.4833333"}},{"country":"tz","city":"Bububu","coordinates":{"lat":"-5.9333333","long":"39.2333333"}},{"country":"tz","city":"Bububu","coordinates":{"lat":"-6.1","long":"39.2166667"}},{"country":"tz","city":"Buchambi","coordinates":{"lat":"-3.1666667","long":"33.7333333"}},{"country":"tz","city":"Buchenji","coordinates":{"lat":"-2.45","long":"32.3833333"}},{"country":"tz","city":"Buchenzi","coordinates":{"lat":"-2.45","long":"32.3833333"}},{"country":"tz","city":"Bueni","coordinates":{"lat":"-7.6666667","long":"39.8666667"}},{"country":"tz","city":"Bueni","coordinates":{"lat":"-6.65","long":"32.7666667"}},{"country":"tz","city":"Bugala","coordinates":{"lat":"-6.3","long":"30.1333333"}},{"country":"tz","city":"Bugamba","coordinates":{"lat":"-4.5666667","long":"29.65"}},{"country":"tz","city":"Bugandika","coordinates":{"lat":"-1.2547222","long":"31.6536111"}},{"country":"tz","city":"Bugara","coordinates":{"lat":"-1.1872222","long":"30.9925"}},{"country":"tz","city":"Bugarama","coordinates":{"lat":"-2.8705556","long":"30.5280556"}},{"country":"tz","city":"Bugene","coordinates":{"lat":"-1.5911111","long":"31.1402778"}},{"country":"tz","city":"Bugigero","coordinates":{"lat":"-4.3530556","long":"30.4955556"}},{"country":"tz","city":"Bugire","coordinates":{"lat":"-1.15","long":"34.2833333"}},{"country":"tz","city":"Bugogo","coordinates":{"lat":"-3.3166667","long":"33.5166667"}},{"country":"tz","city":"Bugolora","coordinates":{"lat":"-1.9833333","long":"33.0166667"}},{"country":"tz","city":"Bugomba","coordinates":{"lat":"-4.0127778","long":"31.9902778"}},{"country":"tz","city":"Bugomga","coordinates":{"lat":"-4.0127778","long":"31.9902778"}},{"country":"tz","city":"Bugoro","coordinates":{"lat":"-3.3166667","long":"33.5166667"}},{"country":"tz","city":"Bugorora","coordinates":{"lat":"-1.9833333","long":"33.0166667"}},{"country":"tz","city":"Bugorora","coordinates":{"lat":"-1.2333333","long":"31.55"}},{"country":"tz","city":"Bugudadi","coordinates":{"lat":"-5.05","long":"39.7166667"}},{"country":"tz","city":"Buguma","coordinates":{"lat":"-2.0333333","long":"33.3166667"}},{"country":"tz","city":"Bugura","coordinates":{"lat":"-2.05","long":"32.8833333"}},{"country":"tz","city":"Buguruka","coordinates":{"lat":"-1.5866667","long":"31.1741667"}},{"country":"tz","city":"Bugurura","coordinates":{"lat":"-2.7833333","long":"32.15"}},{"country":"tz","city":"Bugusa","coordinates":{"lat":"-1.9666667","long":"33.0333333"}},{"country":"tz","city":"Buguza","coordinates":{"lat":"-1.9666667","long":"33.0333333"}},{"country":"tz","city":"Buhama","coordinates":{"lat":"-2.3666667","long":"32.4833333"}},{"country":"tz","city":"Buhemba","coordinates":{"lat":"-1.7666667","long":"34.0833333"}},{"country":"tz","city":"Buhendengabo","coordinates":{"lat":"-1.2333333","long":"31.8"}},{"country":"tz","city":"Buhima","coordinates":{"lat":"-2.0333333","long":"32.95"}},{"country":"tz","city":"Buhimba","coordinates":{"lat":"-2.6166667","long":"30.9833333"}},{"country":"tz","city":"Buhinga","coordinates":{"lat":"-4.6072222","long":"30.0105556"}},{"country":"tz","city":"Buhiri","coordinates":{"lat":"-5.1166667","long":"39.0166667"}},{"country":"tz","city":"Buhoro","coordinates":{"lat":"-4.4183333","long":"30.1716667"}},{"country":"tz","city":"Buhororo","coordinates":{"lat":"-2.5380556","long":"30.6166667"}},{"country":"tz","city":"Buhungire","coordinates":{"lat":"-2.5833333","long":"32.9166667"}},{"country":"tz","city":"Buhuri","coordinates":{"lat":"-5.1166667","long":"39.0166667"}},{"country":"tz","city":"Buigiri","coordinates":{"lat":"-6.1333333","long":"36.0333333"}},{"country":"tz","city":"Buiko","coordinates":{"lat":"-4.65","long":"38.05"}},{"country":"tz","city":"Buitigu","coordinates":{"lat":"-4.3166667","long":"33.1666667"}},{"country":"tz","city":"Bujesi","coordinates":{"lat":"-9.3333333","long":"33.75"}},{"country":"tz","city":"Bujonde","coordinates":{"lat":"-9.6333333","long":"33.9"}},{"country":"tz","city":"Bujuruga","coordinates":{"lat":"-1.5866667","long":"31.1741667"}},{"country":"tz","city":"Bukandwe","coordinates":{"lat":"-2.55","long":"33.1166667"}},{"country":"tz","city":"Bukene","coordinates":{"lat":"-4.2333333","long":"32.8833333"}},{"country":"tz","city":"Bukike","coordinates":{"lat":"-1.8333333","long":"33.0833333"}},{"country":"tz","city":"Bukiko","coordinates":{"lat":"-1.8333333","long":"33.0833333"}},{"country":"tz","city":"Bukima","coordinates":{"lat":"-1.8","long":"33.4166667"}},{"country":"tz","city":"Bukindo","coordinates":{"lat":"-2.0333333","long":"33.1"}},{"country":"tz","city":"Bukindo","coordinates":{"lat":"-2.5","long":"32.0"}},{"country":"tz","city":"Bukiriro","coordinates":{"lat":"-2.7833333","long":"30.55"}},{"country":"tz","city":"Bukiroba","coordinates":{"lat":"-1.5333333","long":"33.8666667"}},{"country":"tz","city":"Bukiro","coordinates":{"lat":"-2.8086111","long":"30.5316667"}},{"country":"tz","city":"Bukoba","coordinates":{"lat":"-1.3316667","long":"31.8122222"}},{"country":"tz","city":"Bukobe","coordinates":{"lat":"-3.5166667","long":"32.05"}},{"country":"tz","city":"Bukokwa","coordinates":{"lat":"-2.5","long":"32.4333333"}},{"country":"tz","city":"Bukombe","coordinates":{"lat":"-3.5166667","long":"32.05"}},{"country":"tz","city":"Bukombe Kombe","coordinates":{"lat":"-3.4333333","long":"31.8333333"}},{"country":"tz","city":"Bukome","coordinates":{"lat":"-2.75","long":"31.7666667"}},{"country":"tz","city":"Bukondo","coordinates":{"lat":"-2.1166667","long":"33.0333333"}},{"country":"tz","city":"Bukonyo","coordinates":{"lat":"-1.95","long":"32.9333333"}},{"country":"tz","city":"Bukulu","coordinates":{"lat":"-4.5833333","long":"35.75"}},{"country":"tz","city":"Bukumbi","coordinates":{"lat":"-2.7166667","long":"32.9166667"}},{"country":"tz","city":"Bukumbi","coordinates":{"lat":"-4.3833333","long":"32.5666667"}},{"country":"tz","city":"Bukumi","coordinates":{"lat":"-1.8833333","long":"33.3833333"}},{"country":"tz","city":"Bukundi","coordinates":{"lat":"-3.8","long":"34.7333333"}},{"country":"tz","city":"Bukungu","coordinates":{"lat":"-1.85","long":"33.0166667"}},{"country":"tz","city":"Bukurumu","coordinates":{"lat":"-2.8666667","long":"33.8833333"}},{"country":"tz","city":"Bukwaya","coordinates":{"lat":"-3.0666667","long":"32.95"}},{"country":"tz","city":"Bukwimba","coordinates":{"lat":"-2.8","long":"33.4166667"}},{"country":"tz","city":"Bulahu","coordinates":{"lat":"-3.4166667","long":"33.5166667"}},{"country":"tz","city":"Bulangamilwa","coordinates":{"lat":"-4.1333333","long":"33.3666667"}},{"country":"tz","city":"Bulela","coordinates":{"lat":"-2.9","long":"32.5"}},{"country":"tz","city":"Bulembe","coordinates":{"lat":"-1.0166667","long":"31.6333333"}},{"country":"tz","city":"Buliama","coordinates":{"lat":"-1.7666667","long":"33.9666667"}},{"country":"tz","city":"Bulima","coordinates":{"lat":"-2.4","long":"33.55"}},{"country":"tz","city":"Bulima","coordinates":{"lat":"-3.3833333","long":"33.6166667"}},{"country":"tz","city":"Bulinga","coordinates":{"lat":"-1.8333333","long":"33.3333333"}},{"country":"tz","city":"Bulola","coordinates":{"lat":"-5.1625","long":"30.655"}},{"country":"tz","city":"Bulombola","coordinates":{"lat":"-5.0405556","long":"29.7744444"}},{"country":"tz","city":"Bulunde","coordinates":{"lat":"-4.3","long":"32.9666667"}},{"country":"tz","city":"Bulungwa","coordinates":{"lat":"-4.0666667","long":"32.2"}},{"country":"tz","city":"Bumangi","coordinates":{"lat":"-1.75","long":"34.0166667"}},{"country":"tz","city":"Bumani","coordinates":{"lat":"-5.8166667","long":"39.2166667"}},{"country":"tz","city":"Bumba","coordinates":{"lat":"-5.65","long":"37.95"}},{"country":"tz","city":"Bumbire","coordinates":{"lat":"-1.6241667","long":"31.8652778"}},{"country":"tz","city":"Bumbiri","coordinates":{"lat":"-1.6241667","long":"31.8652778"}},{"country":"tz","city":"Bumbuli","coordinates":{"lat":"-3.9666667","long":"37.7333333"}},{"country":"tz","city":"Bumbuli","coordinates":{"lat":"-4.8666667","long":"38.4666667"}},{"country":"tz","city":"Bumbwi","coordinates":{"lat":"-6.0666667","long":"39.2666667"}},{"country":"tz","city":"Bumbwi Buyuni","coordinates":{"lat":"-6.0666667","long":"39.2666667"}},{"country":"tz","city":"Bumbwi Kitoroni","coordinates":{"lat":"-6.0333333","long":"39.2833333"}},{"country":"tz","city":"Bumbwi Langoni","coordinates":{"lat":"-6.05","long":"39.2666667"}},{"country":"tz","city":"Bumbwi Malindi","coordinates":{"lat":"-6.05","long":"39.2833333"}},{"country":"tz","city":"Bumbwi Mtoroveni","coordinates":{"lat":"-6.0666667","long":"39.2833333"}},{"country":"tz","city":"Bumbwini","coordinates":{"lat":"-5.9666667","long":"39.1833333"}},{"country":"tz","city":"Bumbwi Sudi","coordinates":{"lat":"-6.05","long":"39.2666667"}},{"country":"tz","city":"Bumera","coordinates":{"lat":"-2.7833333","long":"34.1666667"}},{"country":"tz","city":"Bunamhala","coordinates":{"lat":"-2.8833333","long":"33.9666667"}},{"country":"tz","city":"Bunazi","coordinates":{"lat":"-1.2088889","long":"31.4091667"}},{"country":"tz","city":"Bunda","coordinates":{"lat":"-2.05","long":"33.8666667"}},{"country":"tz","city":"Bundi Ndege","coordinates":{"lat":"-5.8","long":"39.3"}},{"country":"tz","city":"Bunduki","coordinates":{"lat":"-7.0333333","long":"37.6333333"}},{"country":"tz","city":"Bunegezi","coordinates":{"lat":"-2.9666667","long":"32.3"}},{"country":"tz","city":"Bunge","coordinates":{"lat":"-6.2666667","long":"39.3333333"}},{"country":"tz","city":"Bungi","coordinates":{"lat":"-6.05","long":"39.3"}},{"country":"tz","city":"Bungi","coordinates":{"lat":"-6.2666667","long":"39.3333333"}},{"country":"tz","city":"Bungu","coordinates":{"lat":"-7.6333333","long":"39.05"}},{"country":"tz","city":"Bungu","coordinates":{"lat":"-7.2","long":"37.7833333"}},{"country":"tz","city":"Bungu","coordinates":{"lat":"-4.9333333","long":"34.4166667"}},{"country":"tz","city":"Bungu","coordinates":{"lat":"-5.05","long":"38.4"}},{"country":"tz","city":"Bungulwa","coordinates":{"lat":"-2.75","long":"33.3"}},{"country":"tz","city":"Bunju","coordinates":{"lat":"-6.6166667","long":"39.1166667"}},{"country":"tz","city":"Buoni","coordinates":{"lat":"-6.6","long":"38.6"}},{"country":"tz","city":"Buragara","coordinates":{"lat":"-1.7333333","long":"30.8333333"}},{"country":"tz","city":"Buramba","coordinates":{"lat":"-2.0666667","long":"33.05"}},{"country":"tz","city":"Buramba Nyakasayenge","coordinates":{"lat":"-2.0666667","long":"33.05"}},{"country":"tz","city":"Burangare","coordinates":{"lat":"-1.7333333","long":"30.8333333"}},{"country":"tz","city":"Burieri","coordinates":{"lat":"-1.1","long":"34.05"}},{"country":"tz","city":"Burigi","coordinates":{"lat":"-2.2","long":"31.2666667"}},{"country":"tz","city":"Burindima","coordinates":{"lat":"-2.7336111","long":"31.0030556"}},{"country":"tz","city":"Burru","coordinates":{"lat":"-3.85","long":"35.5333333"}},{"country":"tz","city":"Buruma","coordinates":{"lat":"-1.65","long":"33.8166667"}},{"country":"tz","city":"Buruma","coordinates":{"lat":"-11.1666667","long":"34.8666667"}},{"country":"tz","city":"Burumira","coordinates":{"lat":"-3.3833333","long":"32.6"}},{"country":"tz","city":"Burumiro","coordinates":{"lat":"-3.3833333","long":"32.6"}},{"country":"tz","city":"Busagami","coordinates":{"lat":"-1.9666667","long":"32.95"}},{"country":"tz","city":"Busaka","coordinates":{"lat":"-5.7666667","long":"35.5166667"}},{"country":"tz","city":"Busamba","coordinates":{"lat":"-1.5","long":"33.7666667"}},{"country":"tz","city":"Busambe","coordinates":{"lat":"-1.5","long":"33.7666667"}},{"country":"tz","city":"Busanda","coordinates":{"lat":"-3.0166667","long":"32.1166667"}},{"country":"tz","city":"Busangi","coordinates":{"lat":"-3.6666667","long":"32.5666667"}},{"country":"tz","city":"Busarihu","coordinates":{"lat":"-1.3333333","long":"33.85"}},{"country":"tz","city":"Busasi","coordinates":{"lat":"-4.1833333","long":"33.05"}},{"country":"tz","city":"Busegwe","coordinates":{"lat":"-1.7166667","long":"33.9666667"}},{"country":"tz","city":"Busekera","coordinates":{"lat":"-1.9166667","long":"33.35"}},{"country":"tz","city":"Busenge","coordinates":{"lat":"-2.3","long":"32.2666667"}},{"country":"tz","city":"Buseresere","coordinates":{"lat":"-3.0236111","long":"31.8747222"}},{"country":"tz","city":"Bushasha","coordinates":{"lat":"-1.0833333","long":"31.8"}},{"country":"tz","city":"Bushigamhala","coordinates":{"lat":"-2.3833333","long":"33.6833333"}},{"country":"tz","city":"Bushiri","coordinates":{"lat":"-5.3666667","long":"38.95"}},{"country":"tz","city":"Busi","coordinates":{"lat":"-5.7666667","long":"35.7666667"}},{"country":"tz","city":"Busi","coordinates":{"lat":"-4.85","long":"36.05"}},{"country":"tz","city":"Businde","coordinates":{"lat":"-1.1408333","long":"30.9466667"}},{"country":"tz","city":"Busindi","coordinates":{"lat":"-1.1408333","long":"30.9466667"}},{"country":"tz","city":"Busirayombo","coordinates":{"lat":"-2.7783333","long":"31.7786111"}},{"country":"tz","city":"Busiri","coordinates":{"lat":"-2.0833333","long":"32.9166667"}},{"country":"tz","city":"Busisi","coordinates":{"lat":"-2.7333333","long":"32.8666667"}},{"country":"tz","city":"Busiya","coordinates":{"lat":"-1.8833333","long":"33.0333333"}},{"country":"tz","city":"Busogwa","coordinates":{"lat":"-2.3833333","long":"33.0"}},{"country":"tz","city":"Busondo","coordinates":{"lat":"-5.3333333","long":"30.4"}},{"country":"tz","city":"Busongo","coordinates":{"lat":"-3.0833333","long":"32.9333333"}},{"country":"tz","city":"Busongola","coordinates":{"lat":"-5.5333333","long":"30.5333333"}},{"country":"tz","city":"Busonzo","coordinates":{"lat":"-3.0833333","long":"31.6833333"}},{"country":"tz","city":"Busoro","coordinates":{"lat":"-2.4333333","long":"30.7833333"}},{"country":"tz","city":"Bussangi","coordinates":{"lat":"-3.6666667","long":"32.5666667"}},{"country":"tz","city":"Busulwangiri","coordinates":{"lat":"-2.7166667","long":"32.7333333"}},{"country":"tz","city":"Busumi","coordinates":{"lat":"-1.7","long":"33.5833333"}},{"country":"tz","city":"Butakia","coordinates":{"lat":"-1.65","long":"31.5"}},{"country":"tz","city":"Butaranda","coordinates":{"lat":"-2.9","long":"32.7833333"}},{"country":"tz","city":"Butemere","coordinates":{"lat":"-3.0333333","long":"31.1333333"}},{"country":"tz","city":"Butiama","coordinates":{"lat":"-1.7666667","long":"33.9666667"}},{"country":"tz","city":"Butimba","coordinates":{"lat":"-2.5666667","long":"32.8833333"}},{"country":"tz","city":"Butimore","coordinates":{"lat":"-2.9833333","long":"31.1833333"}},{"country":"tz","city":"Butu","coordinates":{"lat":"-9.0","long":"36.0833333"}},{"country":"tz","city":"Butu","coordinates":{"lat":"-3.6833333","long":"37.7"}},{"country":"tz","city":"Butuguli","coordinates":{"lat":"-1.65","long":"33.9833333"}},{"country":"tz","city":"Butungo","coordinates":{"lat":"-2.7166667","long":"31.3"}},{"country":"tz","city":"Buturi","coordinates":{"lat":"-1.4166667","long":"34.0166667"}},{"country":"tz","city":"Butuyu","coordinates":{"lat":"-3.4","long":"33.3"}},{"country":"tz","city":"Buuni Village","coordinates":{"lat":"-7.1333333","long":"39.5166667"}},{"country":"tz","city":"Buvongo","coordinates":{"lat":"-1.1","long":"30.5"}},{"country":"tz","city":"Buyagu","coordinates":{"lat":"-2.8333333","long":"32.8166667"}},{"country":"tz","city":"Buyango","coordinates":{"lat":"-1.1486111","long":"31.6447222"}},{"country":"tz","city":"Buyenzi","coordinates":{"lat":"-4.4375","long":"29.9516667"}},{"country":"tz","city":"Buyogo","coordinates":{"lat":"-3.1666667","long":"33.25"}},{"country":"tz","city":"Buyonde","coordinates":{"lat":"-9.6333333","long":"33.9"}},{"country":"tz","city":"Buyonga","coordinates":{"lat":"-4.6277778","long":"29.8580556"}},{"country":"tz","city":"Buyoni","coordinates":{"lat":"-6.6","long":"38.6"}},{"country":"tz","city":"Buyu","coordinates":{"lat":"-6.25","long":"39.2166667"}},{"country":"tz","city":"Buyu Kidudu","coordinates":{"lat":"-6.2666667","long":"39.2333333"}},{"country":"tz","city":"Buyukuu","coordinates":{"lat":"-6.4","long":"39.5333333"}},{"country":"tz","city":"Buyungu","coordinates":{"lat":"-3.2833333","long":"31.0"}},{"country":"tz","city":"Buyuni","coordinates":{"lat":"-7.1333333","long":"39.5166667"}},{"country":"tz","city":"Buyuni","coordinates":{"lat":"-5.3666667","long":"38.9666667"}},{"country":"tz","city":"Buyuni","coordinates":{"lat":"-5.15","long":"39.8"}},{"country":"tz","city":"Buyuni","coordinates":{"lat":"-6.95","long":"39.1"}},{"country":"tz","city":"Buyu Pwani","coordinates":{"lat":"-6.25","long":"39.2166667"}},{"country":"tz","city":"Buzegwe","coordinates":{"lat":"-1.9833333","long":"33.1"}},{"country":"tz","city":"Buzengwe","coordinates":{"lat":"-1.9833333","long":"33.1"}},{"country":"tz","city":"Buzimbwe","coordinates":{"lat":"-2.1166667","long":"33.6666667"}},{"country":"tz","city":"Buzirayombo","coordinates":{"lat":"-2.7783333","long":"31.7786111"}},{"country":"tz","city":"Bwaga","coordinates":{"lat":"-6.2333333","long":"36.4666667"}},{"country":"tz","city":"Bwaga","coordinates":{"lat":"-6.45","long":"30.0666667"}},{"country":"tz","city":"Bwaga","coordinates":{"lat":"-5.9666667","long":"39.2"}},{"country":"tz","city":"Bwage","coordinates":{"lat":"-5.95","long":"37.7666667"}},{"country":"tz","city":"Bwakira Chini","coordinates":{"lat":"-7.4","long":"37.7333333"}},{"country":"tz","city":"Bwakira Juu","coordinates":{"lat":"-7.3","long":"37.7"}},{"country":"tz","city":"Bwanga","coordinates":{"lat":"-3.0322222","long":"31.7636111"}},{"country":"tz","city":"Bwanga-Bwina","coordinates":{"lat":"-2.6166667","long":"31.8"}},{"country":"tz","city":"Bwanjai","coordinates":{"lat":"-1.2166667","long":"31.7"}},{"country":"tz","city":"Bwasi","coordinates":{"lat":"-1.8833333","long":"33.3833333"}},{"country":"tz","city":"Bwassi","coordinates":{"lat":"-1.65","long":"34.1"}},{"country":"tz","city":"Bwayi","coordinates":{"lat":"-1.6833333","long":"33.55"}},{"country":"tz","city":"Bwegere","coordinates":{"lat":"-5.6333333","long":"37.4666667"}},{"country":"tz","city":"Bweju","coordinates":{"lat":"-6.2333333","long":"39.5333333"}},{"country":"tz","city":"Bwejuu","coordinates":{"lat":"-6.2333333","long":"39.5333333"}},{"country":"tz","city":"Bweke","coordinates":{"lat":"-6.3","long":"39.2833333"}},{"country":"tz","city":"Bweleo","coordinates":{"lat":"-6.3","long":"39.2833333"}},{"country":"tz","city":"Bwembwela","coordinates":{"lat":"-5.2","long":"38.7166667"}},{"country":"tz","city":"Bweni","coordinates":{"lat":"-7.6666667","long":"39.8666667"}},{"country":"tz","city":"Bweni","coordinates":{"lat":"-2.05","long":"33.3"}},{"country":"tz","city":"Bweni","coordinates":{"lat":"-5.4333333","long":"38.9666667"}},{"country":"tz","city":"Bweni","coordinates":{"lat":"-6.1166667","long":"39.3333333"}},{"country":"tz","city":"Bweranyange","coordinates":{"lat":"-1.7119444","long":"30.9675"}},{"country":"tz","city":"Bwere","coordinates":{"lat":"-2.4666667","long":"32.8833333"}},{"country":"tz","city":"Bwere","coordinates":{"lat":"-1.3891667","long":"30.9102778"}},{"country":"tz","city":"Bwereu","coordinates":{"lat":"-5.8166667","long":"39.3"}},{"country":"tz","city":"Bweru","coordinates":{"lat":"-3.7766667","long":"31.2155556"}},{"country":"tz","city":"Bwili","coordinates":{"lat":"-4.95","long":"38.6333333"}},{"country":"tz","city":"Bwiregi","coordinates":{"lat":"-1.4","long":"34.65"}},{"country":"tz","city":"Bwiru","coordinates":{"lat":"-2.0333333","long":"32.85"}},{"country":"tz","city":"Bwisya","coordinates":{"lat":"-1.8833333","long":"33.0333333"}},{"country":"tz","city":"Bwiti","coordinates":{"lat":"-4.7833333","long":"38.8166667"}},{"country":"tz","city":"Campi ya Simba","coordinates":{"lat":"-3.6","long":"37.7"}},{"country":"tz","city":"Chaani Bondeni","coordinates":{"lat":"-5.9333333","long":"39.3"}},{"country":"tz","city":"Chaani","coordinates":{"lat":"-5.9333333","long":"39.3"}},{"country":"tz","city":"Chabuhora","coordinates":{"lat":"-1.7936111","long":"30.9783333"}},{"country":"tz","city":"Chabure","coordinates":{"lat":"-5.4333333","long":"39.7333333"}},{"country":"tz","city":"Chabutwa","coordinates":{"lat":"-2.35","long":"33.8166667"}},{"country":"tz","city":"Chabutwa","coordinates":{"lat":"-5.9833333","long":"34.1166667"}},{"country":"tz","city":"Chabutwa","coordinates":{"lat":"-5.6666667","long":"32.75"}},{"country":"tz","city":"Chabwe","coordinates":{"lat":"-5.1333333","long":"39.8166667"}},{"country":"tz","city":"Chaduma","coordinates":{"lat":"-7.1","long":"38.65"}},{"country":"tz","city":"Chagu","coordinates":{"lat":"-4.9833333","long":"31.2"}},{"country":"tz","city":"Chagulani","coordinates":{"lat":"-4.9333333","long":"39.1"}},{"country":"tz","city":"Chahwa","coordinates":{"lat":"-6.05","long":"35.9833333"}},{"country":"tz","city":"Chakachani","coordinates":{"lat":"-4.9333333","long":"39.1"}},{"country":"tz","city":"Chakano","coordinates":{"lat":"-8.7166667","long":"36.2666667"}},{"country":"tz","city":"Chakaschani","coordinates":{"lat":"-4.9333333","long":"39.1"}},{"country":"tz","city":"Chake Chake","coordinates":{"lat":"-5.25","long":"39.7666667"}},{"country":"tz","city":"Chakengi","coordinates":{"lat":"-6.65","long":"38.8333333"}},{"country":"tz","city":"Chaki Chaki","coordinates":{"lat":"-5.25","long":"39.7666667"}},{"country":"tz","city":"Chakola","coordinates":{"lat":"-6.1666667","long":"35.4333333"}},{"country":"tz","city":"Chakopi","coordinates":{"lat":"-5.0833333","long":"39.75"}},{"country":"tz","city":"Chakwa","coordinates":{"lat":"-6.1666667","long":"39.4333333"}},{"country":"tz","city":"Chakwale","coordinates":{"lat":"-6.0666667","long":"36.9666667"}},{"country":"tz","city":"Chala","coordinates":{"lat":"-7.5833333","long":"31.2666667"}},{"country":"tz","city":"Chalatila","coordinates":{"lat":"-7.8333333","long":"31.3166667"}},{"country":"tz","city":"Chale","coordinates":{"lat":"-6.25","long":"35.25"}},{"country":"tz","city":"Chaleni","coordinates":{"lat":"-6.3166667","long":"39.2666667"}},{"country":"tz","city":"Chali","coordinates":{"lat":"-6.25","long":"35.25"}},{"country":"tz","city":"Chali","coordinates":{"lat":"-5.1666667","long":"32.45"}},{"country":"tz","city":"Chalinze","coordinates":{"lat":"-6.6","long":"38.35"}},{"country":"tz","city":"Chamamba","coordinates":{"lat":"-7.4","long":"35.5"}},{"country":"tz","city":"Chamanga","coordinates":{"lat":"-8.35","long":"36.15"}},{"country":"tz","city":"Chamangwe","coordinates":{"lat":"-6.5666667","long":"38.9666667"}},{"country":"tz","city":"Chamba","coordinates":{"lat":"-11.5833333","long":"36.9666667"}},{"country":"tz","city":"Chambala","coordinates":{"lat":"-5.2333333","long":"35.9166667"}},{"country":"tz","city":"Chambalo","coordinates":{"lat":"-5.2333333","long":"35.9166667"}},{"country":"tz","city":"Chambezi","coordinates":{"lat":"-6.5166667","long":"38.9166667"}},{"country":"tz","city":"Chambi","coordinates":{"lat":"-6.6","long":"34.95"}},{"country":"tz","city":"Chambo","coordinates":{"lat":"-7.8333333","long":"32.4333333"}},{"country":"tz","city":"Chamchuzi","coordinates":{"lat":"-1.8338889","long":"30.87"}},{"country":"tz","city":"Chamgassa","coordinates":{"lat":"-2.3","long":"33.7833333"}},{"country":"tz","city":"Chamipulu","coordinates":{"lat":"-4.05","long":"33.0666667"}},{"country":"tz","city":"Chamkolomo","coordinates":{"lat":"-6.3333333","long":"36.6666667"}},{"country":"tz","city":"Chamkoroma","coordinates":{"lat":"-6.3333333","long":"36.6666667"}},{"country":"tz","city":"Chamtonya","coordinates":{"lat":"-1.6","long":"30.9166667"}},{"country":"tz","city":"Chamtui","coordinates":{"lat":"-6.0","long":"37.2"}},{"country":"tz","city":"Chamunyana","coordinates":{"lat":"-1.2333333","long":"30.55"}},{"country":"tz","city":"Chamzele","coordinates":{"lat":"-4.85","long":"38.2"}},{"country":"tz","city":"Chamzumbe","coordinates":{"lat":"-7.2333333","long":"31.0333333"}},{"country":"tz","city":"Chandama","coordinates":{"lat":"-5.15","long":"36.1666667"}},{"country":"tz","city":"Chandani","coordinates":{"lat":"-5.2666667","long":"39.8166667"}},{"country":"tz","city":"Chandole","coordinates":{"lat":"-4.75","long":"38.4"}},{"country":"tz","city":"Changalaweni","coordinates":{"lat":"-6.0","long":"39.2666667"}},{"country":"tz","city":"Changani","coordinates":{"lat":"-4.9333333","long":"39.7833333"}},{"country":"tz","city":"Changani","coordinates":{"lat":"-5.2","long":"39.8166667"}},{"country":"tz","city":"Changani","coordinates":{"lat":"-6.15","long":"39.3333333"}},{"country":"tz","city":"Changani","coordinates":{"lat":"-6.65","long":"39.2"}},{"country":"tz","city":"Changanyiko","coordinates":{"lat":"-4.75","long":"39.05"}},{"country":"tz","city":"Changaweni","coordinates":{"lat":"-5.3666667","long":"39.6666667"}},{"country":"tz","city":"Chang'hwale","coordinates":{"lat":"-6.0666667","long":"36.9666667"}},{"country":"tz","city":"Changombe","coordinates":{"lat":"-6.8333333","long":"39.2666667"}},{"country":"tz","city":"Changonyiko","coordinates":{"lat":"-4.75","long":"39.05"}},{"country":"tz","city":"Changowi","coordinates":{"lat":"-5.3833333","long":"39.6666667"}},{"country":"tz","city":"Changwahera","coordinates":{"lat":"-6.2333333","long":"39.25"}},{"country":"tz","city":"Changwale","coordinates":{"lat":"-10.9166667","long":"38.0333333"}},{"country":"tz","city":"Chanika","coordinates":{"lat":"-4.35","long":"37.55"}},{"country":"tz","city":"Chanika","coordinates":{"lat":"-5.4166667","long":"38.0166667"}},{"country":"tz","city":"Chanjaani","coordinates":{"lat":"-5.2833333","long":"39.75"}},{"country":"tz","city":"Chanjani","coordinates":{"lat":"-4.9166667","long":"39.7166667"}},{"country":"tz","city":"Chanjani","coordinates":{"lat":"-5.25","long":"39.7833333"}},{"country":"tz","city":"Chanjani","coordinates":{"lat":"-6.0166667","long":"39.35"}},{"country":"tz","city":"Chanjani","coordinates":{"lat":"-5.7833333","long":"39.3"}},{"country":"tz","city":"Chanje","coordinates":{"lat":"-5.0166667","long":"39.7"}},{"country":"tz","city":"Chankamba","coordinates":{"lat":"-2.05","long":"32.9166667"}},{"country":"tz","city":"Chankurongo","coordinates":{"lat":"-2.75","long":"31.9666667"}},{"country":"tz","city":"Chanoni","coordinates":{"lat":"-5.2833333","long":"39.7333333"}},{"country":"tz","city":"Chansangi","coordinates":{"lat":"-1.75","long":"31.45"}},{"country":"tz","city":"Chanyangabwa","coordinates":{"lat":"-1.5427778","long":"30.8519444"}},{"country":"tz","city":"Chanza","coordinates":{"lat":"-4.9833333","long":"31.0166667"}},{"country":"tz","city":"Chanzuru","coordinates":{"lat":"-6.8","long":"37.0666667"}},{"country":"tz","city":"Chaoni","coordinates":{"lat":"-5.2333333","long":"39.7333333"}},{"country":"tz","city":"Chapaka","coordinates":{"lat":"-5.1","long":"39.7"}},{"country":"tz","city":"Chapota","coordinates":{"lat":"-8.1666667","long":"31.25"}},{"country":"tz","city":"Charawe","coordinates":{"lat":"-6.1833333","long":"39.4333333"}},{"country":"tz","city":"Charumbi","coordinates":{"lat":"-5.3833333","long":"38.1833333"}},{"country":"tz","city":"Chasasa","coordinates":{"lat":"-5.05","long":"39.7333333"}},{"country":"tz","city":"Chasasa","coordinates":{"lat":"-10.4166667","long":"34.8"}},{"country":"tz","city":"Chato","coordinates":{"lat":"-2.6377778","long":"31.7669444"}},{"country":"tz","city":"Chausangi","coordinates":{"lat":"-1.75","long":"31.45"}},{"country":"tz","city":"Chavuna","coordinates":{"lat":"-5.4","long":"32.2"}},{"country":"tz","city":"Chawa","coordinates":{"lat":"-6.05","long":"35.9833333"}},{"country":"tz","city":"Chazi","coordinates":{"lat":"-6.2166667","long":"37.5666667"}},{"country":"tz","city":"Chechele","coordinates":{"lat":"-5.95","long":"39.2333333"}},{"country":"tz","city":"Checheli","coordinates":{"lat":"-5.15","long":"39.75"}},{"country":"tz","city":"Chedyu","coordinates":{"lat":"-6.2333333","long":"39.35"}},{"country":"tz","city":"Cheju","coordinates":{"lat":"-6.2333333","long":"39.35"}},{"country":"tz","city":"Chejuu","coordinates":{"lat":"-6.45","long":"39.5333333"}},{"country":"tz","city":"Chekea","coordinates":{"lat":"-5.0833333","long":"39.7"}},{"country":"tz","city":"Chema","coordinates":{"lat":"-8.9333333","long":"38.5166667"}},{"country":"tz","city":"Chemani","coordinates":{"lat":"-6.1166667","long":"39.25"}},{"country":"tz","city":"Chemani","coordinates":{"lat":"-5.9166667","long":"39.3"}},{"country":"tz","city":"Chem Chem","coordinates":{"lat":"-4.05","long":"34.5833333"}},{"country":"tz","city":"Chemchem","coordinates":{"lat":"-5.0","long":"35.7333333"}},{"country":"tz","city":"Chemka","coordinates":{"lat":"-5.0833333","long":"38.65"}},{"country":"tz","city":"Chemkono","coordinates":{"lat":"-10.6666667","long":"38.9"}},{"country":"tz","city":"Chempisi","coordinates":{"lat":"-1.5","long":"30.8166667"}},{"country":"tz","city":"Chemuli","coordinates":{"lat":"-1.4102778","long":"30.9141667"}},{"country":"tz","city":"Chengena","coordinates":{"lat":"-10.5666667","long":"36.0833333"}},{"country":"tz","city":"Chenzema","coordinates":{"lat":"-7.1","long":"37.5833333"}},{"country":"tz","city":"Chera","coordinates":{"lat":"-8.7333333","long":"36.85"}},{"country":"tz","city":"Cherachimu","coordinates":{"lat":"-8.3333333","long":"36.1833333"}},{"country":"tz","city":"Cherawe","coordinates":{"lat":"-6.1833333","long":"39.4333333"}},{"country":"tz","city":"Chere","coordinates":{"lat":"-4.85","long":"29.6"}},{"country":"tz","city":"Chibali","coordinates":{"lat":"-1.0836111","long":"30.8594444"}},{"country":"tz","city":"Chibe","coordinates":{"lat":"-3.6","long":"33.3666667"}},{"country":"tz","city":"Chibechwa Nguta","coordinates":{"lat":"-6.3666667","long":"36.55"}},{"country":"tz","city":"Chibole","coordinates":{"lat":"-6.7333333","long":"35.8"}},{"country":"tz","city":"Chibwecha Nguta","coordinates":{"lat":"-6.3666667","long":"36.55"}},{"country":"tz","city":"Chibwegele","coordinates":{"lat":"-6.9666667","long":"35.85"}},{"country":"tz","city":"Chibwi","coordinates":{"lat":"-6.3","long":"36.15"}},{"country":"tz","city":"Chichi","coordinates":{"lat":"-4.6333333","long":"38.3833333"}},{"country":"tz","city":"Chichi","coordinates":{"lat":"-6.2833333","long":"39.3666667"}},{"country":"tz","city":"Chidya","coordinates":{"lat":"-10.6166667","long":"39.0666667"}},{"country":"tz","city":"Chifule","coordinates":{"lat":"-1.8166667","long":"33.0166667"}},{"country":"tz","city":"Chigarafumi","coordinates":{"lat":"-7.1666667","long":"37.5"}},{"country":"tz","city":"Chigugu","coordinates":{"lat":"-10.5666667","long":"38.9333333"}},{"country":"tz","city":"Chiguluka","coordinates":{"lat":"-6.2666667","long":"35.5"}},{"country":"tz","city":"Chihanga","coordinates":{"lat":"-5.9166667","long":"35.8333333"}},{"country":"tz","city":"Chihi","coordinates":{"lat":"-9.2833333","long":"36.9"}},{"country":"tz","city":"Chihoni","coordinates":{"lat":"-6.1166667","long":"35.6166667"}},{"country":"tz","city":"Chihunungu","coordinates":{"lat":"-5.8666667","long":"36.2833333"}},{"country":"tz","city":"Chikalopolo","coordinates":{"lat":"-11.05","long":"39.3833333"}},{"country":"tz","city":"Chikarafumi","coordinates":{"lat":"-7.1666667","long":"37.5"}},{"country":"tz","city":"Chikaraku","coordinates":{"lat":"-5.3833333","long":"39.75"}},{"country":"tz","city":"Chikatapola","coordinates":{"lat":"-11.05","long":"39.3833333"}},{"country":"tz","city":"Chikola","coordinates":{"lat":"-6.05","long":"34.8333333"}},{"country":"tz","city":"Chikole","coordinates":{"lat":"-5.7666667","long":"36.3666667"}},{"country":"tz","city":"Chikolopola","coordinates":{"lat":"-11.05","long":"39.3833333"}},{"country":"tz","city":"Chikulwe","coordinates":{"lat":"-8.15","long":"32.4666667"}},{"country":"tz","city":"Chikundi","coordinates":{"lat":"-10.5166667","long":"38.9833333"}},{"country":"tz","city":"Chikuni","coordinates":{"lat":"-6.0833333","long":"39.3"}},{"country":"tz","city":"Chikuyu","coordinates":{"lat":"-5.8666667","long":"35.0666667"}},{"country":"tz","city":"Chikwembeni","coordinates":{"lat":"-11.2333333","long":"37.75"}},{"country":"tz","city":"Chila Chibi","coordinates":{"lat":"-5.7666667","long":"35.6333333"}},{"country":"tz","city":"Chilalo","coordinates":{"lat":"-10.0","long":"38.6333333"}},{"country":"tz","city":"Chilambo","coordinates":{"lat":"-6.8833333","long":"35.8"}},{"country":"tz","city":"Chilangala","coordinates":{"lat":"-10.5333333","long":"39.1166667"}},{"country":"tz","city":"Chilimba","coordinates":{"lat":"-10.9666667","long":"39.0"}},{"country":"tz","city":"Chilombola","coordinates":{"lat":"-8.9333333","long":"36.7666667"}},{"country":"tz","city":"Chilonwa","coordinates":{"lat":"-6.0333333","long":"36.1333333"}},{"country":"tz","city":"Chilulumo","coordinates":{"lat":"-8.6333333","long":"32.3666667"}},{"country":"tz","city":"Chilungula","coordinates":{"lat":"-10.4666667","long":"38.9333333"}},{"country":"tz","city":"Chimala","coordinates":{"lat":"-8.85","long":"34.0166667"}},{"country":"tz","city":"Chimamba","coordinates":{"lat":"-7.4","long":"35.5"}},{"country":"tz","city":"Chimande","coordinates":{"lat":"-6.95","long":"35.4666667"}},{"country":"tz","city":"Chimate","coordinates":{"lat":"-11.4","long":"34.9333333"}},{"country":"tz","city":"Chimba Mawele","coordinates":{"lat":"-6.05","long":"39.3166667"}},{"country":"tz","city":"Chimbe Chimbe","coordinates":{"lat":"-5.4","long":"38.9833333"}},{"country":"tz","city":"Chimpisi","coordinates":{"lat":"-1.5","long":"30.8166667"}},{"country":"tz","city":"China","coordinates":{"lat":"-3.0","long":"33.0"}},{"country":"tz","city":"Chinangali","coordinates":{"lat":"-6.1333333","long":"36.1"}},{"country":"tz","city":"Chindi","coordinates":{"lat":"-9.0333333","long":"32.5833333"}},{"country":"tz","city":"Chindundu","coordinates":{"lat":"-9.8333333","long":"39.0666667"}},{"country":"tz","city":"Chinganda","coordinates":{"lat":"-7.3","long":"31.5333333"}},{"country":"tz","city":"Chingugu","coordinates":{"lat":"-10.5666667","long":"38.9333333"}},{"country":"tz","city":"Chinjala","coordinates":{"lat":"-11.2","long":"37.5166667"}},{"country":"tz","city":"Chinmongwe","coordinates":{"lat":"-10.4666667","long":"38.9833333"}},{"country":"tz","city":"Chinula","coordinates":{"lat":"-11.2","long":"34.7333333"}},{"country":"tz","city":"Chinunje","coordinates":{"lat":"-11.3166667","long":"37.3166667"}},{"country":"tz","city":"Chinyanghuku","coordinates":{"lat":"-6.8","long":"36.2"}},{"country":"tz","city":"Chinyika","coordinates":{"lat":"-6.7166667","long":"36.15"}},{"country":"tz","city":"Chiola","coordinates":{"lat":"-10.2","long":"38.85"}},{"country":"tz","city":"Chiona","coordinates":{"lat":"-6.4833333","long":"35.8333333"}},{"country":"tz","city":"Chionga","coordinates":{"lat":"-10.5666667","long":"39.3333333"}},{"country":"tz","city":"Chipandi","coordinates":{"lat":"-9.8166667","long":"39.2666667"}},{"country":"tz","city":"Chipelele","coordinates":{"lat":"-11.5333333","long":"37.4166667"}},{"country":"tz","city":"Chipinga","coordinates":{"lat":"-5.3666667","long":"35.0166667"}},{"country":"tz","city":"Chipogolo","coordinates":{"lat":"-6.8666667","long":"36.0333333"}},{"country":"tz","city":"Chipogoro","coordinates":{"lat":"-6.8666667","long":"36.0333333"}},{"country":"tz","city":"Chiponda","coordinates":{"lat":"-10.1","long":"39.4166667"}},{"country":"tz","city":"Chipunda","coordinates":{"lat":"-10.7","long":"38.2666667"}},{"country":"tz","city":"Chipwa","coordinates":{"lat":"-8.5833333","long":"31.1833333"}},{"country":"tz","city":"Chirangani","coordinates":{"lat":"-4.8666667","long":"39.0666667"}},{"country":"tz","city":"Chirara","coordinates":{"lat":"-9.0333333","long":"32.8333333"}},{"country":"tz","city":"Chirugazi","coordinates":{"lat":"-3.35","long":"31.1333333"}},{"country":"tz","city":"Chirurumu","coordinates":{"lat":"-8.6333333","long":"32.3666667"}},{"country":"tz","city":"Chisawe","coordinates":{"lat":"-8.9","long":"35.8666667"}},{"country":"tz","city":"Chisenya","coordinates":{"lat":"-2.6166667","long":"31.8"}},{"country":"tz","city":"Chisi","coordinates":{"lat":"-7.1833333","long":"31.0333333"}},{"country":"tz","city":"Chisokwe","coordinates":{"lat":"-6.3166667","long":"36.4166667"}},{"country":"tz","city":"Chisya","coordinates":{"lat":"-8.65","long":"31.9"}},{"country":"tz","city":"Chita","coordinates":{"lat":"-8.5166667","long":"35.9333333"}},{"country":"tz","city":"Chitanda","coordinates":{"lat":"-11.15","long":"37.3166667"}},{"country":"tz","city":"Chitandi","coordinates":{"lat":"-10.9","long":"39.2833333"}},{"country":"tz","city":"Chitoholi","coordinates":{"lat":"-10.9","long":"39.5333333"}},{"country":"tz","city":"Chitowe","coordinates":{"lat":"-11.05","long":"38.5333333"}},{"country":"tz","city":"Chitwangule","coordinates":{"lat":"-10.8666667","long":"38.6333333"}},{"country":"tz","city":"Chiulu","coordinates":{"lat":"-11.3333333","long":"34.85"}},{"country":"tz","city":"Chiumo","coordinates":{"lat":"-10.9333333","long":"39.65"}},{"country":"tz","city":"Chiungutwa","coordinates":{"lat":"-10.8833333","long":"38.9833333"}},{"country":"tz","city":"Chiuta","coordinates":{"lat":"-10.4666667","long":"39.55"}},{"country":"tz","city":"Chiwambo","coordinates":{"lat":"-10.8166667","long":"39.15"}},{"country":"tz","city":"Chiwanda","coordinates":{"lat":"-9.1666667","long":"32.55"}},{"country":"tz","city":"Chiwanda","coordinates":{"lat":"-11.3666667","long":"34.9"}},{"country":"tz","city":"Chiwata","coordinates":{"lat":"-10.6","long":"39.0666667"}},{"country":"tz","city":"Chiwindi","coordinates":{"lat":"-11.5666667","long":"34.9833333"}},{"country":"tz","city":"Choba","coordinates":{"lat":"-5.4","long":"39.0166667"}},{"country":"tz","city":"Chochani","coordinates":{"lat":"-4.9333333","long":"39.7333333"}},{"country":"tz","city":"Choegoleani","coordinates":{"lat":"-5.0","long":"39.1333333"}},{"country":"tz","city":"Choga","coordinates":{"lat":"-6.9833333","long":"35.25"}},{"country":"tz","city":"Chogowale","coordinates":{"lat":"-6.0666667","long":"37.3666667"}},{"country":"tz","city":"Chokaani","coordinates":{"lat":"-4.9666667","long":"39.6833333"}},{"country":"tz","city":"Chokaningayo","coordinates":{"lat":"-5.0166667","long":"39.8333333"}},{"country":"tz","city":"Chokocho","coordinates":{"lat":"-5.4333333","long":"39.65"}},{"country":"tz","city":"Cholcocho","coordinates":{"lat":"-5.35","long":"39.6666667"}},{"country":"tz","city":"Chole","coordinates":{"lat":"-7.35","long":"38.6666667"}},{"country":"tz","city":"Chole","coordinates":{"lat":"-7.25","long":"35.8833333"}},{"country":"tz","city":"Chole","coordinates":{"lat":"-5.4333333","long":"39.7333333"}},{"country":"tz","city":"Chomachankola","coordinates":{"lat":"-4.0333333","long":"33.35"}},{"country":"tz","city":"Chombe","coordinates":{"lat":"-8.3166667","long":"36.1166667"}},{"country":"tz","city":"Chombeo","coordinates":{"lat":"-5.3","long":"39.75"}},{"country":"tz","city":"Chombo","coordinates":{"lat":"-8.3166667","long":"36.1166667"}},{"country":"tz","city":"Chomwino","coordinates":{"lat":"-7.1","long":"36.2166667"}},{"country":"tz","city":"Chona","coordinates":{"lat":"-5.75","long":"34.0833333"}},{"country":"tz","city":"Chonga","coordinates":{"lat":"-5.3","long":"39.75"}},{"country":"tz","city":"Chonge","coordinates":{"lat":"-5.3","long":"39.75"}},{"country":"tz","city":"Chongo","coordinates":{"lat":"-6.25","long":"30.9833333"}},{"country":"tz","city":"Chongoleani","coordinates":{"lat":"-5.0","long":"39.1333333"}},{"country":"tz","city":"Chongoliani","coordinates":{"lat":"-5.0","long":"39.1333333"}},{"country":"tz","city":"Chongowe","coordinates":{"lat":"-5.9","long":"39.25"}},{"country":"tz","city":"Chonjoni","coordinates":{"lat":"-6.0166667","long":"39.35"}},{"country":"tz","city":"Chonyonyo","coordinates":{"lat":"-1.5702778","long":"31.0652778"}},{"country":"tz","city":"Chosi","coordinates":{"lat":"-8.8333333","long":"34.05"}},{"country":"tz","city":"Choya","coordinates":{"lat":"-9.3","long":"38.4"}},{"country":"tz","city":"Chozina","coordinates":{"lat":"-5.0666667","long":"39.7166667"}},{"country":"tz","city":"Christu","coordinates":{"lat":"-9.1","long":"32.35"}},{"country":"tz","city":"Chuaka","coordinates":{"lat":"-4.95","long":"39.7833333"}},{"country":"tz","city":"Chuaka","coordinates":{"lat":"-5.3833333","long":"39.7833333"}},{"country":"tz","city":"Chubi","coordinates":{"lat":"-4.5333333","long":"36.05"}},{"country":"tz","city":"Chuchumile","coordinates":{"lat":"-6.2166667","long":"39.3833333"}},{"country":"tz","city":"Chuini","coordinates":{"lat":"-5.15","long":"39.75"}},{"country":"tz","city":"Chuini","coordinates":{"lat":"-5.4","long":"39.6333333"}},{"country":"tz","city":"Chuini","coordinates":{"lat":"-6.05","long":"39.2333333"}},{"country":"tz","city":"Chuini Ziwani","coordinates":{"lat":"-6.05","long":"39.2166667"}},{"country":"tz","city":"Chukwani","coordinates":{"lat":"-6.2333333","long":"39.2166667"}},{"country":"tz","city":"Chulwa","coordinates":{"lat":"-4.9166667","long":"38.7666667"}},{"country":"tz","city":"Chumbageni","coordinates":{"lat":"-4.5166667","long":"38.2333333"}},{"country":"tz","city":"Chumbani","coordinates":{"lat":"-4.9","long":"39.7333333"}},{"country":"tz","city":"Chumbuni","coordinates":{"lat":"-5.05","long":"39.65"}},{"country":"tz","city":"Chumbuni","coordinates":{"lat":"-5.1833333","long":"39.7666667"}},{"country":"tz","city":"Chumbuni","coordinates":{"lat":"-6.15","long":"39.2166667"}},{"country":"tz","city":"Chumbuni Dogo","coordinates":{"lat":"-6.15","long":"39.2166667"}},{"country":"tz","city":"Chumbuni Kubwa","coordinates":{"lat":"-6.15","long":"39.2333333"}},{"country":"tz","city":"Chumbuni Village","coordinates":{"lat":"-6.15","long":"39.2166667"}},{"country":"tz","city":"Chumo","coordinates":{"lat":"-8.5666667","long":"39.05"}},{"country":"tz","city":"Chumvini","coordinates":{"lat":"-5.3","long":"39.8"}},{"country":"tz","city":"Chumwe","coordinates":{"lat":"-2.3","long":"33.7"}},{"country":"tz","city":"Chundani","coordinates":{"lat":"-5.2666667","long":"39.8166667"}},{"country":"tz","city":"Chunga","coordinates":{"lat":"-6.1833333","long":"39.2666667"}},{"country":"tz","city":"Chungai","coordinates":{"lat":"-4.6833333","long":"35.8666667"}},{"country":"tz","city":"Chungu","coordinates":{"lat":"-11.1666667","long":"38.45"}},{"country":"tz","city":"Chunguziko","coordinates":{"lat":"-5.3666667","long":"39.6666667"}},{"country":"tz","city":"Chunja","coordinates":{"lat":"-5.1","long":"39.7"}},{"country":"tz","city":"Chununi","coordinates":{"lat":"-5.2666667","long":"39.7666667"}},{"country":"tz","city":"Chunya","coordinates":{"lat":"-8.5333333","long":"33.4166667"}},{"country":"tz","city":"Chunyu","coordinates":{"lat":"-6.3","long":"36.3333333"}},{"country":"tz","city":"Chunyu","coordinates":{"lat":"-9.9","long":"38.9666667"}},{"country":"tz","city":"Chupwe","coordinates":{"lat":"-4.9833333","long":"39.75"}},{"country":"tz","city":"Churuku","coordinates":{"lat":"-5.0166667","long":"36.1"}},{"country":"tz","city":"Chutama","coordinates":{"lat":"-5.9","long":"39.3"}},{"country":"tz","city":"Chuyuni","coordinates":{"lat":"-4.6666667","long":"39.1"}},{"country":"tz","city":"Chwaka","coordinates":{"lat":"-4.95","long":"39.7833333"}},{"country":"tz","city":"Chwaka","coordinates":{"lat":"-6.1666667","long":"39.4333333"}},{"country":"tz","city":"Chwale","coordinates":{"lat":"-5.1","long":"39.8166667"}},{"country":"tz","city":"Chwale","coordinates":{"lat":"-5.35","long":"39.7833333"}},{"country":"tz","city":"Cinyanghuku","coordinates":{"lat":"-6.8","long":"36.2"}},{"country":"tz","city":"Clalula","coordinates":{"lat":"-8.7833333","long":"36.1166667"}},{"country":"tz","city":"Combeni","coordinates":{"lat":"-5.4","long":"39.7333333"}},{"country":"tz","city":"Dabaga","coordinates":{"lat":"-8.1166667","long":"35.9166667"}},{"country":"tz","city":"Dabil","coordinates":{"lat":"-4.2666667","long":"35.4666667"}},{"country":"tz","city":"Daghibure","coordinates":{"lat":"-5.75","long":"34.5"}},{"country":"tz","city":"Dahmi","coordinates":{"lat":"-4.7833333","long":"38.7833333"}},{"country":"tz","city":"Daiya","coordinates":{"lat":"-5.1166667","long":"39.7166667"}},{"country":"tz","city":"Dakawa","coordinates":{"lat":"-6.4333333","long":"37.5333333"}},{"country":"tz","city":"Daluni","coordinates":{"lat":"-4.7833333","long":"38.7833333"}},{"country":"tz","city":"Dambani","coordinates":{"lat":"-6.2666667","long":"39.25"}},{"country":"tz","city":"Darajani","coordinates":{"lat":"-6.0","long":"39.1833333"}},{"country":"tz","city":"Darajini","coordinates":{"lat":"-6.0","long":"39.1833333"}},{"country":"tz","city":"Darambue","coordinates":{"lat":"-6.3833333","long":"32.7"}},{"country":"tz","city":"Dareda","coordinates":{"lat":"-4.2166667","long":"35.55"}},{"country":"tz","city":"Dar es Salaam","coordinates":{"lat":"-5.25","long":"38.8333333"}},{"country":"tz","city":"Dar es Salaam","coordinates":{"lat":"-6.8","long":"39.2833333"}},{"country":"tz","city":"Dar es Salam","coordinates":{"lat":"-6.8","long":"39.2833333"}},{"country":"tz","city":"Dargube","coordinates":{"lat":"-5.1833333","long":"39.0666667"}},{"country":"tz","city":"Darigube","coordinates":{"lat":"-5.1833333","long":"39.0666667"}},{"country":"tz","city":"Dasina","coordinates":{"lat":"-3.0","long":"34.0833333"}},{"country":"tz","city":"Daudi","coordinates":{"lat":"-3.7666667","long":"35.55"}},{"country":"tz","city":"Daura kwa Maweta","coordinates":{"lat":"-5.4666667","long":"38.4666667"}},{"country":"tz","city":"Daya","coordinates":{"lat":"-5.1166667","long":"39.7166667"}},{"country":"tz","city":"Daya","coordinates":{"lat":"-5.2166667","long":"39.75"}},{"country":"tz","city":"Dededi","coordinates":{"lat":"-7.0666667","long":"34.8333333"}},{"country":"tz","city":"Dedu","coordinates":{"lat":"-5.3","long":"35.3666667"}},{"country":"tz","city":"Degere","coordinates":{"lat":"-4.9666667","long":"38.9666667"}},{"country":"tz","city":"Dembani","coordinates":{"lat":"-6.4333333","long":"39.4666667"}},{"country":"tz","city":"Dembesi","coordinates":{"lat":"-4.3","long":"33.4"}},{"country":"tz","city":"Dembezi","coordinates":{"lat":"-4.3","long":"33.4"}},{"country":"tz","city":"Diabohika","coordinates":{"lat":"-3.2047222","long":"31.5997222"}},{"country":"tz","city":"Diambina","coordinates":{"lat":"-6.3166667","long":"39.55"}},{"country":"tz","city":"Didia","coordinates":{"lat":"-3.8166667","long":"33.0833333"}},{"country":"tz","city":"Digobuke","coordinates":{"lat":"-6.1166667","long":"37.3833333"}},{"country":"tz","city":"Digodigo","coordinates":{"lat":"-2.1333333","long":"35.7166667"}},{"country":"tz","city":"Digwa","coordinates":{"lat":"-4.4833333","long":"34.9833333"}},{"country":"tz","city":"Dihimba","coordinates":{"lat":"-10.4166667","long":"39.9833333"}},{"country":"tz","city":"Dikoni","coordinates":{"lat":"-6.1","long":"39.4166667"}},{"country":"tz","city":"Dilo","coordinates":{"lat":"-6.65","long":"39.1"}},{"country":"tz","city":"Dima","coordinates":{"lat":"-4.9333333","long":"38.9"}},{"country":"tz","city":"Dimbani","coordinates":{"lat":"-6.4333333","long":"39.4666667"}},{"country":"tz","city":"Dimbuni","coordinates":{"lat":"-6.3166667","long":"39.55"}},{"country":"tz","city":"Diminineio","coordinates":{"lat":"-8.4833333","long":"34.3666667"}},{"country":"tz","city":"Dindi","coordinates":{"lat":"-6.3666667","long":"39.4666667"}},{"country":"tz","city":"Dindila","coordinates":{"lat":"-4.75","long":"38.45"}},{"country":"tz","city":"Dindindi","coordinates":{"lat":"-5.2","long":"34.15"}},{"country":"tz","city":"Diobahika","coordinates":{"lat":"-3.2047222","long":"31.5997222"}},{"country":"tz","city":"Disa","coordinates":{"lat":"-4.4666667","long":"35.8333333"}},{"country":"tz","city":"Disunyara","coordinates":{"lat":"-6.7333333","long":"38.7333333"}},{"country":"tz","city":"Doda","coordinates":{"lat":"-4.9166667","long":"39.1"}},{"country":"tz","city":"Dodo","coordinates":{"lat":"-5.1833333","long":"39.8"}},{"country":"tz","city":"Dodoma","coordinates":{"lat":"-6.1833333","long":"35.75"}},{"country":"tz","city":"Dodoma","coordinates":{"lat":"-7.2833333","long":"36.35"}},{"country":"tz","city":"Dodoma","coordinates":{"lat":"-8.7333333","long":"33.2833333"}},{"country":"tz","city":"Dodoma","coordinates":{"lat":"-10.6333333","long":"35.8166667"}},{"country":"tz","city":"Dola","coordinates":{"lat":"-6.0166667","long":"39.2166667"}},{"country":"tz","city":"Dole","coordinates":{"lat":"-6.1","long":"39.25"}},{"country":"tz","city":"Doma","coordinates":{"lat":"-7.2333333","long":"37.2166667"}},{"country":"tz","city":"Domokaya","coordinates":{"lat":"-5.3","long":"39.8"}},{"country":"tz","city":"Dondo","coordinates":{"lat":"-7.3","long":"39.3"}},{"country":"tz","city":"Dongabesh","coordinates":{"lat":"-4.0666667","long":"35.3833333"}},{"country":"tz","city":"Donge","coordinates":{"lat":"-5.9333333","long":"39.25"}},{"country":"tz","city":"Donge Kewera","coordinates":{"lat":"-5.95","long":"39.2666667"}},{"country":"tz","city":"Donge Kichavyani","coordinates":{"lat":"-5.95","long":"39.25"}},{"country":"tz","city":"Donge Kisima Wifu","coordinates":{"lat":"-5.95","long":"39.2666667"}},{"country":"tz","city":"Donge Kiungani","coordinates":{"lat":"-5.9333333","long":"39.2666667"}},{"country":"tz","city":"Dongi","coordinates":{"lat":"-5.9333333","long":"39.25"}},{"country":"tz","city":"Dongobesh","coordinates":{"lat":"-4.0666667","long":"35.3833333"}},{"country":"tz","city":"Dongongwe","coordinates":{"lat":"-6.0333333","long":"39.3"}},{"country":"tz","city":"Dongongwi","coordinates":{"lat":"-6.05","long":"39.3"}},{"country":"tz","city":"Dongoni","coordinates":{"lat":"-5.2166667","long":"39.6833333"}},{"country":"tz","city":"Dongonwe","coordinates":{"lat":"-6.0333333","long":"39.3"}},{"country":"tz","city":"Donya","coordinates":{"lat":"-4.2","long":"35.35"}},{"country":"tz","city":"Dosidos","coordinates":{"lat":"-5.6166667","long":"36.4166667"}},{"country":"tz","city":"Dosidosi","coordinates":{"lat":"-5.6166667","long":"36.4166667"}},{"country":"tz","city":"Duamaganga","coordinates":{"lat":"-4.9666667","long":"35.2166667"}},{"country":"tz","city":"Duga","coordinates":{"lat":"-4.7166667","long":"39.1166667"}},{"country":"tz","city":"Dugunyi","coordinates":{"lat":"-5.0833333","long":"34.8"}},{"country":"tz","city":"Dukani Mtuba","coordinates":{"lat":"-5.9666667","long":"39.2666667"}},{"country":"tz","city":"Dukure","coordinates":{"lat":"-3.0666667","long":"32.9166667"}},{"country":"tz","city":"Dumbani","coordinates":{"lat":"-4.75","long":"39.1666667"}},{"country":"tz","city":"Dumbawama","coordinates":{"lat":"-7.3166667","long":"39.3"}},{"country":"tz","city":"Dunda","coordinates":{"lat":"-8.1166667","long":"34.25"}},{"country":"tz","city":"Dundua","coordinates":{"lat":"-5.9166667","long":"39.2"}},{"country":"tz","city":"Dundu","coordinates":{"lat":"-3.1","long":"32.8"}},{"country":"tz","city":"Dundu","coordinates":{"lat":"-4.95","long":"39.75"}},{"country":"tz","city":"Dunduki","coordinates":{"lat":"-6.1166667","long":"39.25"}},{"country":"tz","city":"Dunga","coordinates":{"lat":"-6.1333333","long":"39.3333333"}},{"country":"tz","city":"Dunguie","coordinates":{"lat":"-6.0166667","long":"39.2"}},{"country":"tz","city":"Dungunyi","coordinates":{"lat":"-5.0833333","long":"34.8"}},{"country":"tz","city":"Dunkuki","coordinates":{"lat":"-6.1166667","long":"39.25"}},{"country":"tz","city":"Dutani","coordinates":{"lat":"-4.9833333","long":"39.7666667"}},{"country":"tz","city":"Dutumi","coordinates":{"lat":"-7.3666667","long":"37.8"}},{"country":"tz","city":"Dutumi","coordinates":{"lat":"-6.8666667","long":"38.5666667"}},{"country":"tz","city":"Duwafu","coordinates":{"lat":"-1.0505556","long":"31.8322222"}},{"country":"tz","city":"Dyanyawonga","coordinates":{"lat":"-1.3","long":"30.55"}},{"country":"tz","city":"Dyimbo","coordinates":{"lat":"-7.7666667","long":"39.8666667"}},{"country":"tz","city":"Dzega","coordinates":{"lat":"-5.6666667","long":"35.95"}},{"country":"tz","city":"Elisia","coordinates":{"lat":"-4.7","long":"34.6"}},{"country":"tz","city":"Emaoi","coordinates":{"lat":"-3.3166667","long":"36.65"}},{"country":"tz","city":"Enaboishu","coordinates":{"lat":"-3.35","long":"36.7"}},{"country":"tz","city":"Endabash","coordinates":{"lat":"-3.6","long":"35.6"}},{"country":"tz","city":"Endagikot","coordinates":{"lat":"-3.8666667","long":"35.5333333"}},{"country":"tz","city":"Endalaghanet","coordinates":{"lat":"-4.2333333","long":"35.4166667"}},{"country":"tz","city":"Endalaghranid","coordinates":{"lat":"-4.2333333","long":"35.4166667"}},{"country":"tz","city":"Endarbash","coordinates":{"lat":"-3.6","long":"35.6"}},{"country":"tz","city":"Endasak","coordinates":{"lat":"-4.4166667","long":"35.5166667"}},{"country":"tz","city":"Endasiku","coordinates":{"lat":"-3.8666667","long":"34.7166667"}},{"country":"tz","city":"Endesh","coordinates":{"lat":"-4.6166667","long":"35.1166667"}},{"country":"tz","city":"Endoinet","coordinates":{"lat":"-2.9166667","long":"37.4333333"}},{"country":"tz","city":"Endulen","coordinates":{"lat":"-3.1833333","long":"35.1666667"}},{"country":"tz","city":"Engare Naibor","coordinates":{"lat":"-2.4","long":"36.4"}},{"country":"tz","city":"Engare Nairobi","coordinates":{"lat":"-3.05","long":"37.0"}},{"country":"tz","city":"Engare Nanyuki","coordinates":{"lat":"-3.15","long":"36.85"}},{"country":"tz","city":"Engaruka","coordinates":{"lat":"-2.9833333","long":"35.95"}},{"country":"tz","city":"Engassumet","coordinates":{"lat":"-4.45","long":"37.2333333"}},{"country":"tz","city":"Engruka","coordinates":{"lat":"-2.9833333","long":"35.95"}},{"country":"tz","city":"Epanko","coordinates":{"lat":"-8.7166667","long":"36.6666667"}},{"country":"tz","city":"Fafuni","coordinates":{"lat":"-5.4333333","long":"39.6833333"}},{"country":"tz","city":"Farkwa","coordinates":{"lat":"-5.4","long":"35.6"}},{"country":"tz","city":"Fela","coordinates":{"lat":"-2.65","long":"33.0333333"}},{"country":"tz","city":"Ferefere","coordinates":{"lat":"-4.2333333","long":"37.8333333"}},{"country":"tz","city":"Ficheni","coordinates":{"lat":"-5.9333333","long":"39.3"}},{"country":"tz","city":"Fiengalezia","coordinates":{"lat":"-7.8833333","long":"31.4666667"}},{"country":"tz","city":"Figulwe","coordinates":{"lat":"-6.3333333","long":"30.5166667"}},{"country":"tz","city":"Fimbo","coordinates":{"lat":"-8.5","long":"36.7"}},{"country":"tz","city":"Fimbo","coordinates":{"lat":"-5.1333333","long":"39.7333333"}},{"country":"tz","city":"Finga","coordinates":{"lat":"-5.0","long":"39.7"}},{"country":"tz","city":"Finga","coordinates":{"lat":"-7.5166667","long":"31.4333333"}},{"country":"tz","city":"Fingo","coordinates":{"lat":"-5.0333333","long":"38.5"}},{"country":"tz","city":"Finya","coordinates":{"lat":"-5.0333333","long":"39.7666667"}},{"country":"tz","city":"Finyeuso","coordinates":{"lat":"-5.25","long":"39.7333333"}},{"country":"tz","city":"Fiwaga","coordinates":{"lat":"-8.2166667","long":"35.65"}},{"country":"tz","city":"Fokonyani","coordinates":{"lat":"-5.1166667","long":"39.8"}},{"country":"tz","city":"Foraha","coordinates":{"lat":"-5.25","long":"39.8166667"}},{"country":"tz","city":"Frihini","coordinates":{"lat":"-4.95","long":"39.7666667"}},{"country":"tz","city":"Fueni","coordinates":{"lat":"-5.0666667","long":"39.7333333"}},{"country":"tz","city":"Fueni","coordinates":{"lat":"-5.4166667","long":"39.65"}},{"country":"tz","city":"Fufuni","coordinates":{"lat":"-5.4333333","long":"39.6833333"}},{"country":"tz","city":"Fujanguvu","coordinates":{"lat":"-4.9833333","long":"39.8166667"}},{"country":"tz","city":"Fujoni","coordinates":{"lat":"-6.0","long":"39.2"}},{"country":"tz","city":"Fukayosi","coordinates":{"lat":"-6.4","long":"38.6666667"}},{"country":"tz","city":"Fukuyosi","coordinates":{"lat":"-6.4","long":"38.6666667"}},{"country":"tz","city":"Fulo","coordinates":{"lat":"-2.6666667","long":"33.0166667"}},{"country":"tz","city":"Fulwe","coordinates":{"lat":"-2.65","long":"32.1333333"}},{"country":"tz","city":"Fumba","coordinates":{"lat":"-6.3166667","long":"39.2833333"}},{"country":"tz","city":"Fumbani","coordinates":{"lat":"-5.35","long":"39.6833333"}},{"country":"tz","city":"Fumba Uwandani","coordinates":{"lat":"-6.3","long":"39.2666667"}},{"country":"tz","city":"Fumwali","coordinates":{"lat":"-5.9333333","long":"39.25"}},{"country":"tz","city":"Fundi Mbanga","coordinates":{"lat":"-10.8166667","long":"37.1"}},{"country":"tz","city":"Fungatumbo","coordinates":{"lat":"-5.1666667","long":"39.7833333"}},{"country":"tz","city":"Fungoma","coordinates":{"lat":"-5.9166667","long":"39.25"}},{"country":"tz","city":"Fungoni","coordinates":{"lat":"-7.0166667","long":"39.4166667"}},{"country":"tz","city":"Funika","coordinates":{"lat":"-5.1333333","long":"39.7333333"}},{"country":"tz","city":"Funzi","coordinates":{"lat":"-4.9666667","long":"39.7333333"}},{"country":"tz","city":"Fuoni Chem Chem","coordinates":{"lat":"-6.1833333","long":"39.25"}},{"country":"tz","city":"Fuoni","coordinates":{"lat":"-6.1833333","long":"39.25"}},{"country":"tz","city":"Fuoni Kilimani","coordinates":{"lat":"-6.1833333","long":"39.2333333"}},{"country":"tz","city":"Fuoni Kipungani","coordinates":{"lat":"-6.2","long":"39.2666667"}},{"country":"tz","city":"Fuoni Miembe Miwili","coordinates":{"lat":"-6.2","long":"39.25"}},{"country":"tz","city":"Fusi","coordinates":{"lat":"-10.7","long":"35.4666667"}},{"country":"tz","city":"Futi","coordinates":{"lat":"-4.7833333","long":"38.35"}},{"country":"tz","city":"Gabu","coordinates":{"lat":"-2.8333333","long":"34.0"}},{"country":"tz","city":"Gagaganga","coordinates":{"lat":"-8.7833333","long":"35.8333333"}},{"country":"tz","city":"Gagalai","coordinates":{"lat":"-4.6166667","long":"38.2833333"}},{"country":"tz","city":"Gaganulwa","coordinates":{"lat":"-3.85","long":"33.2333333"}},{"country":"tz","city":"Gailamtungi","coordinates":{"lat":"-5.3833333","long":"39.7"}},{"country":"tz","city":"Gairo","coordinates":{"lat":"-6.15","long":"36.8666667"}},{"country":"tz","city":"Galamila","coordinates":{"lat":"-6.45","long":"32.5666667"}},{"country":"tz","city":"Galapo","coordinates":{"lat":"-4.2666667","long":"35.85"}},{"country":"tz","city":"Galappo","coordinates":{"lat":"-4.2666667","long":"35.85"}},{"country":"tz","city":"Gale","coordinates":{"lat":"-5.1166667","long":"38.7"}},{"country":"tz","city":"Galigali","coordinates":{"lat":"-6.95","long":"36.4833333"}},{"country":"tz","city":"Galukilo","coordinates":{"lat":"-6.4833333","long":"31.3833333"}},{"country":"tz","city":"Galukiro","coordinates":{"lat":"-6.7333333","long":"32.8"}},{"country":"tz","city":"Galula","coordinates":{"lat":"-8.6","long":"33.0333333"}},{"country":"tz","city":"Galula","coordinates":{"lat":"-4.95","long":"31.45"}},{"country":"tz","city":"Gama","coordinates":{"lat":"-6.1833333","long":"38.7666667"}},{"country":"tz","city":"Gamageni","coordinates":{"lat":"-4.8666667","long":"39.0333333"}},{"country":"tz","city":"Gamasara","coordinates":{"lat":"-1.3333333","long":"34.3333333"}},{"country":"tz","city":"Gamba","coordinates":{"lat":"-5.9","long":"39.3"}},{"country":"tz","city":"Gambani","coordinates":{"lat":"-6.1833333","long":"39.3833333"}},{"country":"tz","city":"Gando","coordinates":{"lat":"-4.9833333","long":"39.7"}},{"country":"tz","city":"Gare","coordinates":{"lat":"-4.7833333","long":"38.35"}},{"country":"tz","city":"Gasi","coordinates":{"lat":"-5.1166667","long":"39.7833333"}},{"country":"tz","city":"Gava","coordinates":{"lat":"-4.4666667","long":"37.9166667"}},{"country":"tz","city":"Gawani","coordinates":{"lat":"-5.2666667","long":"39.0666667"}},{"country":"tz","city":"Gawani","coordinates":{"lat":"-5.2","long":"39.8"}},{"country":"tz","city":"Gazija","coordinates":{"lat":"-5.85","long":"39.35"}},{"country":"tz","city":"Geiro","coordinates":{"lat":"-6.15","long":"36.8666667"}},{"country":"tz","city":"Geita","coordinates":{"lat":"-2.8666667","long":"32.1666667"}},{"country":"tz","city":"Gela","coordinates":{"lat":"-2.55","long":"36.0833333"}},{"country":"tz","city":"Gelai","coordinates":{"lat":"-2.55","long":"36.0833333"}},{"country":"tz","city":"Gemela","coordinates":{"lat":"-4.35","long":"33.4"}},{"country":"tz","city":"Gendi","coordinates":{"lat":"-4.2333333","long":"35.75"}},{"country":"tz","city":"Geninje","coordinates":{"lat":"-4.9833333","long":"39.7833333"}},{"country":"tz","city":"Gera","coordinates":{"lat":"-1.2472222","long":"31.7502778"}},{"country":"tz","city":"Gereza","coordinates":{"lat":"-5.1833333","long":"38.5833333"}},{"country":"tz","city":"Geuni","coordinates":{"lat":"-5.8666667","long":"39.2833333"}},{"country":"tz","city":"Geza","coordinates":{"lat":"-5.2333333","long":"39.0333333"}},{"country":"tz","city":"Ghatesh","coordinates":{"lat":"-4.5166667","long":"35.3833333"}},{"country":"tz","city":"Ghombon","coordinates":{"lat":"-3.25","long":"37.4833333"}},{"country":"tz","city":"Gidamunda","coordinates":{"lat":"-2.6","long":"34.25"}},{"country":"tz","city":"Gidamunida","coordinates":{"lat":"-2.6","long":"34.25"}},{"country":"tz","city":"Gilali","coordinates":{"lat":"-4.2333333","long":"33.2333333"}},{"country":"tz","city":"Gingama","coordinates":{"lat":"-10.5333333","long":"34.75"}},{"country":"tz","city":"Gingiliani","coordinates":{"lat":"-2.5833333","long":"34.1833333"}},{"country":"tz","city":"Gininiga","coordinates":{"lat":"-2.4333333","long":"33.7"}},{"country":"tz","city":"Giriama","coordinates":{"lat":"-5.3666667","long":"39.6833333"}},{"country":"tz","city":"Girime","coordinates":{"lat":"-3.95","long":"32.6166667"}},{"country":"tz","city":"Gitala","coordinates":{"lat":"-4.5380556","long":"30.6991667"}},{"country":"tz","city":"Giting","coordinates":{"lat":"-4.4","long":"35.45"}},{"country":"tz","city":"Godegode","coordinates":{"lat":"-6.5333333","long":"36.5666667"}},{"country":"tz","city":"Gofu Chini","coordinates":{"lat":"-5.0833333","long":"39.0666667"}},{"country":"tz","city":"Gofu Juu","coordinates":{"lat":"-5.0833333","long":"39.0666667"}},{"country":"tz","city":"Goima","coordinates":{"lat":"-5.1","long":"36.0166667"}},{"country":"tz","city":"Goman","coordinates":{"lat":"-5.8166667","long":"39.2166667"}},{"country":"tz","city":"Gomani","coordinates":{"lat":"-5.8166667","long":"39.2166667"}},{"country":"tz","city":"Gomba","coordinates":{"lat":"-5.0333333","long":"38.2833333"}},{"country":"tz","city":"Gombani","coordinates":{"lat":"-5.1166667","long":"39.8"}},{"country":"tz","city":"Gombani","coordinates":{"lat":"-5.3833333","long":"39.6666667"}},{"country":"tz","city":"Gombe","coordinates":{"lat":"-8.8666667","long":"33.5166667"}},{"country":"tz","city":"Gombelo","coordinates":{"lat":"-5.4333333","long":"37.45"}},{"country":"tz","city":"Gombelo","coordinates":{"lat":"-4.8333333","long":"38.8"}},{"country":"tz","city":"Gombeni","coordinates":{"lat":"-5.0833333","long":"39.7833333"}},{"country":"tz","city":"Gombero","coordinates":{"lat":"-5.55","long":"37.8166667"}},{"country":"tz","city":"Gombero","coordinates":{"lat":"-4.95","long":"38.95"}},{"country":"tz","city":"Gombwe","coordinates":{"lat":"-6.9666667","long":"35.4833333"}},{"country":"tz","city":"Gongaa","coordinates":{"lat":"-5.2333333","long":"35.75"}},{"country":"tz","city":"Gonga","coordinates":{"lat":"-5.4","long":"35.4333333"}},{"country":"tz","city":"Gongo","coordinates":{"lat":"-5.0166667","long":"39.7166667"}},{"country":"tz","city":"Gongo","coordinates":{"lat":"-6.1833333","long":"38.6"}},{"country":"tz","city":"Gongomali","coordinates":{"lat":"-5.4166667","long":"39.6833333"}},{"country":"tz","city":"Gongoni","coordinates":{"lat":"-4.95","long":"39.75"}},{"country":"tz","city":"Gongoni","coordinates":{"lat":"-5.1666667","long":"39.8"}},{"country":"tz","city":"Gongwe","coordinates":{"lat":"-5.2666667","long":"38.8"}},{"country":"tz","city":"Gonja","coordinates":{"lat":"-4.2666667","long":"38.05"}},{"country":"tz","city":"Gore","coordinates":{"lat":"-5.85","long":"38.0166667"}},{"country":"tz","city":"Goshi","coordinates":{"lat":"-2.8166667","long":"33.4"}},{"country":"tz","city":"Govazani","coordinates":{"lat":"-5.3833333","long":"39.7166667"}},{"country":"tz","city":"Gowani","coordinates":{"lat":"-5.2666667","long":"39.0666667"}},{"country":"tz","city":"Goweko","coordinates":{"lat":"-5.3333333","long":"33.1333333"}},{"country":"tz","city":"Gua","coordinates":{"lat":"-7.8166667","long":"32.4333333"}},{"country":"tz","city":"Guduwe","coordinates":{"lat":"-2.6833333","long":"33.9166667"}},{"country":"tz","city":"Guliguli","coordinates":{"lat":"-3.15","long":"33.95"}},{"country":"tz","city":"Gulioni","coordinates":{"lat":"-5.9833333","long":"39.3666667"}},{"country":"tz","city":"Gulube","coordinates":{"lat":"-6.45","long":"36.4166667"}},{"country":"tz","city":"Gulwe","coordinates":{"lat":"-6.45","long":"36.4166667"}},{"country":"tz","city":"Gumali","coordinates":{"lat":"-3.2333333","long":"33.5166667"}},{"country":"tz","city":"Gumanga","coordinates":{"lat":"-4.2333333","long":"34.6"}},{"country":"tz","city":"Gumbiro","coordinates":{"lat":"-10.2666667","long":"35.65"}},{"country":"tz","city":"Gumbiro ya Zamani","coordinates":{"lat":"-10.0","long":"35.4666667"}},{"country":"tz","city":"Gundangari","coordinates":{"lat":"-3.6","long":"33.7333333"}},{"country":"tz","city":"Gundu","coordinates":{"lat":"-8.5333333","long":"33.5333333"}},{"country":"tz","city":"Gunga","coordinates":{"lat":"-8.5333333","long":"33.5333333"}},{"country":"tz","city":"Gungi","coordinates":{"lat":"-5.3666667","long":"35.35"}},{"country":"tz","city":"Gungii","coordinates":{"lat":"-5.3666667","long":"35.35"}},{"country":"tz","city":"Gungu","coordinates":{"lat":"-4.8572222","long":"29.6438889"}},{"country":"tz","city":"Gunguli Lawashashi","coordinates":{"lat":"-2.6","long":"33.8833333"}},{"country":"tz","city":"Gusaya","coordinates":{"lat":"-3.8666667","long":"33.9666667"}},{"country":"tz","city":"Guse","coordinates":{"lat":"-4.2666667","long":"35.3833333"}},{"country":"tz","city":"Guta","coordinates":{"lat":"-2.0833333","long":"33.7166667"}},{"country":"tz","city":"Gutondwa","coordinates":{"lat":"-5.6333333","long":"30.6166667"}},{"country":"tz","city":"Gutunga","coordinates":{"lat":"-4.85","long":"29.65"}},{"country":"tz","city":"Guwalu","coordinates":{"lat":"-3.25","long":"32.8666667"}},{"country":"tz","city":"Gwani","coordinates":{"lat":"-5.2666667","long":"39.0666667"}},{"country":"tz","city":"Gwanzave","coordinates":{"lat":"-4.2666667","long":"35.85"}},{"country":"tz","city":"Gwara","coordinates":{"lat":"-2.1666667","long":"35.8333333"}},{"country":"tz","city":"Gwishanimoyo","coordinates":{"lat":"-5.0166667","long":"39.8166667"}},{"country":"tz","city":"Hakachindo","coordinates":{"lat":"-2.6833333","long":"32.4833333"}},{"country":"tz","city":"Hakaro","coordinates":{"lat":"-5.0333333","long":"38.4"}},{"country":"tz","city":"Hakichoo","coordinates":{"lat":"-4.5833333","long":"38.2"}},{"country":"tz","city":"Hakidevu","coordinates":{"lat":"-4.55","long":"38.2166667"}},{"country":"tz","city":"Hakigulu","coordinates":{"lat":"-5.0333333","long":"38.4333333"}},{"country":"tz","city":"Hale","coordinates":{"lat":"-5.2833333","long":"38.6"}},{"country":"tz","city":"Halembe","coordinates":{"lat":"-5.6833333","long":"29.9"}},{"country":"tz","city":"Halo","coordinates":{"lat":"-5.8","long":"35.8"}},{"country":"tz","city":"Halomo","coordinates":{"lat":"-4.5333333","long":"38.2333333"}},{"country":"tz","city":"Hamago","coordinates":{"lat":"-5.0","long":"38.4333333"}},{"country":"tz","city":"Hambalai","coordinates":{"lat":"-4.8833333","long":"38.3333333"}},{"country":"tz","city":"Hambayo","coordinates":{"lat":"-4.6333333","long":"38.2333333"}},{"country":"tz","city":"Hambili","coordinates":{"lat":"-8.6333333","long":"33.7666667"}},{"country":"tz","city":"Hamukoko","coordinates":{"lat":"-2.1333333","long":"33.1333333"}},{"country":"tz","city":"Handa","coordinates":{"lat":"-4.9333333","long":"35.3333333"}},{"country":"tz","city":"Handajega","coordinates":{"lat":"-2.25","long":"34.1"}},{"country":"tz","city":"Handajegu","coordinates":{"lat":"-2.25","long":"34.1"}},{"country":"tz","city":"Handali","coordinates":{"lat":"-6.3333333","long":"36.0"}},{"country":"tz","city":"Handei","coordinates":{"lat":"-4.8","long":"38.3666667"}},{"country":"tz","city":"Handeni","coordinates":{"lat":"-5.4333333","long":"38.0166667"}},{"country":"tz","city":"Haneti","coordinates":{"lat":"-5.4833333","long":"35.8833333"}},{"country":"tz","city":"Hangambali","coordinates":{"lat":"-10.35","long":"39.6666667"}},{"country":"tz","city":"Hanyegwa Mohana","coordinates":{"lat":"-6.1666667","long":"39.3833333"}},{"country":"tz","city":"Harui","coordinates":{"lat":"-4.35","long":"35.9"}},{"country":"tz","city":"Hasole","coordinates":{"lat":"-6.25","long":"30.05"}},{"country":"tz","city":"Hatharamote","coordinates":{"lat":"-5.0333333","long":"39.7833333"}},{"country":"tz","city":"Haubi","coordinates":{"lat":"-4.8","long":"35.9666667"}},{"country":"tz","city":"Hawana","coordinates":{"lat":"-5.4333333","long":"39.7"}},{"country":"tz","city":"Hayombom","coordinates":{"lat":"-4.9666667","long":"39.1166667"}},{"country":"tz","city":"Hdimikipiaji","coordinates":{"lat":"-11.15","long":"37.55"}},{"country":"tz","city":"Hebangwe","coordinates":{"lat":"-4.9333333","long":"38.3833333"}},{"country":"tz","city":"Hebula","coordinates":{"lat":"-4.5333333","long":"38.2333333"}},{"country":"tz","city":"Hebwewe","coordinates":{"lat":"-5.2333333","long":"38.8"}},{"country":"tz","city":"Hedaru","coordinates":{"lat":"-4.5","long":"37.9"}},{"country":"tz","city":"Hegoma","coordinates":{"lat":"-4.1833333","long":"38.0"}},{"country":"tz","city":"Hegongo","coordinates":{"lat":"-5.15","long":"38.7666667"}},{"country":"tz","city":"Helizaka","coordinates":{"lat":"-5.2666667","long":"38.5833333"}},{"country":"tz","city":"Heluli","coordinates":{"lat":"-4.7333333","long":"38.4"}},{"country":"tz","city":"Hemagoda","coordinates":{"lat":"-5.0166667","long":"38.3833333"}},{"country":"tz","city":"Hemagoma","coordinates":{"lat":"-4.8666667","long":"38.5833333"}},{"country":"tz","city":"Hemah","coordinates":{"lat":"-2.3","long":"35.8333333"}},{"country":"tz","city":"Hemalui","coordinates":{"lat":"-5.1333333","long":"38.7333333"}},{"country":"tz","city":"Hemalunga","coordinates":{"lat":"-4.85","long":"38.3"}},{"country":"tz","city":"Hembalai","coordinates":{"lat":"-4.8833333","long":"38.3333333"}},{"country":"tz","city":"Hembeti","coordinates":{"lat":"-6.2833333","long":"37.4833333"}},{"country":"tz","city":"Hembola","coordinates":{"lat":"-4.7333333","long":"38.4666667"}},{"country":"tz","city":"Hemedi","coordinates":{"lat":"-9.6","long":"37.4666667"}},{"country":"tz","city":"Hemgwiza","coordinates":{"lat":"-4.5166667","long":"38.35"}},{"country":"tz","city":"Hemkole","coordinates":{"lat":"-4.8","long":"38.7833333"}},{"country":"tz","city":"Hemwali","coordinates":{"lat":"-5.2666667","long":"38.7666667"}},{"country":"tz","city":"Hemwuti","coordinates":{"lat":"-4.6666667","long":"38.3666667"}},{"country":"tz","city":"Henangu","coordinates":{"lat":"-4.7666667","long":"38.1833333"}},{"country":"tz","city":"Hendawashi","coordinates":{"lat":"-3.95","long":"34.2833333"}},{"country":"tz","city":"Hepala","coordinates":{"lat":"-4.8166667","long":"38.2"}},{"country":"tz","city":"Heru","coordinates":{"lat":"-4.1822222","long":"30.2663889"}},{"country":"tz","city":"Heru Juu","coordinates":{"lat":"-4.5325","long":"30.0616667"}},{"country":"tz","city":"Hiari","coordinates":{"lat":"-6.3333333","long":"39.5333333"}},{"country":"tz","city":"Himo","coordinates":{"lat":"-3.3833333","long":"37.55"}},{"country":"tz","city":"Himwa","coordinates":{"lat":"-6.9666667","long":"35.6666667"}},{"country":"tz","city":"Hindawashi","coordinates":{"lat":"-3.95","long":"34.2833333"}},{"country":"tz","city":"Hindi","coordinates":{"lat":"-5.1333333","long":"39.8"}},{"country":"tz","city":"Hindu","coordinates":{"lat":"-6.15","long":"39.2166667"}},{"country":"tz","city":"Hogoro","coordinates":{"lat":"-5.95","long":"36.45"}},{"country":"tz","city":"Holeni","coordinates":{"lat":"-8.7166667","long":"33.45"}},{"country":"tz","city":"Holo","coordinates":{"lat":"-7.3666667","long":"35.9333333"}},{"country":"tz","city":"Holola","coordinates":{"lat":"-10.9166667","long":"38.75"}},{"country":"tz","city":"Hombolo","coordinates":{"lat":"-5.9","long":"35.95"}},{"country":"tz","city":"Hombuzi","coordinates":{"lat":"-4.8333333","long":"38.2666667"}},{"country":"tz","city":"Hongi","coordinates":{"lat":"-11.1","long":"34.65"}},{"country":"tz","city":"Hosa","coordinates":{"lat":"-5.5666667","long":"37.9333333"}},{"country":"tz","city":"Humbi","coordinates":{"lat":"-6.3166667","long":"36.8333333"}},{"country":"tz","city":"Humekwa","coordinates":{"lat":"-5.5333333","long":"35.7166667"}},{"country":"tz","city":"Humwa","coordinates":{"lat":"-6.1666667","long":"35.8833333"}},{"country":"tz","city":"Hundu","coordinates":{"lat":"-4.7333333","long":"39.1166667"}},{"country":"tz","city":"Hunyari","coordinates":{"lat":"-2.0","long":"34.1"}},{"country":"tz","city":"Hurmozi","coordinates":{"lat":"-5.3833333","long":"39.6333333"}},{"country":"tz","city":"Hurui","coordinates":{"lat":"-4.35","long":"35.9"}},{"country":"tz","city":"Hurumuzi","coordinates":{"lat":"-5.25","long":"39.8333333"}},{"country":"tz","city":"Hurumzi","coordinates":{"lat":"-5.1166667","long":"39.7"}},{"country":"tz","city":"Huwe","coordinates":{"lat":"-10.9166667","long":"38.9833333"}},{"country":"tz","city":"Huzi","coordinates":{"lat":"-6.7","long":"35.3666667"}},{"country":"tz","city":"Iambi","coordinates":{"lat":"-4.35","long":"34.75"}},{"country":"tz","city":"Ibaba","coordinates":{"lat":"-9.4","long":"33.35"}},{"country":"tz","city":"Ibadakule","coordinates":{"lat":"-3.6333333","long":"33.5"}},{"country":"tz","city":"Ibadakuli","coordinates":{"lat":"-3.6333333","long":"33.5"}},{"country":"tz","city":"Ibaka","coordinates":{"lat":"-7.3","long":"36.15"}},{"country":"tz","city":"Ibala","coordinates":{"lat":"-8.7","long":"34.3666667"}},{"country":"tz","city":"Ibanda","coordinates":{"lat":"-2.6333333","long":"32.9333333"}},{"country":"tz","city":"Ibanda","coordinates":{"lat":"-4.5","long":"32.7166667"}},{"country":"tz","city":"Ibangi","coordinates":{"lat":"-8.5833333","long":"34.8833333"}},{"country":"tz","city":"Ibare","coordinates":{"lat":"-1.2752778","long":"30.6455556"}},{"country":"tz","city":"Ibenamtundi","coordinates":{"lat":"-6.3166667","long":"34.5833333"}},{"country":"tz","city":"Iberege","coordinates":{"lat":"-8.5166667","long":"34.7333333"}},{"country":"tz","city":"Ibeta","coordinates":{"lat":"-5.2333333","long":"32.5333333"}},{"country":"tz","city":"Ibeya","coordinates":{"lat":"-5.2333333","long":"32.5333333"}},{"country":"tz","city":"Ibibo","coordinates":{"lat":"-6.0","long":"37.1"}},{"country":"tz","city":"Ibihwa","coordinates":{"lat":"-5.9166667","long":"35.3666667"}},{"country":"tz","city":"Ibindi","coordinates":{"lat":"-6.5333333","long":"31.0833333"}},{"country":"tz","city":"Ibindo","coordinates":{"lat":"-2.8","long":"33.45"}},{"country":"tz","city":"Ibingo","coordinates":{"lat":"-3.8","long":"33.35"}},{"country":"tz","city":"Ibiri","coordinates":{"lat":"-4.9333333","long":"32.55"}},{"country":"tz","city":"Ibiso","coordinates":{"lat":"-1.7166667","long":"33.85"}},{"country":"tz","city":"Ibisu","coordinates":{"lat":"-1.7166667","long":"33.85"}},{"country":"tz","city":"Ibolero","coordinates":{"lat":"-4.7436111","long":"31.0861111"}},{"country":"tz","city":"Ibologero","coordinates":{"lat":"-3.2","long":"33.7"}},{"country":"tz","city":"Ibombwe","coordinates":{"lat":"-5.6333333","long":"30.6166667"}},{"country":"tz","city":"Ibondo","coordinates":{"lat":"-2.6333333","long":"32.6666667"}},{"country":"tz","city":"Iborogero","coordinates":{"lat":"-3.2","long":"33.7"}},{"country":"tz","city":"Ibowola","coordinates":{"lat":"-7.8","long":"35.1"}},{"country":"tz","city":"Ibuga","coordinates":{"lat":"-1.6477778","long":"31.5883333"}},{"country":"tz","city":"Ibugo","coordinates":{"lat":"-2.6661111","long":"30.4694444"}},{"country":"tz","city":"Ibulwa","coordinates":{"lat":"-5.2166667","long":"32.65"}},{"country":"tz","city":"Ibumila","coordinates":{"lat":"-5.9","long":"36.45"}},{"country":"tz","city":"Ibumu","coordinates":{"lat":"-7.3833333","long":"36.0833333"}},{"country":"tz","city":"Ibungu","coordinates":{"lat":"-8.6","long":"33.15"}},{"country":"tz","city":"Ibuswa","coordinates":{"lat":"-3.1666667","long":"32.5833333"}},{"country":"tz","city":"Ibwaga","coordinates":{"lat":"-6.2333333","long":"36.4666667"}},{"country":"tz","city":"Ibwera","coordinates":{"lat":"-1.4825","long":"31.6347222"}},{"country":"tz","city":"Ichese","coordinates":{"lat":"-7.8","long":"31.7666667"}},{"country":"tz","city":"Idegesi","coordinates":{"lat":"-7.8333333","long":"35.4833333"}},{"country":"tz","city":"Idete","coordinates":{"lat":"-8.1","long":"36.4833333"}},{"country":"tz","city":"Idetemia","coordinates":{"lat":"-2.7","long":"32.9833333"}},{"country":"tz","city":"Idetemia","coordinates":{"lat":"-3.1333333","long":"32.5"}},{"country":"tz","city":"Idibo","coordinates":{"lat":"-6.0","long":"37.1"}},{"country":"tz","city":"Idifu","coordinates":{"lat":"-6.4333333","long":"35.9833333"}},{"country":"tz","city":"Idodi","coordinates":{"lat":"-7.7833333","long":"35.1833333"}},{"country":"tz","city":"Idodoma","coordinates":{"lat":"-6.1833333","long":"35.75"}},{"country":"tz","city":"Idoo","coordinates":{"lat":"-6.3333333","long":"36.6666667"}},{"country":"tz","city":"Idoselo","coordinates":{"lat":"-3.0","long":"33.9333333"}},{"country":"tz","city":"Idugala","coordinates":{"lat":"-6.6666667","long":"35.5833333"}},{"country":"tz","city":"Idugumbi","coordinates":{"lat":"-8.7333333","long":"33.0666667"}},{"country":"tz","city":"Idukiro","coordinates":{"lat":"-3.45","long":"33.6666667"}},{"country":"tz","city":"Idulo","coordinates":{"lat":"-4.0","long":"35.7666667"}},{"country":"tz","city":"Idunda","coordinates":{"lat":"-8.4833333","long":"36.7"}},{"country":"tz","city":"Iduo","coordinates":{"lat":"-6.2666667","long":"36.65"}},{"country":"tz","city":"Idya","coordinates":{"lat":"-5.1166667","long":"39.7166667"}},{"country":"tz","city":"Ifakara","coordinates":{"lat":"-8.1333333","long":"36.6833333"}},{"country":"tz","city":"Ifekenya","coordinates":{"lat":"-8.6666667","long":"33.1666667"}},{"country":"tz","city":"Ifema","coordinates":{"lat":"-8.9166667","long":"35.95"}},{"country":"tz","city":"Ifiga","coordinates":{"lat":"-8.2","long":"35.8"}},{"country":"tz","city":"Ifimbwe","coordinates":{"lat":"-5.1836111","long":"31.1169444"}},{"country":"tz","city":"Ifinga","coordinates":{"lat":"-9.5","long":"35.5"}},{"country":"tz","city":"Ifua","coordinates":{"lat":"-7.7166667","long":"36.3833333"}},{"country":"tz","city":"Ifuenga","coordinates":{"lat":"-8.0666667","long":"35.7166667"}},{"country":"tz","city":"Ifuguru","coordinates":{"lat":"-7.6","long":"35.05"}},{"country":"tz","city":"Ifunda","coordinates":{"lat":"-7.3333333","long":"36.1833333"}},{"country":"tz","city":"Ifuro","coordinates":{"lat":"-8.5333333","long":"33.0"}},{"country":"tz","city":"Ifwagi","coordinates":{"lat":"-8.5666667","long":"35.3333333"}},{"country":"tz","city":"Ifwambo","coordinates":{"lat":"-7.1166667","long":"36.1"}},{"country":"tz","city":"Igaganulwa","coordinates":{"lat":"-2.5","long":"33.9833333"}},{"country":"tz","city":"Igalamia","coordinates":{"lat":"-3.7666667","long":"33.1833333"}},{"country":"tz","city":"Igala Rutale","coordinates":{"lat":"-2.05","long":"32.95"}},{"country":"tz","city":"Igalele","coordinates":{"lat":"-7.8166667","long":"32.45"}},{"country":"tz","city":"Igali","coordinates":{"lat":"-8.35","long":"33.05"}},{"country":"tz","city":"Igalukiro","coordinates":{"lat":"-2.4166667","long":"33.7166667"}},{"country":"tz","city":"Igalukiro","coordinates":{"lat":"-3.1333333","long":"33.5166667"}},{"country":"tz","city":"Igalula","coordinates":{"lat":"-5.3","long":"30.8833333"}},{"country":"tz","city":"Igalula","coordinates":{"lat":"-8.6","long":"33.0333333"}},{"country":"tz","city":"Igalula","coordinates":{"lat":"-4.95","long":"32.8333333"}},{"country":"tz","city":"Igalula","coordinates":{"lat":"-7.25","long":"31.0333333"}},{"country":"tz","city":"Igamba","coordinates":{"lat":"-9.0","long":"32.9166667"}},{"country":"tz","city":"Igamba","coordinates":{"lat":"-4.8333333","long":"31.5666667"}},{"country":"tz","city":"Igambia","coordinates":{"lat":"-4.85","long":"32.7166667"}},{"country":"tz","city":"Igarukiro","coordinates":{"lat":"-3.1333333","long":"33.5166667"}},{"country":"tz","city":"Igata","coordinates":{"lat":"-8.95","long":"36.0833333"}},{"country":"tz","city":"Igaua","coordinates":{"lat":"-8.8833333","long":"36.1166667"}},{"country":"tz","city":"Igawa","coordinates":{"lat":"-7.5333333","long":"35.2"}},{"country":"tz","city":"Igawa","coordinates":{"lat":"-8.5833333","long":"34.4666667"}},{"country":"tz","city":"Igawilo","coordinates":{"lat":"-8.6166667","long":"34.6666667"}},{"country":"tz","city":"Igayaza","coordinates":{"lat":"-1.1302778","long":"31.3941667"}},{"country":"tz","city":"Igea","coordinates":{"lat":"-8.7","long":"34.3666667"}},{"country":"tz","city":"Igemba","coordinates":{"lat":"-3.9666667","long":"33.0833333"}},{"country":"tz","city":"Igembya","coordinates":{"lat":"-3.9666667","long":"33.0833333"}},{"country":"tz","city":"Igenge","coordinates":{"lat":"-1.5","long":"33.7"}},{"country":"tz","city":"Igengu","coordinates":{"lat":"-4.1333333","long":"34.55"}},{"country":"tz","city":"Igigwa","coordinates":{"lat":"-5.3833333","long":"32.8333333"}},{"country":"tz","city":"Igode","coordinates":{"lat":"-7.15","long":"36.45"}},{"country":"tz","city":"Igogo","coordinates":{"lat":"-6.7166667","long":"33.85"}},{"country":"tz","city":"Igohungila","coordinates":{"lat":"-7.5666667","long":"34.6666667"}},{"country":"tz","city":"Igoje","coordinates":{"lat":"-6.6666667","long":"36.15"}},{"country":"tz","city":"Igoji","coordinates":{"lat":"-6.6666667","long":"36.15"}},{"country":"tz","city":"Igokelo","coordinates":{"lat":"-2.5166667","long":"33.5"}},{"country":"tz","city":"Igoma","coordinates":{"lat":"-7.85","long":"33.3333333"}},{"country":"tz","city":"Igombe","coordinates":{"lat":"-2.4","long":"32.95"}},{"country":"tz","city":"Igombe","coordinates":{"lat":"-3.7666667","long":"32.9666667"}},{"country":"tz","city":"Igominyi","coordinates":{"lat":"-9.45","long":"34.8833333"}},{"country":"tz","city":"Igomo","coordinates":{"lat":"-6.05","long":"30.2833333"}},{"country":"tz","city":"Igona","coordinates":{"lat":"-5.3333333","long":"31.3166667"}},{"country":"tz","city":"Igonge","coordinates":{"lat":"-6.2166667","long":"30.2666667"}},{"country":"tz","city":"Igongo","coordinates":{"lat":"-6.2333333","long":"35.1833333"}},{"country":"tz","city":"Igongwa","coordinates":{"lat":"-2.9166667","long":"33.0333333"}},{"country":"tz","city":"Igoye","coordinates":{"lat":"-8.9","long":"33.7"}},{"country":"tz","city":"Igrumiti","coordinates":{"lat":"-8.4833333","long":"35.7333333"}},{"country":"tz","city":"Iguguno","coordinates":{"lat":"-4.5666667","long":"34.6333333"}},{"country":"tz","city":"Igugunu","coordinates":{"lat":"-4.5666667","long":"34.6333333"}},{"country":"tz","city":"Igula","coordinates":{"lat":"-7.25","long":"34.6666667"}},{"country":"tz","city":"Iguloka","coordinates":{"lat":"-8.8666667","long":"36.1166667"}},{"country":"tz","city":"Igululilo","coordinates":{"lat":"-7.3666667","long":"33.4333333"}},{"country":"tz","city":"Igumira","coordinates":{"lat":"-6.8166667","long":"33.2833333"}},{"country":"tz","city":"Igunda","coordinates":{"lat":"-7.35","long":"36.3333333"}},{"country":"tz","city":"Igunda","coordinates":{"lat":"-8.55","long":"34.45"}},{"country":"tz","city":"Igunga","coordinates":{"lat":"-8.2666667","long":"35.7166667"}},{"country":"tz","city":"Igunga","coordinates":{"lat":"-4.2833333","long":"33.8833333"}},{"country":"tz","city":"Igunzi","coordinates":{"lat":"-5.0736111","long":"30.1844444"}},{"country":"tz","city":"Igurubi","coordinates":{"lat":"-4.0","long":"33.7"}},{"country":"tz","city":"Igurunzi","coordinates":{"lat":"-8.85","long":"33.85"}},{"country":"tz","city":"Igurusi","coordinates":{"lat":"-8.85","long":"33.85"}},{"country":"tz","city":"Igusule","coordinates":{"lat":"-3.95","long":"32.8833333"}},{"country":"tz","city":"Igwachu","coordinates":{"lat":"-8.7833333","long":"36.0333333"}},{"country":"tz","city":"Igwamaneni","coordinates":{"lat":"-5.15","long":"32.6666667"}},{"country":"tz","city":"Igwamutwa","coordinates":{"lat":"-8.1666667","long":"35.6"}},{"country":"tz","city":"Igwisi","coordinates":{"lat":"-4.9166667","long":"32.0166667"}},{"country":"tz","city":"Ihale","coordinates":{"lat":"-2.4333333","long":"32.9333333"}},{"country":"tz","city":"Ihalele","coordinates":{"lat":"-3.0166667","long":"32.7666667"}},{"country":"tz","city":"Ihalimba","coordinates":{"lat":"-8.25","long":"35.5333333"}},{"country":"tz","city":"Ihalo","coordinates":{"lat":"-2.6","long":"33.5166667"}},{"country":"tz","city":"Ihanamilo","coordinates":{"lat":"-2.9666667","long":"32.2833333"}},{"country":"tz","city":"Ihanda","coordinates":{"lat":"-9.1666667","long":"32.8666667"}},{"country":"tz","city":"Ihanda","coordinates":{"lat":"-1.5633333","long":"31.1211111"}},{"country":"tz","city":"Ihangi","coordinates":{"lat":"-8.7","long":"33.2833333"}},{"country":"tz","city":"Ihango","coordinates":{"lat":"-8.0833333","long":"36.6"}},{"country":"tz","city":"Ihango","coordinates":{"lat":"-8.7","long":"33.2833333"}},{"country":"tz","city":"Ihanja","coordinates":{"lat":"-5.0666667","long":"34.6666667"}},{"country":"tz","city":"Ihanzutwa","coordinates":{"lat":"-8.2","long":"35.05"}},{"country":"tz","city":"Ihapula","coordinates":{"lat":"-3.8833333","long":"32.2666667"}},{"country":"tz","city":"Ihayabuya","coordinates":{"lat":"-2.3833333","long":"33.6833333"}},{"country":"tz","city":"Ihebo","coordinates":{"lat":"-2.0","long":"32.8833333"}},{"country":"tz","city":"Ihembe","coordinates":{"lat":"-1.7388889","long":"31.1338889"}},{"country":"tz","city":"Ihembe I","coordinates":{"lat":"-1.7236111","long":"31.1427778"}},{"country":"tz","city":"Ihembe II","coordinates":{"lat":"-1.7063889","long":"31.1558333"}},{"country":"tz","city":"Iheme","coordinates":{"lat":"-8.0166667","long":"35.5166667"}},{"country":"tz","city":"Ihimbe","coordinates":{"lat":"-7.9","long":"35.8"}},{"country":"tz","city":"Ihimbu","coordinates":{"lat":"-7.9","long":"35.8"}},{"country":"tz","city":"Ihimbwa","coordinates":{"lat":"-6.9666667","long":"35.6666667"}},