[{"country":"nl","city":"1e Exloërmond","coordinates":{"lat":"52.940973","long":"6.96853"}},{"country":"nl","city":"2e Exloërmond","coordinates":{"lat":"52.92035","long":"6.965004"}},{"country":"nl","city":"2e Valthermond","coordinates":{"lat":"52.891994","long":"7.026013"}},{"country":"nl","city":"2e Vlotbrug","coordinates":{"lat":"51.853179","long":"4.196482"}},{"country":"nl","city":"Aadorp","coordinates":{"lat":"52.374006","long":"6.61527"}},{"country":"nl","city":"Aagtdorn","coordinates":{"lat":"52.690802","long":"4.700756"}},{"country":"nl","city":"Aagtdorp","coordinates":{"lat":"52.690802","long":"4.700756"}},{"country":"nl","city":"Aagtekerke","coordinates":{"lat":"51.546737","long":"3.512182"}},{"country":"nl","city":"Aaien","coordinates":{"lat":"51.585338","long":"6.041093"}},{"country":"nl","city":"Aaijen","coordinates":{"lat":"51.585338","long":"6.041093"}},{"country":"nl","city":"Aalanden","coordinates":{"lat":"52.533343","long":"6.100685"}},{"country":"nl","city":"Aalbeek","coordinates":{"lat":"50.902252","long":"5.850399"}},{"country":"nl","city":"Aalburg","coordinates":{"lat":"51.757179","long":"5.130263"}},{"country":"nl","city":"Aalden","coordinates":{"lat":"52.791717","long":"6.718317"}},{"country":"nl","city":"Aaldonk","coordinates":{"lat":"51.713509","long":"6.000237"}},{"country":"nl","city":"Aalsmeer","coordinates":{"lat":"52.266667","long":"4.766667"}},{"country":"nl","city":"Aalsmeerderbrug","coordinates":{"lat":"52.270428","long":"4.749978"}},{"country":"nl","city":"Aalst","coordinates":{"lat":"51.783088","long":"5.127764"}},{"country":"nl","city":"Aalst","coordinates":{"lat":"51.4","long":"5.483333"}},{"country":"nl","city":"Aalsum","coordinates":{"lat":"53.340351","long":"6.006151"}},{"country":"nl","city":"Aalsum","coordinates":{"lat":"53.307707","long":"6.370865"}},{"country":"nl","city":"Aalten","coordinates":{"lat":"51.92597","long":"6.58045"}},{"country":"nl","city":"Aalzum","coordinates":{"lat":"53.340351","long":"6.006151"}},{"country":"nl","city":"Aam","coordinates":{"lat":"51.917457","long":"5.868904"}},{"country":"nl","city":"Aan de Berg","coordinates":{"lat":"51.09645","long":"5.987388"}},{"country":"nl","city":"Aan de Bergen","coordinates":{"lat":"51.265248","long":"5.871793"}},{"country":"nl","city":"Aan de Maas","coordinates":{"lat":"50.928189","long":"5.738892"}},{"country":"nl","city":"Aan de Popelaar","coordinates":{"lat":"51.054987","long":"5.941484"}},{"country":"nl","city":"Aandepoppelaar","coordinates":{"lat":"51.054987","long":"5.941484"}},{"country":"nl","city":"Aan de School","coordinates":{"lat":"51.06223","long":"5.96718"}},{"country":"nl","city":"Aan de Zuwe","coordinates":{"lat":"52.171395","long":"4.901829"}},{"country":"nl","city":"Aan het Broek","coordinates":{"lat":"51.133333","long":"6.083333"}},{"country":"nl","city":"Aan Reijans","coordinates":{"lat":"51.04923","long":"5.928799"}},{"country":"nl","city":"Aanschot","coordinates":{"lat":"51.479084","long":"5.475876"}},{"country":"nl","city":"Aanwas","coordinates":{"lat":"51.393149","long":"4.316038"}},{"country":"nl","city":"Aard","coordinates":{"lat":"51.894317","long":"6.082728"}},{"country":"nl","city":"Aardam","coordinates":{"lat":"52.166667","long":"4.766667"}},{"country":"nl","city":"Aardenburg","coordinates":{"lat":"51.28905","long":"3.442887"}},{"country":"nl","city":"Aardenhout","coordinates":{"lat":"52.366921","long":"4.597498"}},{"country":"nl","city":"Aardswoud","coordinates":{"lat":"52.742678","long":"4.948309"}},{"country":"nl","city":"Aardt","coordinates":{"lat":"51.894317","long":"6.082728"}},{"country":"nl","city":"Aarlanderveen","coordinates":{"lat":"52.140168","long":"4.732197"}},{"country":"nl","city":"Aarle","coordinates":{"lat":"51.513336","long":"5.363659"}},{"country":"nl","city":"Aartswoud","coordinates":{"lat":"52.742678","long":"4.948309"}},{"country":"nl","city":"Aartwoud","coordinates":{"lat":"52.742678","long":"4.948309"}},{"country":"nl","city":"Aasterberg","coordinates":{"lat":"51.101607","long":"5.839733"}},{"country":"nl","city":"Aasterein","coordinates":{"lat":"53.403971","long":"5.375601"}},{"country":"nl","city":"Abbega","coordinates":{"lat":"53.019034","long":"5.57161"}},{"country":"nl","city":"Abbegaasterketting","coordinates":{"lat":"53.024095","long":"5.56299"}},{"country":"nl","city":"Abbekerk","coordinates":{"lat":"52.730825","long":"5.019274"}},{"country":"nl","city":"Abbekinderen","coordinates":{"lat":"51.482372","long":"3.917796"}},{"country":"nl","city":"Abbenbroek","coordinates":{"lat":"51.849024","long":"4.248172"}},{"country":"nl","city":"Abbenes","coordinates":{"lat":"52.235421","long":"4.590582"}},{"country":"nl","city":"Abbengawier","coordinates":{"lat":"53.064754","long":"5.790586"}},{"country":"nl","city":"Abbestede","coordinates":{"lat":"52.850689","long":"4.716275"}},{"country":"nl","city":"Abbeweer","coordinates":{"lat":"53.064754","long":"5.790586"}},{"country":"nl","city":"Abbewier","coordinates":{"lat":"53.383333","long":"6.15"}},{"country":"nl","city":"Abbingawier","coordinates":{"lat":"53.064754","long":"5.790586"}},{"country":"nl","city":"Abcoude","coordinates":{"lat":"52.272429","long":"4.971939"}},{"country":"nl","city":"Abcoven","coordinates":{"lat":"51.525246","long":"5.085728"}},{"country":"nl","city":"Abdissenbosch","coordinates":{"lat":"50.916667","long":"6.033333"}},{"country":"nl","city":"Abkoude","coordinates":{"lat":"52.272429","long":"4.971939"}},{"country":"nl","city":"Absdale","coordinates":{"lat":"51.267901","long":"4.00262"}},{"country":"nl","city":"Abshoven","coordinates":{"lat":"50.970156","long":"5.851853"}},{"country":"nl","city":"Abswoude","coordinates":{"lat":"51.975138","long":"4.358148"}},{"country":"nl","city":"Abtsdale","coordinates":{"lat":"51.267901","long":"4.00262"}},{"country":"nl","city":"Abtswoude","coordinates":{"lat":"51.975138","long":"4.358148"}},{"country":"nl","city":"Achlum","coordinates":{"lat":"53.149255","long":"5.483458"}},{"country":"nl","city":"Acht","coordinates":{"lat":"51.475835","long":"5.436434"}},{"country":"nl","city":"Achterberg","coordinates":{"lat":"51.972639","long":"5.590378"}},{"country":"nl","city":"Achterbos","coordinates":{"lat":"52.223999","long":"4.926425"}},{"country":"nl","city":"Achterbosch","coordinates":{"lat":"51.410042","long":"5.778441"}},{"country":"nl","city":"Achterbosch","coordinates":{"lat":"52.223999","long":"4.926425"}},{"country":"nl","city":"Achterbroek","coordinates":{"lat":"51.428783","long":"5.687522"}},{"country":"nl","city":"Achterbroek","coordinates":{"lat":"51.969155","long":"4.700425"}},{"country":"nl","city":"Achter de Vree","coordinates":{"lat":"52.433333","long":"5.95"}},{"country":"nl","city":"Achterdiep","coordinates":{"lat":"53.183333","long":"6.783333"}},{"country":"nl","city":"Achterdijk","coordinates":{"lat":"52.766554","long":"6.395259"}},{"country":"nl","city":"Achterdijk","coordinates":{"lat":"51.655874","long":"4.618474"}},{"country":"nl","city":"Achterdijk","coordinates":{"lat":"51.889684","long":"5.037529"}},{"country":"nl","city":"Achterdrempt","coordinates":{"lat":"52.023088","long":"6.183465"}},{"country":"nl","city":"Achtereind","coordinates":{"lat":"51.382204","long":"5.491984"}},{"country":"nl","city":"Achter het Klooster","coordinates":{"lat":"51.256566","long":"5.878381"}},{"country":"nl","city":"Achterhoek","coordinates":{"lat":"52.21935","long":"5.413673"}},{"country":"nl","city":"Achterhoek","coordinates":{"lat":"51.969155","long":"4.700425"}},{"country":"nl","city":"Achterhoek","coordinates":{"lat":"52.246245","long":"6.488339"}},{"country":"nl","city":"Achterhroek","coordinates":{"lat":"51.969155","long":"4.700425"}},{"country":"nl","city":"Achter-Lindt","coordinates":{"lat":"51.817446","long":"4.579082"}},{"country":"nl","city":"Achterlo","coordinates":{"lat":"51.817034","long":"5.717675"}},{"country":"nl","city":"Achterom","coordinates":{"lat":"52.733333","long":"6.516667"}},{"country":"nl","city":"Achtersloot","coordinates":{"lat":"52.033333","long":"5.016667"}},{"country":"nl","city":"Achterste Brug","coordinates":{"lat":"51.279283","long":"5.427662"}},{"country":"nl","city":"Achterste Diesdonk","coordinates":{"lat":"51.428588","long":"5.714982"}},{"country":"nl","city":"Achterste Distelberg","coordinates":{"lat":"51.659685","long":"5.218286"}},{"country":"nl","city":"Achterste Erm","coordinates":{"lat":"52.7443","long":"6.828453"}},{"country":"nl","city":"Achterste Hees","coordinates":{"lat":"51.414483","long":"6.022775"}},{"country":"nl","city":"Achterste Heide","coordinates":{"lat":"51.75904","long":"5.578634"}},{"country":"nl","city":"Achterste Heikant","coordinates":{"lat":"51.348338","long":"5.132024"}},{"country":"nl","city":"Achterste Hermalen","coordinates":{"lat":"51.604389","long":"5.403375"}},{"country":"nl","city":"Achterstehoek","coordinates":{"lat":"51.95","long":"6.016667"}},{"country":"nl","city":"Achterste Rith","coordinates":{"lat":"51.555371","long":"4.715046"}},{"country":"nl","city":"Achter-Thesinge","coordinates":{"lat":"53.282381","long":"6.657524"}},{"country":"nl","city":"Achterveld","coordinates":{"lat":"52.134729","long":"5.497471"}},{"country":"nl","city":"Achter-Weel","coordinates":{"lat":"51.968028","long":"6.173799"}},{"country":"nl","city":"Achterwehl","coordinates":{"lat":"51.968028","long":"6.173799"}},{"country":"nl","city":"Achterwetering","coordinates":{"lat":"52.151661","long":"5.151123"}},{"country":"nl","city":"Achthoven","coordinates":{"lat":"52.05","long":"4.983333"}},{"country":"nl","city":"Achthoven","coordinates":{"lat":"51.966932","long":"4.990555"}},{"country":"nl","city":"Achthuizen","coordinates":{"lat":"51.687482","long":"4.280893"}},{"country":"nl","city":"Achtmaal","coordinates":{"lat":"51.45337","long":"4.58187"}},{"country":"nl","city":"Achtsehoek","coordinates":{"lat":"51.466667","long":"5.4"}},{"country":"nl","city":"Achttienhoven","coordinates":{"lat":"52.15","long":"5.166667"}},{"country":"nl","city":"Achttienhoven","coordinates":{"lat":"52.146762","long":"4.85804"}},{"country":"nl","city":"Ackooi","coordinates":{"lat":"51.88019","long":"5.134369"}},{"country":"nl","city":"Ackooy","coordinates":{"lat":"51.88019","long":"5.134369"}},{"country":"nl","city":"Acquoij","coordinates":{"lat":"51.88019","long":"5.134369"}},{"country":"nl","city":"Acquoy","coordinates":{"lat":"51.88019","long":"5.134369"}},{"country":"nl","city":"Adegeest","coordinates":{"lat":"52.136209","long":"4.45249"}},{"country":"nl","city":"Adeward","coordinates":{"lat":"53.25936","long":"6.464956"}},{"country":"nl","city":"Adewardervoorwerk","coordinates":{"lat":"53.25936","long":"6.464956"}},{"country":"nl","city":"Adorp","coordinates":{"lat":"53.274497","long":"6.532429"}},{"country":"nl","city":"Aduard","coordinates":{"lat":"53.25936","long":"6.464956"}},{"country":"nl","city":"Aduardervoorwerk","coordinates":{"lat":"53.261392","long":"6.474608"}},{"country":"nl","city":"Aduarderzijl","coordinates":{"lat":"53.317491","long":"6.468982"}},{"country":"nl","city":"Aegum","coordinates":{"lat":"53.13055","long":"5.82778"}},{"country":"nl","city":"Aekinga","coordinates":{"lat":"52.952402","long":"6.31768"}},{"country":"nl","city":"Aerdenhout","coordinates":{"lat":"52.366921","long":"4.597498"}},{"country":"nl","city":"Aerdt","coordinates":{"lat":"51.894317","long":"6.082728"}},{"country":"nl","city":"Afferden","coordinates":{"lat":"51.879625","long":"5.635934"}},{"country":"nl","city":"Afferden","coordinates":{"lat":"51.635044","long":"6.016313"}},{"country":"nl","city":"Afhang","coordinates":{"lat":"51.45","long":"6.05"}},{"country":"nl","city":"Afraai","coordinates":{"lat":"53.00692","long":"6.9225"}},{"country":"nl","city":"Afsched","coordinates":{"lat":"52.6","long":"6.016667"}},{"country":"nl","city":"Agelo","coordinates":{"lat":"52.392464","long":"6.883986"}},{"country":"nl","city":"Agodorp","coordinates":{"lat":"52.871304","long":"7.084309"}},{"country":"nl","city":"Aijen","coordinates":{"lat":"51.585338","long":"6.041093"}},{"country":"nl","city":"Aijn","coordinates":{"lat":"51.585338","long":"6.041093"}},{"country":"nl","city":"Akersloot","coordinates":{"lat":"52.561591","long":"4.729418"}},{"country":"nl","city":"Akert","coordinates":{"lat":"51.414074","long":"5.5596"}},{"country":"nl","city":"Akker","coordinates":{"lat":"51.509426","long":"4.385507"}},{"country":"nl","city":"Akkerput","coordinates":{"lat":"51.351727","long":"3.466177"}},{"country":"nl","city":"Akkerwoude","coordinates":{"lat":"53.283333","long":"5.983333"}},{"country":"nl","city":"Akkooi","coordinates":{"lat":"51.88019","long":"5.134369"}},{"country":"nl","city":"Akkrum","coordinates":{"lat":"53.050238","long":"5.83087"}},{"country":"nl","city":"Akmarijp","coordinates":{"lat":"53.0042","long":"5.787884"}},{"country":"nl","city":"Aksel","coordinates":{"lat":"51.267573","long":"3.907652"}},{"country":"nl","city":"Albergen","coordinates":{"lat":"52.371536","long":"6.762086"}},{"country":"nl","city":"Alblasserdam","coordinates":{"lat":"51.866729","long":"4.66268"}},{"country":"nl","city":"Aldegea","coordinates":{"lat":"52.905487","long":"5.525287"}},{"country":"nl","city":"Aldhoarne","coordinates":{"lat":"52.961278","long":"6.075075"}},{"country":"nl","city":"Aldlan","coordinates":{"lat":"53.183333","long":"5.816667"}},{"country":"nl","city":"Alem","coordinates":{"lat":"51.78764","long":"5.341861"}},{"country":"nl","city":"Alendorp","coordinates":{"lat":"52.093015","long":"5.03238"}},{"country":"nl","city":"Alexanderpolder","coordinates":{"lat":"51.916667","long":"4.483333"}},{"country":"nl","city":"Alfen","coordinates":{"lat":"51.822906","long":"5.469331"}},{"country":"nl","city":"Alfen","coordinates":{"lat":"51.482986","long":"4.956203"}},{"country":"nl","city":"Alfen","coordinates":{"lat":"52.135141","long":"4.654932"}},{"country":"nl","city":"Alfen-Boschoven","coordinates":{"lat":"51.463711","long":"4.946826"}},{"country":"nl","city":"Alhlasserdam","coordinates":{"lat":"51.866729","long":"4.66268"}},{"country":"nl","city":"Alinghuizen","coordinates":{"lat":"53.312748","long":"6.502694"}},{"country":"nl","city":"Alkmaar","coordinates":{"lat":"52.635818","long":"4.75561"}},{"country":"nl","city":"Allardsoog","coordinates":{"lat":"53.1","long":"6.3"}},{"country":"nl","city":"Allartsoog","coordinates":{"lat":"53.1","long":"6.3"}},{"country":"nl","city":"Allerdsoog","coordinates":{"lat":"53.1","long":"6.3"}},{"country":"nl","city":"Allersma","coordinates":{"lat":"53.318887","long":"6.454156"}},{"country":"nl","city":"Allingaweer","coordinates":{"lat":"53.047656","long":"5.444876"}},{"country":"nl","city":"Allingawier","coordinates":{"lat":"53.047656","long":"5.444876"}},{"country":"nl","city":"Almelo","coordinates":{"lat":"52.359606","long":"6.656797"}},{"country":"nl","city":"Almeloo","coordinates":{"lat":"52.359606","long":"6.656797"}},{"country":"nl","city":"Almen","coordinates":{"lat":"52.15811","long":"6.301682"}},{"country":"nl","city":"Almenum","coordinates":{"lat":"53.183333","long":"5.433333"}},{"country":"nl","city":"Almere","coordinates":{"lat":"52.388101","long":"5.235395"}},{"country":"nl","city":"Almere-Haven","coordinates":{"lat":"52.341816","long":"5.217113"}},{"country":"nl","city":"Almkerk","coordinates":{"lat":"51.771778","long":"4.961078"}},{"country":"nl","city":"Alphen aan den Rijn","coordinates":{"lat":"52.135141","long":"4.654932"}},{"country":"nl","city":"Alphen aan de Rijn","coordinates":{"lat":"52.135141","long":"4.654932"}},{"country":"nl","city":"Alphen aan der Rijn","coordinates":{"lat":"52.135141","long":"4.654932"}},{"country":"nl","city":"Alphen","coordinates":{"lat":"51.822906","long":"5.469331"}},{"country":"nl","city":"Alphen","coordinates":{"lat":"51.482986","long":"4.956203"}},{"country":"nl","city":"Alphen","coordinates":{"lat":"52.135141","long":"4.654932"}},{"country":"nl","city":"Alphen Boschoven","coordinates":{"lat":"51.463711","long":"4.946826"}},{"country":"nl","city":"Alphen-Boshoven","coordinates":{"lat":"51.463711","long":"4.946826"}},{"country":"nl","city":"Alphen Bosschoven","coordinates":{"lat":"51.463711","long":"4.946826"}},{"country":"nl","city":"Alphen-Oosterwijk","coordinates":{"lat":"51.50129","long":"4.975001"}},{"country":"nl","city":"Altena","coordinates":{"lat":"53.132458","long":"6.476952"}},{"country":"nl","city":"Alteveer","coordinates":{"lat":"52.676578","long":"6.486841"}},{"country":"nl","city":"Alteveer","coordinates":{"lat":"52.004","long":"5.90864"}},{"country":"nl","city":"Alteveer","coordinates":{"lat":"53.05204","long":"6.994433"}},{"country":"nl","city":"Altforst","coordinates":{"lat":"51.849705","long":"5.566527"}},{"country":"nl","city":"Alting","coordinates":{"lat":"52.866292","long":"6.539014"}},{"country":"nl","city":"Altweert","coordinates":{"lat":"51.233333","long":"5.7"}},{"country":"nl","city":"Altweerterheide","coordinates":{"lat":"51.219919","long":"5.681324"}},{"country":"nl","city":"Alverna","coordinates":{"lat":"51.802841","long":"5.760798"}},{"country":"nl","city":"Alvershool","coordinates":{"lat":"51.483601","long":"5.566495"}},{"country":"nl","city":"Ambij","coordinates":{"lat":"50.862549","long":"5.733924"}},{"country":"nl","city":"Amby","coordinates":{"lat":"50.862549","long":"5.733924"}},{"country":"nl","city":"Ameide","coordinates":{"lat":"51.953629","long":"4.962214"}},{"country":"nl","city":"Amen","coordinates":{"lat":"52.942469","long":"6.612217"}},{"country":"nl","city":"America","coordinates":{"lat":"51.437767","long":"5.981503"}},{"country":"nl","city":"Amerika","coordinates":{"lat":"53.092726","long":"6.368144"}},{"country":"nl","city":"Amerika","coordinates":{"lat":"51.437767","long":"5.981503"}},{"country":"nl","city":"Amerongen","coordinates":{"lat":"52.00284","long":"5.467186"}},{"country":"nl","city":"Amersfoort","coordinates":{"lat":"52.156022","long":"5.389526"}},{"country":"nl","city":"Ammerssluis","coordinates":{"lat":"51.916667","long":"4.816667"}},{"country":"nl","city":"Ammerstol","coordinates":{"lat":"51.927935","long":"4.809117"}},{"country":"nl","city":"Ammerzoden","coordinates":{"lat":"51.75","long":"5.216667"}},{"country":"nl","city":"Ampsen","coordinates":{"lat":"52.170092","long":"6.430748"}},{"country":"nl","city":"Amsen","coordinates":{"lat":"52.170092","long":"6.430748"}},{"country":"nl","city":"Amsteleind","coordinates":{"lat":"51.766667","long":"5.5"}},{"country":"nl","city":"Amstelhoek","coordinates":{"lat":"52.231304","long":"4.835476"}},{"country":"nl","city":"Amstelveen","coordinates":{"lat":"52.310658","long":"4.876789"}},{"country":"nl","city":"Amstenrade","coordinates":{"lat":"50.940239","long":"5.926092"}},{"country":"nl","city":"Amsterdam","coordinates":{"lat":"52.35","long":"4.916667"}},{"country":"nl","city":"Amsterdamscheveld","coordinates":{"lat":"52.693238","long":"6.906005"}},{"country":"nl","city":"Amsterdamsche Veld I","coordinates":{"lat":"52.693238","long":"6.906005"}},{"country":"nl","city":"Amsterdamseveld","coordinates":{"lat":"52.693238","long":"6.906005"}},{"country":"nl","city":"Amsweer","coordinates":{"lat":"53.31011","long":"6.901332"}},{"country":"nl","city":"Andel","coordinates":{"lat":"53.389242","long":"6.508971"}},{"country":"nl","city":"Andel","coordinates":{"lat":"51.783333","long":"5.05"}},{"country":"nl","city":"Andelst","coordinates":{"lat":"51.903528","long":"5.729938"}},{"country":"nl","city":"Anderen","coordinates":{"lat":"53.000399","long":"6.685218"}},{"country":"nl","city":"Andijk","coordinates":{"lat":"52.737379","long":"5.185602"}},{"country":"nl","city":"Andijk Oost","coordinates":{"lat":"52.743771","long":"5.218763"}},{"country":"nl","city":"Andijk West","coordinates":{"lat":"52.737379","long":"5.185602"}},{"country":"nl","city":"Ane","coordinates":{"lat":"52.614685","long":"6.651055"}},{"country":"nl","city":"Anerveen","coordinates":{"lat":"52.630986","long":"6.655327"}},{"country":"nl","city":"Anevelde","coordinates":{"lat":"52.598177","long":"6.650906"}},{"country":"nl","city":"Angelslo","coordinates":{"lat":"52.780895","long":"6.926455"}},{"country":"nl","city":"Angelsloo","coordinates":{"lat":"52.780895","long":"6.926455"}},{"country":"nl","city":"Angeren","coordinates":{"lat":"51.916405","long":"5.963272"}},{"country":"nl","city":"Angerlo","coordinates":{"lat":"51.995316","long":"6.133833"}},{"country":"nl","city":"Anholt","coordinates":{"lat":"52.77404","long":"6.416893"}},{"country":"nl","city":"Anjum","coordinates":{"lat":"53.231514","long":"5.618612"}},{"country":"nl","city":"Ankeveen","coordinates":{"lat":"52.262348","long":"5.096964"}},{"country":"nl","city":"Ankeveense Rade","coordinates":{"lat":"52.250973","long":"5.124434"}},{"country":"nl","city":"Anklaar","coordinates":{"lat":"52.23018","long":"5.985187"}},{"country":"nl","city":"Ankrum","coordinates":{"lat":"53.050238","long":"5.83087"}},{"country":"nl","city":"Ankum","coordinates":{"lat":"52.521546","long":"6.240585"}},{"country":"nl","city":"Anlo","coordinates":{"lat":"53.043212","long":"6.70153"}},{"country":"nl","city":"Anloo","coordinates":{"lat":"53.043212","long":"6.70153"}},{"country":"nl","city":"Anna Jacoba","coordinates":{"lat":"51.639","long":"4.129907"}},{"country":"nl","city":"Anna Jacobapolder","coordinates":{"lat":"51.639","long":"4.129907"}},{"country":"nl","city":"Annaparochie","coordinates":{"lat":"53.276414","long":"5.656969"}},{"country":"nl","city":"Anna Paulowna","coordinates":{"lat":"52.866667","long":"4.866667"}},{"country":"nl","city":"Anna Paulowne","coordinates":{"lat":"52.866667","long":"4.866667"}},{"country":"nl","city":"Anneburen","coordinates":{"lat":"53.067329","long":"5.618437"}},{"country":"nl","city":"Annen","coordinates":{"lat":"53.057527","long":"6.720979"}},{"country":"nl","city":"Annendaal","coordinates":{"lat":"51.108932","long":"6.02394"}},{"country":"nl","city":"Annerveen","coordinates":{"lat":"53.066599","long":"6.776413"}},{"country":"nl","city":"Annerveenschekanaal","coordinates":{"lat":"53.077632","long":"6.802662"}},{"country":"nl","city":"Annerveensch Kanaal","coordinates":{"lat":"53.077632","long":"6.802662"}},{"country":"nl","city":"Anneville","coordinates":{"lat":"51.543755","long":"4.820088"}},{"country":"nl","city":"Annwas","coordinates":{"lat":"51.393149","long":"4.316038"}},{"country":"nl","city":"Anreep","coordinates":{"lat":"52.975907","long":"6.581932"}},{"country":"nl","city":"Ansen","coordinates":{"lat":"52.78291","long":"6.334208"}},{"country":"nl","city":"Antonis","coordinates":{"lat":"51.627215","long":"5.880679"}},{"country":"nl","city":"Apeldoorn","coordinates":{"lat":"52.216667","long":"5.966667"}},{"country":"nl","city":"Apenhuizen","coordinates":{"lat":"52.25656","long":"6.300118"}},{"country":"nl","city":"Aperloo","coordinates":{"lat":"52.425626","long":"5.861849"}},{"country":"nl","city":"Appel","coordinates":{"lat":"52.189011","long":"5.545683"}},{"country":"nl","city":"Appelscha","coordinates":{"lat":"52.952835","long":"6.364246"}},{"country":"nl","city":"Appelsga","coordinates":{"lat":"52.952835","long":"6.364246"}},{"country":"nl","city":"Appeltern","coordinates":{"lat":"51.832671","long":"5.583878"}},{"country":"nl","city":"Appen","coordinates":{"lat":"52.181881","long":"6.128014"}},{"country":"nl","city":"Appingedam","coordinates":{"lat":"53.322206","long":"6.84878"}},{"country":"nl","city":"Arcen","coordinates":{"lat":"51.478621","long":"6.181122"}},{"country":"nl","city":"Archem","coordinates":{"lat":"52.475763","long":"6.438808"}},{"country":"nl","city":"Arendnest","coordinates":{"lat":"51.596086","long":"5.696769"}},{"country":"nl","city":"Arendsnest","coordinates":{"lat":"51.596086","long":"5.696769"}},{"country":"nl","city":"Arensgenhout","coordinates":{"lat":"50.888949","long":"5.843652"}},{"country":"nl","city":"Ariën","coordinates":{"lat":"52.52597","long":"6.448179"}},{"country":"nl","city":"Arkel","coordinates":{"lat":"51.863661","long":"4.993601"}},{"country":"nl","city":"Arkens","coordinates":{"lat":"53.193331","long":"5.552841"}},{"country":"nl","city":"Arkum","coordinates":{"lat":"53.029688","long":"5.499478"}},{"country":"nl","city":"Armhoede","coordinates":{"lat":"52.175247","long":"6.44638"}},{"country":"nl","city":"Armwei","coordinates":{"lat":"52.768679","long":"6.322599"}},{"country":"nl","city":"Armweide","coordinates":{"lat":"52.768679","long":"6.322599"}},{"country":"nl","city":"Arnemuiden","coordinates":{"lat":"51.504764","long":"3.673937"}},{"country":"nl","city":"Arnheim","coordinates":{"lat":"51.979818","long":"5.925636"}},{"country":"nl","city":"Arnhem","coordinates":{"lat":"51.979818","long":"5.925636"}},{"country":"nl","city":"Arnoud","coordinates":{"lat":"52.283333","long":"4.566667"}},{"country":"nl","city":"Arriën","coordinates":{"lat":"52.52597","long":"6.448179"}},{"country":"nl","city":"Arriërveld","coordinates":{"lat":"52.563931","long":"6.433735"}},{"country":"nl","city":"Arum","coordinates":{"lat":"53.130718","long":"5.473018"}},{"country":"nl","city":"Arwerd","coordinates":{"lat":"53.353014","long":"6.838465"}},{"country":"nl","city":"Asbroek","coordinates":{"lat":"51.28312","long":"5.908524"}},{"country":"nl","city":"Asch","coordinates":{"lat":"51.930421","long":"5.31065"}},{"country":"nl","city":"Aschat","coordinates":{"lat":"52.131352","long":"5.451695"}},{"country":"nl","city":"Aselo","coordinates":{"lat":"52.299125","long":"6.711462"}},{"country":"nl","city":"Asenraij","coordinates":{"lat":"51.192767","long":"6.048475"}},{"country":"nl","city":"Asenray","coordinates":{"lat":"51.192767","long":"6.048475"}},{"country":"nl","city":"Asnapium","coordinates":{"lat":"51.694099","long":"5.977146"}},{"country":"nl","city":"Asperen","coordinates":{"lat":"51.882555","long":"5.10497"}},{"country":"nl","city":"Aspert","coordinates":{"lat":"51.843179","long":"5.633877"}},{"country":"nl","city":"Asschat","coordinates":{"lat":"52.131352","long":"5.451695"}},{"country":"nl","city":"Asschot","coordinates":{"lat":"52.131352","long":"5.451695"}},{"country":"nl","city":"Assel","coordinates":{"lat":"52.199908","long":"5.836698"}},{"country":"nl","city":"Asselt","coordinates":{"lat":"51.22667","long":"6.014273"}},{"country":"nl","city":"Assen","coordinates":{"lat":"52.994749","long":"6.563223"}},{"country":"nl","city":"Assendelft","coordinates":{"lat":"52.466665","long":"4.739837"}},{"country":"nl","city":"Assendorp","coordinates":{"lat":"52.4","long":"6.066667"}},{"country":"nl","city":"Assendorp","coordinates":{"lat":"52.505749","long":"6.100595"}},{"country":"nl","city":"Assenraai","coordinates":{"lat":"51.192767","long":"6.048475"}},{"country":"nl","city":"Assinkshoek","coordinates":{"lat":"52.37974","long":"6.746651"}},{"country":"nl","city":"Assum","coordinates":{"lat":"52.513876","long":"4.700641"}},{"country":"nl","city":"Asten","coordinates":{"lat":"51.405948","long":"5.749224"}},{"country":"nl","city":"Attelaken","coordinates":{"lat":"51.583333","long":"4.666667"}},{"country":"nl","city":"Atzeburen","coordinates":{"lat":"53.009958","long":"5.497616"}},{"country":"nl","city":"Augsbuur","coordinates":{"lat":"53.266503","long":"6.160882"}},{"country":"nl","city":"Augsbuurt","coordinates":{"lat":"53.266503","long":"6.160882"}},{"country":"nl","city":"Augsbuurt-Lutjewoude","coordinates":{"lat":"53.266503","long":"6.160882"}},{"country":"nl","city":"Augstbuurt","coordinates":{"lat":"53.266503","long":"6.160882"}},{"country":"nl","city":"Augustinusga","coordinates":{"lat":"53.217749","long":"6.159372"}},{"country":"nl","city":"Austerlitz","coordinates":{"lat":"52.079676","long":"5.313723"}},{"country":"nl","city":"Avelingen","coordinates":{"lat":"51.833333","long":"4.966667"}},{"country":"nl","city":"Avenhorn","coordinates":{"lat":"52.618279","long":"4.953431"}},{"country":"nl","city":"Avereest","coordinates":{"lat":"52.619181","long":"6.370796"}},{"country":"nl","city":"Averlo","coordinates":{"lat":"52.30051","long":"6.217845"}},{"country":"nl","city":"Averloo","coordinates":{"lat":"52.30051","long":"6.217845"}},{"country":"nl","city":"Averreest","coordinates":{"lat":"52.619181","long":"6.370796"}},{"country":"nl","city":"Avest","coordinates":{"lat":"52.06213","long":"6.598297"}},{"country":"nl","city":"Avezaath","coordinates":{"lat":"51.880156","long":"5.373195"}},{"country":"nl","city":"Axel","coordinates":{"lat":"51.267573","long":"3.907652"}},{"country":"nl","city":"Axelsche Sassing","coordinates":{"lat":"51.266667","long":"3.866667"}},{"country":"nl","city":"Axels Sassing","coordinates":{"lat":"51.266667","long":"3.866667"}},{"country":"nl","city":"Axwijk","coordinates":{"lat":"52.533333","long":"5.016667"}},{"country":"nl","city":"Ayen","coordinates":{"lat":"51.585338","long":"6.041093"}},{"country":"nl","city":"Azelo","coordinates":{"lat":"52.299125","long":"6.711462"}},{"country":"nl","city":"Azeloo","coordinates":{"lat":"52.299125","long":"6.711462"}},{"country":"nl","city":"Azenraai","coordinates":{"lat":"51.192767","long":"6.048475"}},{"country":"nl","city":"Azenray","coordinates":{"lat":"51.192767","long":"6.048475"}},{"country":"nl","city":"Azewijn","coordinates":{"lat":"51.887595","long":"6.303132"}},{"country":"nl","city":"Baai","coordinates":{"lat":"51.583333","long":"4.65"}},{"country":"nl","city":"Baaiduinen","coordinates":{"lat":"53.377348","long":"5.273324"}},{"country":"nl","city":"Baaidunen","coordinates":{"lat":"53.377348","long":"5.273324"}},{"country":"nl","city":"Baaijum","coordinates":{"lat":"53.164757","long":"5.632325"}},{"country":"nl","city":"Baak","coordinates":{"lat":"52.077633","long":"6.226531"}},{"country":"nl","city":"Baakhoven","coordinates":{"lat":"51.068893","long":"5.827892"}},{"country":"nl","city":"Baaksem","coordinates":{"lat":"51.22566","long":"5.882007"}},{"country":"nl","city":"Baal","coordinates":{"lat":"51.897844","long":"5.919483"}},{"country":"nl","city":"Baalde-Radewijk","coordinates":{"lat":"52.570649","long":"6.711422"}},{"country":"nl","city":"Baalder","coordinates":{"lat":"52.584321","long":"6.640161"}},{"country":"nl","city":"Baalhoek","coordinates":{"lat":"51.362909","long":"4.091975"}},{"country":"nl","city":"Baambrugge","coordinates":{"lat":"52.246463","long":"4.987442"}},{"country":"nl","city":"Baambrugse Zuwe","coordinates":{"lat":"52.229332","long":"4.950499"}},{"country":"nl","city":"Baamsum","coordinates":{"lat":"53.283932","long":"7.04139"}},{"country":"nl","city":"Baanhoek","coordinates":{"lat":"51.824258","long":"4.744641"}},{"country":"nl","city":"Baar","coordinates":{"lat":"51.983386","long":"6.045921"}},{"country":"nl","city":"Baard","coordinates":{"lat":"53.142091","long":"5.670484"}},{"country":"nl","city":"Baardburen","coordinates":{"lat":"53.133333","long":"5.783333"}},{"country":"nl","city":"Baarderburen","coordinates":{"lat":"53.13022","long":"5.487876"}},{"country":"nl","city":"Baardwijk","coordinates":{"lat":"51.687638","long":"5.110989"}},{"country":"nl","city":"Baarland","coordinates":{"lat":"51.408544","long":"3.884023"}},{"country":"nl","city":"Baarle Boschoven","coordinates":{"lat":"51.463825","long":"4.947278"}},{"country":"nl","city":"Baarle-Boshoven","coordinates":{"lat":"51.463825","long":"4.947278"}},{"country":"nl","city":"Baarle Bosschoven","coordinates":{"lat":"51.463825","long":"4.947278"}},{"country":"nl","city":"Baarle-Nassau","coordinates":{"lat":"51.445401","long":"4.929484"}},{"country":"nl","city":"Baarle-Nassau-Grens","coordinates":{"lat":"51.4","long":"4.933333"}},{"country":"nl","city":"Baarlo","coordinates":{"lat":"51.330733","long":"6.096802"}},{"country":"nl","city":"Baarlo","coordinates":{"lat":"52.663481","long":"6.107682"}},{"country":"nl","city":"Baarloo","coordinates":{"lat":"51.330733","long":"6.096802"}},{"country":"nl","city":"Baarloo","coordinates":{"lat":"52.663481","long":"6.107682"}},{"country":"nl","city":"Baarloseweg","coordinates":{"lat":"51.333333","long":"6.016667"}},{"country":"nl","city":"Baarn","coordinates":{"lat":"52.211494","long":"5.29222"}},{"country":"nl","city":"Baars","coordinates":{"lat":"52.813646","long":"6.092934"}},{"country":"nl","city":"Baarschot","coordinates":{"lat":"51.433273","long":"5.766213"}},{"country":"nl","city":"Baarsdorp","coordinates":{"lat":"51.482644","long":"3.828346"}},{"country":"nl","city":"Baarsdorpermeer","coordinates":{"lat":"52.670058","long":"5.003781"}},{"country":"nl","city":"Baarstraat","coordinates":{"lat":"51.170349","long":"5.851227"}},{"country":"nl","city":"Babberich","coordinates":{"lat":"51.906265","long":"6.11143"}},{"country":"nl","city":"Babiloniënbroek","coordinates":{"lat":"51.743076","long":"5.020875"}},{"country":"nl","city":"Baburen","coordinates":{"lat":"53.047852","long":"5.493061"}},{"country":"nl","city":"Babyloniënbroek","coordinates":{"lat":"51.743076","long":"5.020875"}},{"country":"nl","city":"Badhoevedorp","coordinates":{"lat":"52.337811","long":"4.770141"}},{"country":"nl","city":"Badhoezedorp","coordinates":{"lat":"52.337811","long":"4.770141"}},{"country":"nl","city":"Baexem","coordinates":{"lat":"51.22566","long":"5.882007"}},{"country":"nl","city":"Baflo","coordinates":{"lat":"53.361977","long":"6.514113"}},{"country":"nl","city":"Bagben","coordinates":{"lat":"51.579467","long":"4.720294"}},{"country":"nl","city":"Baggel Huizen","coordinates":{"lat":"52.983333","long":"6.55"}},{"country":"nl","city":"Bagven","coordinates":{"lat":"51.579467","long":"4.720294"}},{"country":"nl","city":"Bahr","coordinates":{"lat":"51.983386","long":"6.045921"}},{"country":"nl","city":"Baijum","coordinates":{"lat":"53.164757","long":"5.632325"}},{"country":"nl","city":"Baium","coordinates":{"lat":"53.164757","long":"5.632325"}},{"country":"nl","city":"Bajum","coordinates":{"lat":"53.164757","long":"5.632325"}},{"country":"nl","city":"Bakel","coordinates":{"lat":"51.502737","long":"5.741104"}},{"country":"nl","city":"Bakelsebrug","coordinates":{"lat":"51.492979","long":"5.717254"}},{"country":"nl","city":"Baken","coordinates":{"lat":"51.733333","long":"3.833333"}},{"country":"nl","city":"Bakenberg","coordinates":{"lat":"52.005105","long":"5.877096"}},{"country":"nl","city":"Bakendorp","coordinates":{"lat":"51.409328","long":"3.904266"}},{"country":"nl","city":"Bakermark","coordinates":{"lat":"52.06409","long":"6.235642"}},{"country":"nl","city":"Bakertand","coordinates":{"lat":"51.533394","long":"5.079054"}},{"country":"nl","city":"Bakheide","coordinates":{"lat":"51.257195","long":"6.041995"}},{"country":"nl","city":"Bakhuisbos","coordinates":{"lat":"52.392088","long":"6.008243"}},{"country":"nl","city":"Bakhuizen","coordinates":{"lat":"52.869586","long":"5.457455"}},{"country":"nl","city":"Bakkerom","coordinates":{"lat":"53.202475","long":"6.323545"}},{"country":"nl","city":"Bakkersdam","coordinates":{"lat":"51.301976","long":"3.488549"}},{"country":"nl","city":"Bakkeveen","coordinates":{"lat":"53.082033","long":"6.258083"}},{"country":"nl","city":"Bakkum","coordinates":{"lat":"52.558877","long":"4.644272"}},{"country":"nl","city":"Balgoij","coordinates":{"lat":"51.782955","long":"5.715325"}},{"country":"nl","city":"Balgoij","coordinates":{"lat":"51.5761","long":"5.664274"}},{"country":"nl","city":"Balgoy","coordinates":{"lat":"51.782955","long":"5.715325"}},{"country":"nl","city":"Balhofstede","coordinates":{"lat":"51.306502","long":"3.615454"}},{"country":"nl","city":"Balinge","coordinates":{"lat":"52.810743","long":"6.629195"}},{"country":"nl","city":"Balk","coordinates":{"lat":"52.898539","long":"5.58716"}},{"country":"nl","city":"Balkbrug","coordinates":{"lat":"52.602149","long":"6.390649"}},{"country":"nl","city":"Ballast","coordinates":{"lat":"52.673906","long":"6.709536"}},{"country":"nl","city":"Balleman","coordinates":{"lat":"51.509472","long":"4.762196"}},{"country":"nl","city":"Ballingbuur","coordinates":{"lat":"53","long":"5.766667"}},{"country":"nl","city":"Ballo","coordinates":{"lat":"52.995941","long":"6.633289"}},{"country":"nl","city":"Balloo","coordinates":{"lat":"52.995941","long":"6.633289"}},{"country":"nl","city":"Ballum","coordinates":{"lat":"53.444056","long":"5.68756"}},{"country":"nl","city":"Balmahuizen","coordinates":{"lat":"53.271814","long":"6.369443"}},{"country":"nl","city":"Bandsloot","coordinates":{"lat":"52.85","long":"5.816667"}},{"country":"nl","city":"Banenheide","coordinates":{"lat":"50.818184","long":"5.976"}},{"country":"nl","city":"Bangerd","coordinates":{"lat":"52.735823","long":"5.180097"}},{"country":"nl","city":"Bangert","coordinates":{"lat":"52.735823","long":"5.180097"}},{"country":"nl","city":"Banholt","coordinates":{"lat":"50.792342","long":"5.808664"}},{"country":"nl","city":"Bankert","coordinates":{"lat":"51.493115","long":"5.800664"}},{"country":"nl","city":"Banne Buiksloot","coordinates":{"lat":"52.405421","long":"4.91249"}},{"country":"nl","city":"Bant","coordinates":{"lat":"52.768361","long":"5.751253"}},{"country":"nl","city":"Bantega","coordinates":{"lat":"52.842308","long":"5.798492"}},{"country":"nl","city":"Barchem","coordinates":{"lat":"52.124651","long":"6.442855"}},{"country":"nl","city":"Barendrecht","coordinates":{"lat":"51.853922","long":"4.538639"}},{"country":"nl","city":"Bareveld","coordinates":{"lat":"53.049556","long":"6.845364"}},{"country":"nl","city":"Bargebek","coordinates":{"lat":"52.892482","long":"5.605261"}},{"country":"nl","city":"Bargen","coordinates":{"lat":"53.08233","long":"4.840029"}},{"country":"nl","city":"Barger","coordinates":{"lat":"52.761521","long":"6.881448"}},{"country":"nl","city":"Barger-Compascuum","coordinates":{"lat":"52.751864","long":"7.040941"}},{"country":"nl","city":"Barger-Erfscheidenveen","coordinates":{"lat":"52.727722","long":"6.869031"}},{"country":"nl","city":"Bargeres","coordinates":{"lat":"52.761521","long":"6.881448"}},{"country":"nl","city":"Barger-Oosterveen","coordinates":{"lat":"52.703202","long":"6.990532"}},{"country":"nl","city":"Barger-Oosterveld","coordinates":{"lat":"52.768236","long":"6.961629"}},{"country":"nl","city":"Barlage","coordinates":{"lat":"53.013384","long":"7.054613"}},{"country":"nl","city":"Barlaque","coordinates":{"lat":"51.624099","long":"4.487503"}},{"country":"nl","city":"Barlo","coordinates":{"lat":"51.958627","long":"6.586768"}},{"country":"nl","city":"Barloo","coordinates":{"lat":"51.958627","long":"6.586768"}},{"country":"nl","city":"Barneveld","coordinates":{"lat":"52.141642","long":"5.584486"}},{"country":"nl","city":"Barnflair","coordinates":{"lat":"52.855965","long":"7.07384"}},{"country":"nl","city":"Baronsbergen","coordinates":{"lat":"52.116667","long":"6.2"}},{"country":"nl","city":"Barrier","coordinates":{"lat":"50.879277","long":"5.898921"}},{"country":"nl","city":"Barsbeek","coordinates":{"lat":"52.656744","long":"6.013981"}},{"country":"nl","city":"Barsingerhorn","coordinates":{"lat":"52.78585","long":"4.844868"}},{"country":"nl","city":"Bartlehiem","coordinates":{"lat":"53.275751","long":"5.840329"}},{"country":"nl","city":"Barwoudswaarder","coordinates":{"lat":"52.08638","long":"4.855843"}},{"country":"nl","city":"Barwoutswaarder","coordinates":{"lat":"52.08638","long":"4.855843"}},{"country":"nl","city":"Basse","coordinates":{"lat":"52.805742","long":"6.032309"}},{"country":"nl","city":"Basserveld","coordinates":{"lat":"52.813809","long":"6.038845"}},{"country":"nl","city":"Batadorp","coordinates":{"lat":"51.491572","long":"5.397052"}},{"country":"nl","city":"Bat","coordinates":{"lat":"51.401743","long":"4.209378"}},{"country":"nl","city":"Batenburg","coordinates":{"lat":"51.825042","long":"5.626632"}},{"country":"nl","city":"Bath","coordinates":{"lat":"51.401743","long":"4.209378"}},{"country":"nl","city":"Bathmen","coordinates":{"lat":"52.249346","long":"6.288349"}},{"country":"nl","city":"Batmen","coordinates":{"lat":"52.249346","long":"6.288349"}},{"country":"nl","city":"Bato's Erf","coordinates":{"lat":"51.833333","long":"5.4"}},{"country":"nl","city":"Battenoord","coordinates":{"lat":"51.710021","long":"4.130956"}},{"country":"nl","city":"Batum","coordinates":{"lat":"51.977002","long":"6.810019"}},{"country":"nl","city":"Bavel","coordinates":{"lat":"51.567955","long":"4.833149"}},{"country":"nl","city":"Bavinkel","coordinates":{"lat":"52.340915","long":"6.692545"}},{"country":"nl","city":"Bazeldijk","coordinates":{"lat":"51.916667","long":"5.016667"}},{"country":"nl","city":"Bazuin","coordinates":{"lat":"52.654964","long":"6.414025"}},{"country":"nl","city":"Beckum","coordinates":{"lat":"52.211802","long":"6.740348"}},{"country":"nl","city":"Bedaf","coordinates":{"lat":"51.450613","long":"5.000632"}},{"country":"nl","city":"Bedum","coordinates":{"lat":"53.299126","long":"6.604137"}},{"country":"nl","city":"Beegden","coordinates":{"lat":"51.189944","long":"5.918259"}},{"country":"nl","city":"Beek","coordinates":{"lat":"51.828858","long":"5.932991"}},{"country":"nl","city":"Beek","coordinates":{"lat":"50.939978","long":"5.796491"}},{"country":"nl","city":"Beek","coordinates":{"lat":"51.419008","long":"5.723958"}},{"country":"nl","city":"Beekbergen","coordinates":{"lat":"52.160793","long":"5.965466"}},{"country":"nl","city":"Beekdorp","coordinates":{"lat":"52.354895","long":"6.831754"}},{"country":"nl","city":"Beekkant","coordinates":{"lat":"51.644883","long":"5.361644"}},{"country":"nl","city":"Beekveld","coordinates":{"lat":"51.666667","long":"5.383333"}},{"country":"nl","city":"Beekweide","coordinates":{"lat":"51.415279","long":"5.54745"}},{"country":"nl","city":"Beemd","coordinates":{"lat":"51.733333","long":"5.55"}},{"country":"nl","city":"Beemdkant","coordinates":{"lat":"51.528059","long":"5.599202"}},{"country":"nl","city":"Beemte","coordinates":{"lat":"52.255458","long":"5.989527"}},{"country":"nl","city":"Beerenplaat","coordinates":{"lat":"51.833341","long":"4.387314"}},{"country":"nl","city":"Beers","coordinates":{"lat":"53.157077","long":"5.73444"}},{"country":"nl","city":"Beers","coordinates":{"lat":"51.724036","long":"5.831149"}},{"country":"nl","city":"Beerschoten","coordinates":{"lat":"52.062919","long":"5.253512"}},{"country":"nl","city":"Beersdal","coordinates":{"lat":"50.907157","long":"5.964065"}},{"country":"nl","city":"Beersdonk","coordinates":{"lat":"51.441408","long":"5.725054"}},{"country":"nl","city":"Beerse","coordinates":{"lat":"52.516677","long":"6.526556"}},{"country":"nl","city":"Beerserveen","coordinates":{"lat":"52.493909","long":"6.576468"}},{"country":"nl","city":"Beersterhogen","coordinates":{"lat":"53.183289","long":"7.13173"}},{"country":"nl","city":"Beersterhoogen","coordinates":{"lat":"53.183289","long":"7.13173"}},{"country":"nl","city":"Beerta","coordinates":{"lat":"53.176027","long":"7.09264"}},{"country":"nl","city":"Beerten","coordinates":{"lat":"51.483333","long":"5.15"}},{"country":"nl","city":"Beertsenhoven","coordinates":{"lat":"50.826859","long":"5.886373"}},{"country":"nl","city":"Beerze","coordinates":{"lat":"52.516677","long":"6.526556"}},{"country":"nl","city":"Beerzerhaar","coordinates":{"lat":"52.5","long":"6.55"}},{"country":"nl","city":"Beerzerveld","coordinates":{"lat":"52.493909","long":"6.576468"}},{"country":"nl","city":"Beesd","coordinates":{"lat":"51.888656","long":"5.189975"}},{"country":"nl","city":"Beesel","coordinates":{"lat":"51.266715","long":"6.048432"}},{"country":"nl","city":"Beest","coordinates":{"lat":"51.888656","long":"5.189975"}},{"country":"nl","city":"Beetgum","coordinates":{"lat":"53.237142","long":"5.688796"}},{"country":"nl","city":"Beetgumermolden","coordinates":{"lat":"53.235307","long":"5.70548"}},{"country":"nl","city":"Beetgumermolen","coordinates":{"lat":"53.235307","long":"5.70548"}},{"country":"nl","city":"Beets","coordinates":{"lat":"53.066667","long":"6.033333"}},{"country":"nl","city":"Beets","coordinates":{"lat":"52.589042","long":"4.978744"}},{"country":"nl","city":"Beetsterweg","coordinates":{"lat":"53.066667","long":"6.033333"}},{"country":"nl","city":"Beetsterzwaag","coordinates":{"lat":"53.062336","long":"6.078687"}},{"country":"nl","city":"Behelp","coordinates":{"lat":"51.376462","long":"5.753903"}},{"country":"nl","city":"Beiersche","coordinates":{"lat":"51.982166","long":"4.726562"}},{"country":"nl","city":"Beijersche","coordinates":{"lat":"51.982166","long":"4.726562"}},{"country":"nl","city":"Beijum","coordinates":{"lat":"53.251196","long":"6.591504"}},{"country":"nl","city":"Beilen","coordinates":{"lat":"52.860718","long":"6.515184"}},{"country":"nl","city":"Beilervaart","coordinates":{"lat":"52.864016","long":"6.457327"}},{"country":"nl","city":"Beinsdorp","coordinates":{"lat":"52.287008","long":"4.595073"}},{"country":"nl","city":"Beinum","coordinates":{"lat":"52.001737","long":"6.129149"}},{"country":"nl","city":"Beitel","coordinates":{"lat":"50.852541","long":"5.993731"}},{"country":"nl","city":"Bekelaar","coordinates":{"lat":"51.446614","long":"5.637639"}},{"country":"nl","city":"Bekenes","coordinates":{"lat":"52.079272","long":"4.835513"}},{"country":"nl","city":"Bekkum","coordinates":{"lat":"52.211802","long":"6.740348"}},{"country":"nl","city":"Bekveld","coordinates":{"lat":"52.044084","long":"6.28212"}},{"country":"nl","city":"Belcrum","coordinates":{"lat":"51.599105","long":"4.769939"}},{"country":"nl","city":"Beldert","coordinates":{"lat":"51.680322","long":"3.988876"}},{"country":"nl","city":"Belfeld","coordinates":{"lat":"51.313154","long":"6.11805"}},{"country":"nl","city":"Belfort","coordinates":{"lat":"50.846985","long":"5.659906"}},{"country":"nl","city":"Belgenhoek","coordinates":{"lat":"51.371201","long":"5.918287"}},{"country":"nl","city":"Belgeren","coordinates":{"lat":"51.439916","long":"5.748932"}},{"country":"nl","city":"Bella Vista","coordinates":{"lat":"12.15","long":"-68.25"}},{"country":"nl","city":"Bellingeweer","coordinates":{"lat":"53.327153","long":"6.516178"}},{"country":"nl","city":"Bellingwolde","coordinates":{"lat":"53.110458","long":"7.160035"}},{"country":"nl","city":"Bel Nem","coordinates":{"lat":"12.116667","long":"-68.283333"}},{"country":"nl","city":"Belt","coordinates":{"lat":"52.904346","long":"4.949633"}},{"country":"nl","city":"Beltrum","coordinates":{"lat":"52.066384","long":"6.563847"}},{"country":"nl","city":"Belt-Schutsloot","coordinates":{"lat":"52.671111","long":"6.06267"}},{"country":"nl","city":"Belvert","coordinates":{"lat":"51.600262","long":"5.249348"}},{"country":"nl","city":"Bemelen","coordinates":{"lat":"50.848062","long":"5.76096"}},{"country":"nl","city":"Bemmel","coordinates":{"lat":"51.890107","long":"5.891289"}},{"country":"nl","city":"Bemmel","coordinates":{"lat":"51.765175","long":"4.409846"}},{"country":"nl","city":"Bemmelskous","coordinates":{"lat":"51.765175","long":"4.409846"}},{"country":"nl","city":"Bemmer","coordinates":{"lat":"51.549783","long":"5.624854"}},{"country":"nl","city":"Bendersche","coordinates":{"lat":"52.779121","long":"6.369079"}},{"country":"nl","city":"Benderse","coordinates":{"lat":"52.779121","long":"6.369079"}},{"country":"nl","city":"Benedenberg","coordinates":{"lat":"51.936547","long":"4.756328"}},{"country":"nl","city":"Beneden Delwijnen","coordinates":{"lat":"51.769511","long":"5.189298"}},{"country":"nl","city":"Benedeneind","coordinates":{"lat":"51.825102","long":"5.486075"}},{"country":"nl","city":"Benedeneind","coordinates":{"lat":"52.017132","long":"5.577738"}},{"country":"nl","city":"Beneden-Haastrecht","coordinates":{"lat":"52.001202","long":"4.755666"}},{"country":"nl","city":"Beneden-Haastrect","coordinates":{"lat":"52.001202","long":"4.755666"}},{"country":"nl","city":"Benedenheul","coordinates":{"lat":"51.959091","long":"4.736395"}},{"country":"nl","city":"Benedenkerk","coordinates":{"lat":"51.965904","long":"4.752269"}},{"country":"nl","city":"Benedenknijpe","coordinates":{"lat":"52.966667","long":"5.966667"}},{"country":"nl","city":"Beneden-Leeuwen","coordinates":{"lat":"51.878054","long":"5.517077"}},{"country":"nl","city":"Benedenvaart","coordinates":{"lat":"52.59782","long":"6.377131"}},{"country":"nl","city":"Beneden Veensloot","coordinates":{"lat":"53.130603","long":"6.925348"}},{"country":"nl","city":"Benesuela","coordinates":{"lat":"12.266667","long":"-68.333333"}},{"country":"nl","city":"Bennebroek","coordinates":{"lat":"52.329074","long":"4.607845"}},{"country":"nl","city":"Bennekom","coordinates":{"lat":"52.000842","long":"5.684072"}},{"country":"nl","city":"Benners","coordinates":{"lat":"17.483333","long":"-62.983333"}},{"country":"nl","city":"Benneveld","coordinates":{"lat":"52.776945","long":"6.743768"}},{"country":"nl","city":"Benningbroek","coordinates":{"lat":"52.704154","long":"5.01107"}},{"country":"nl","city":"Benoordenhout","coordinates":{"lat":"52.094952","long":"4.322018"}},{"country":"nl","city":"Benoordenhoutsche Vaard","coordinates":{"lat":"52.094952","long":"4.322018"}},{"country":"nl","city":"Benschop","coordinates":{"lat":"52.006663","long":"4.978897"}},{"country":"nl","city":"Bent","coordinates":{"lat":"52.106018","long":"4.557003"}},{"country":"nl","city":"Bentelo","coordinates":{"lat":"52.224972","long":"6.68356"}},{"country":"nl","city":"Benteloo","coordinates":{"lat":"52.224972","long":"6.68356"}},{"country":"nl","city":"Bentem","coordinates":{"lat":"51.496351","long":"5.723696"}},{"country":"nl","city":"Benten","coordinates":{"lat":"51.496351","long":"5.723696"}},{"country":"nl","city":"Benthem","coordinates":{"lat":"51.496351","long":"5.723696"}},{"country":"nl","city":"Benthuizen","coordinates":{"lat":"52.079454","long":"4.543027"}},{"country":"nl","city":"Bentum","coordinates":{"lat":"51.496351","long":"5.723696"}},{"country":"nl","city":"Bentveld","coordinates":{"lat":"52.366573","long":"4.572289"}},{"country":"nl","city":"Benzenrade","coordinates":{"lat":"50.862352","long":"5.982899"}},{"country":"nl","city":"Berchem","coordinates":{"lat":"51.773281","long":"5.579589"}},{"country":"nl","city":"Berenbroek","coordinates":{"lat":"51.467639","long":"5.606862"}},{"country":"nl","city":"Bergakker","coordinates":{"lat":"51.887646","long":"5.382456"}},{"country":"nl","city":"Bergambacht","coordinates":{"lat":"51.933771","long":"4.786438"}},{"country":"nl","city":"Berg","coordinates":{"lat":"50.836348","long":"5.749369"}},{"country":"nl","city":"Berg","coordinates":{"lat":"51.275547","long":"5.549918"}},{"country":"nl","city":"Bergeijk","coordinates":{"lat":"51.318699","long":"5.359563"}},{"country":"nl","city":"Bergeik","coordinates":{"lat":"51.318699","long":"5.359563"}},{"country":"nl","city":"Bergen aan Zee","coordinates":{"lat":"52.659668","long":"4.631762"}},{"country":"nl","city":"Bergen","coordinates":{"lat":"51.600383","long":"6.034003"}},{"country":"nl","city":"Bergen","coordinates":{"lat":"52.676543","long":"4.702946"}},{"country":"nl","city":"Bergen-Binnen","coordinates":{"lat":"52.676543","long":"4.702946"}},{"country":"nl","city":"Berg en Bos","coordinates":{"lat":"52.22009","long":"5.933401"}},{"country":"nl","city":"Berg en Dal","coordinates":{"lat":"51.818866","long":"5.91921"}},{"country":"nl","city":"Bergenhuizen","coordinates":{"lat":"50.774245","long":"5.81375"}},{"country":"nl","city":"Bergen op Zoom","coordinates":{"lat":"51.494492","long":"4.283509"}},{"country":"nl","city":"Bergenshuizen","coordinates":{"lat":"51.631462","long":"5.277292"}},{"country":"nl","city":"Bergentheim","coordinates":{"lat":"52.527271","long":"6.614394"}},{"country":"nl","city":"Bergerden","coordinates":{"lat":"51.919721","long":"5.921904"}},{"country":"nl","city":"Bergeyk","coordinates":{"lat":"51.318699","long":"5.359563"}},{"country":"nl","city":"Bergharen","coordinates":{"lat":"51.853285","long":"5.666219"}},{"country":"nl","city":"Berghem","coordinates":{"lat":"50.804282","long":"5.899251"}},{"country":"nl","city":"Berghem","coordinates":{"lat":"51.773281","long":"5.579589"}},{"country":"nl","city":"Berghkwartier","coordinates":{"lat":"52.145084","long":"5.364513"}},{"country":"nl","city":"Berghuis","coordinates":{"lat":"52.450574","long":"6.076085"}},{"country":"nl","city":"Berghuizen","coordinates":{"lat":"52.714622","long":"6.284576"}},{"country":"nl","city":"Berghuizen","coordinates":{"lat":"51.816667","long":"5.516667"}},{"country":"nl","city":"Berghum","coordinates":{"lat":"52.368366","long":"7.022257"}},{"country":"nl","city":"Bergkwatier","coordinates":{"lat":"52.249298","long":"6.179836"}},{"country":"nl","city":"Bergsche Heide","coordinates":{"lat":"51.593655","long":"6.065381"}},{"country":"nl","city":"Bergschenhoek","coordinates":{"lat":"51.987249","long":"4.515815"}},{"country":"nl","city":"Bergsebaan","coordinates":{"lat":"51.490149","long":"4.437682"}},{"country":"nl","city":"Bergstoep","coordinates":{"lat":"51.923797","long":"4.791509"}},{"country":"nl","city":"Bergstraat","coordinates":{"lat":"51.75","long":"5.516667"}},{"country":"nl","city":"Bergum","coordinates":{"lat":"53.194685","long":"5.993662"}},{"country":"nl","city":"Bergumer-Nieuwstadt","coordinates":{"lat":"53.266667","long":"6.05"}},{"country":"nl","city":"Bergweide","coordinates":{"lat":"52.249298","long":"6.179836"}},{"country":"nl","city":"Berik","coordinates":{"lat":"51.230956","long":"5.971606"}},{"country":"nl","city":"Beringe","coordinates":{"lat":"51.336619","long":"5.947178"}},{"country":"nl","city":"Beringen","coordinates":{"lat":"51.336619","long":"5.947178"}},{"country":"nl","city":"Beringerhoek","coordinates":{"lat":"51.33359","long":"5.944883"}},{"country":"nl","city":"Berk","coordinates":{"lat":"51.5443","long":"4.612441"}},{"country":"nl","city":"Berkeind","coordinates":{"lat":"51.552026","long":"4.970045"}},{"country":"nl","city":"Berkeindje","coordinates":{"lat":"51.410663","long":"5.674732"}},{"country":"nl","city":"Berkelaar","coordinates":{"lat":"51.116688","long":"5.874158"}},{"country":"nl","city":"Berkel","coordinates":{"lat":"51.586105","long":"5.145604"}},{"country":"nl","city":"Berkel","coordinates":{"lat":"51.992349","long":"4.465161"}},{"country":"nl","city":"Berkenrode","coordinates":{"lat":"52.35","long":"4.616667"}},{"country":"nl","city":"Berkenwoude","coordinates":{"lat":"51.946181","long":"4.70701"}},{"country":"nl","city":"Berkhoek","coordinates":{"lat":"51.585845","long":"5.689514"}},{"country":"nl","city":"Berkhout","coordinates":{"lat":"52.639733","long":"4.996232"}},{"country":"nl","city":"Berkmeer","coordinates":{"lat":"52.686474","long":"4.899939"}},{"country":"nl","city":"Berkt","coordinates":{"lat":"51.429127","long":"5.372439"}},{"country":"nl","city":"Berkum","coordinates":{"lat":"52.523472","long":"6.137886"}},{"country":"nl","city":"Berkum-Bruggenhoek","coordinates":{"lat":"52.530214","long":"6.137098"}},{"country":"nl","city":"Berlicum","coordinates":{"lat":"51.677461","long":"5.401218"}},{"country":"nl","city":"Berlikum","coordinates":{"lat":"53.243096","long":"5.649868"}},{"country":"nl","city":"Berlikum","coordinates":{"lat":"51.677461","long":"5.401218"}},{"country":"nl","city":"Berm","coordinates":{"lat":"51.783333","long":"5.316667"}},{"country":"nl","city":"Bern","coordinates":{"lat":"51.749445","long":"5.165577"}},{"country":"nl","city":"Bernissche Hoeven","coordinates":{"lat":"51.666458","long":"5.494518"}},{"country":"nl","city":"Bernsche Hoeven","coordinates":{"lat":"51.666458","long":"5.494518"}},{"country":"nl","city":"Bernsterburen","coordinates":{"lat":"53.096703","long":"5.734768"}},{"country":"nl","city":"Berverwyk","coordinates":{"lat":"52.49126","long":"4.652082"}},{"country":"nl","city":"Besel","coordinates":{"lat":"51.266715","long":"6.048432"}},{"country":"nl","city":"Besoijen","coordinates":{"lat":"51.687245","long":"5.054484"}},{"country":"nl","city":"Besooien","coordinates":{"lat":"51.687245","long":"5.054484"}},{"country":"nl","city":"Besoyen","coordinates":{"lat":"51.687245","long":"5.054484"}},{"country":"nl","city":"Besselaar","coordinates":{"lat":"51.61607","long":"5.367087"}},{"country":"nl","city":"Best","coordinates":{"lat":"51.504884","long":"5.392854"}},{"country":"nl","city":"Besthmen","coordinates":{"lat":"52.5038","long":"6.430428"}},{"country":"nl","city":"Bestmen","coordinates":{"lat":"52.5038","long":"6.430428"}},{"country":"nl","city":"Beswerd","coordinates":{"lat":"53.284982","long":"6.459722"}},{"country":"nl","city":"Bethlehem","coordinates":{"lat":"53.383166","long":"6.608932"}},{"country":"nl","city":"Betterwird","coordinates":{"lat":"53.332589","long":"5.970385"}},{"country":"nl","city":"Beugen","coordinates":{"lat":"51.672879","long":"5.936886"}},{"country":"nl","city":"Beugt","coordinates":{"lat":"51.639064","long":"5.504093"}},{"country":"nl","city":"Beuil","coordinates":{"lat":"52.908758","long":"6.19903"}},{"country":"nl","city":"Beukelaar","coordinates":{"lat":"51.616683","long":"5.561856"}},{"country":"nl","city":"Beul","coordinates":{"lat":"52.908758","long":"6.19903"}},{"country":"nl","city":"Beuningen","coordinates":{"lat":"51.859898","long":"5.766456"}},{"country":"nl","city":"Beuningen","coordinates":{"lat":"52.358563","long":"6.996599"}},{"country":"nl","city":"Beusbergen","coordinates":{"lat":"52.227975","long":"6.499749"}},{"country":"nl","city":"Beuseberg","coordinates":{"lat":"52.269078","long":"6.42371"}},{"country":"nl","city":"Beusichem","coordinates":{"lat":"51.949221","long":"5.283485"}},{"country":"nl","city":"Beutenaken","coordinates":{"lat":"50.780952","long":"5.854711"}},{"country":"nl","city":"Bevermeer","coordinates":{"lat":"51.997368","long":"6.154798"}},{"country":"nl","city":"Beverwijk","coordinates":{"lat":"52.49126","long":"4.652082"}},{"country":"nl","city":"Bezooien","coordinates":{"lat":"51.687245","long":"5.054484"}},{"country":"nl","city":"Bezuidenhout","coordinates":{"lat":"52.084599","long":"4.338113"}},{"country":"nl","city":"Bidderkerk","coordinates":{"lat":"51.872419","long":"4.612876"}},{"country":"nl","city":"Biddinghuizen","coordinates":{"lat":"52.452783","long":"5.693787"}},{"country":"nl","city":"Bieberg","coordinates":{"lat":"51.559138","long":"4.791862"}},{"country":"nl","city":"Biert","coordinates":{"lat":"51.838416","long":"4.285482"}},{"country":"nl","city":"Bierum","coordinates":{"lat":"53.38177","long":"6.860936"}},{"country":"nl","city":"Biervliet","coordinates":{"lat":"51.327428","long":"3.684852"}},{"country":"nl","city":"Bies","coordinates":{"lat":"50.91479","long":"5.829085"}},{"country":"nl","city":"Biesdonk","coordinates":{"lat":"51.6","long":"4.783333"}},{"country":"nl","city":"Bieshaar","coordinates":{"lat":"52.18885","long":"5.373986"}},{"country":"nl","city":"Biesland","coordinates":{"lat":"50.841104","long":"5.675727"}},{"country":"nl","city":"Biessum","coordinates":{"lat":"53.333928","long":"6.894326"}},{"country":"nl","city":"Biest","coordinates":{"lat":"51.507472","long":"5.157705"}},{"country":"nl","city":"Biesthoek","coordinates":{"lat":"51.627528","long":"5.652797"}},{"country":"nl","city":"Biest-Houtakker","coordinates":{"lat":"51.507472","long":"5.157705"}},{"country":"nl","city":"Biestraat","coordinates":{"lat":"51.54658","long":"4.923525"}},{"country":"nl","city":"Biesum","coordinates":{"lat":"53.333928","long":"6.894326"}},{"country":"nl","city":"Biezelinge","coordinates":{"lat":"51.475862","long":"3.960265"}},{"country":"nl","city":"Biezen","coordinates":{"lat":"51.247853","long":"3.469227"}},{"country":"nl","city":"Biezenheuvel","coordinates":{"lat":"51.405802","long":"5.303379"}},{"country":"nl","city":"Biezenkuilen","coordinates":{"lat":"51.433333","long":"5.433333"}},{"country":"nl","city":"Biezenmortel","coordinates":{"lat":"51.624582","long":"5.179137"}},{"country":"nl","city":"Biggekerke","coordinates":{"lat":"51.498683","long":"3.526759"}},{"country":"nl","city":"Bijlmer","coordinates":{"lat":"52.316667","long":"4.966667"}},{"country":"nl","city":"Bijlmermeer","coordinates":{"lat":"52.316667","long":"4.966667"}},{"country":"nl","city":"Bijsteren","coordinates":{"lat":"52.256689","long":"5.576235"}},{"country":"nl","city":"Bijsterveld","coordinates":{"lat":"51.450762","long":"5.352364"}},{"country":"nl","city":"Bijvanck","coordinates":{"lat":"52.285845","long":"5.265341"}},{"country":"nl","city":"Bikbergen","coordinates":{"lat":"52.287767","long":"5.19725"}},{"country":"nl","city":"Bikkershorn","coordinates":{"lat":"53.150464","long":"7.000748"}},{"country":"nl","city":"Bilderdam","coordinates":{"lat":"52.212821","long":"4.718337"}},{"country":"nl","city":"Bilgaard","coordinates":{"lat":"53.215505","long":"5.79574"}},{"country":"nl","city":"Bilgaerd","coordinates":{"lat":"53.215505","long":"5.79574"}},{"country":"nl","city":"Billinghuizen","coordinates":{"lat":"50.795643","long":"5.850975"}},{"country":"nl","city":"Bilthoven","coordinates":{"lat":"52.130663","long":"5.192306"}},{"country":"nl","city":"Bingelrade","coordinates":{"lat":"50.974154","long":"5.930923"}},{"country":"nl","city":"Bingerden","coordinates":{"lat":"51.98986","long":"6.104342"}},{"country":"nl","city":"Binnenheurne","coordinates":{"lat":"51.933333","long":"6.45"}},{"country":"nl","city":"Binnenhof","coordinates":{"lat":"52.164177","long":"4.536442"}},{"country":"nl","city":"Binnen-Moerdijk","coordinates":{"lat":"51.699722","long":"4.669946"}},{"country":"nl","city":"Binnenwijzend","coordinates":{"lat":"52.683333","long":"5.15"}},{"country":"nl","city":"Birdaard","coordinates":{"lat":"53.294901","long":"5.878515"}},{"country":"nl","city":"Birk","coordinates":{"lat":"52.159853","long":"5.333144"}},{"country":"nl","city":"Birstum","coordinates":{"lat":"53.07329","long":"5.844252"}},{"country":"nl","city":"Bisschop","coordinates":{"lat":"53.057975","long":"6.255127"}},{"country":"nl","city":"Bisschopswetering","coordinates":{"lat":"52.566731","long":"5.990477"}},{"country":"nl","city":"Bisselt","coordinates":{"lat":"51.756298","long":"5.905904"}},{"country":"nl","city":"Bissen","coordinates":{"lat":"50.785245","long":"5.905796"}},{"country":"nl","city":"Bitswijk","coordinates":{"lat":"51.671409","long":"5.610541"}},{"country":"nl","city":"Bittens","coordinates":{"lat":"53.088871","long":"5.486009"}},{"country":"nl","city":"Blaak","coordinates":{"lat":"51.814896","long":"4.520131"}},{"country":"nl","city":"Blaaksche Dijk","coordinates":{"lat":"51.814896","long":"4.520131"}},{"country":"nl","city":"Blaakschendijk","coordinates":{"lat":"51.814896","long":"4.520131"}},{"country":"nl","city":"Blaaksedijk","coordinates":{"lat":"51.814896","long":"4.520131"}},{"country":"nl","city":"Blaartem","coordinates":{"lat":"51.416667","long":"5.45"}},{"country":"nl","city":"Blaarthem","coordinates":{"lat":"51.416667","long":"5.45"}},{"country":"nl","city":"Blaasbalg","coordinates":{"lat":"51.8","long":"4.816667"}},{"country":"nl","city":"Bladel","coordinates":{"lat":"51.369191","long":"5.218936"}},{"country":"nl","city":"Blaker","coordinates":{"lat":"51.983571","long":"4.272334"}},{"country":"nl","city":"Blankenberg","coordinates":{"lat":"51.9","long":"4.25"}},{"country":"nl","city":"Blankenburg","coordinates":{"lat":"51.9","long":"4.25"}},{"country":"nl","city":"Blankenham","coordinates":{"lat":"52.765385","long":"5.89833"}},{"country":"nl","city":"Blaricum","coordinates":{"lat":"52.273551","long":"5.24929"}},{"country":"nl","city":"Blarikum","coordinates":{"lat":"52.273551","long":"5.24929"}},{"country":"nl","city":"Blauw","coordinates":{"lat":"53.126608","long":"6.368855"}},{"country":"nl","city":"Blauwe Hand","coordinates":{"lat":"52.69279","long":"6.076093"}},{"country":"nl","city":"Blauwe Keet","coordinates":{"lat":"52.89658","long":"4.780205"}},{"country":"nl","city":"Blauwenhoek","coordinates":{"lat":"51.60263","long":"5.868483"}},{"country":"nl","city":"Blauwesluis","coordinates":{"lat":"51.840227","long":"5.553385"}},{"country":"nl","city":"Blauwe Sluis","coordinates":{"lat":"51.594869","long":"4.361802"}},{"country":"nl","city":"Blauwewijk","coordinates":{"lat":"51.520376","long":"3.852126"}},{"country":"nl","city":"Blauwhuis","coordinates":{"lat":"53.016667","long":"5.533333"}},{"country":"nl","city":"Blauwkapel","coordinates":{"lat":"52.113612","long":"5.149651"}},{"country":"nl","city":"Blauwverlaat","coordinates":{"lat":"53.225738","long":"6.179797"}},{"country":"nl","city":"Bleienbeek","coordinates":{"lat":"51.634805","long":"6.050921"}},{"country":"nl","city":"Bleijenbeek","coordinates":{"lat":"51.634805","long":"6.050921"}},{"country":"nl","city":"Bleijerheide","coordinates":{"lat":"50.850452","long":"6.067298"}},{"country":"nl","city":"Bleiswijk","coordinates":{"lat":"52.012887","long":"4.527929"}},{"country":"nl","city":"Blekkink","coordinates":{"lat":"51.92356","long":"6.66219"}},{"country":"nl","city":"Blekslage","coordinates":{"lat":"52.989854","long":"7.064294"}},{"country":"nl","city":"Blenkert","coordinates":{"lat":"51.266952","long":"5.899844"}},{"country":"nl","city":"Blerick","coordinates":{"lat":"51.370529","long":"6.142857"}},{"country":"nl","city":"Blerik","coordinates":{"lat":"51.370529","long":"6.142857"}},{"country":"nl","city":"Blesdijk","coordinates":{"lat":"52.829521","long":"6.01099"}},{"country":"nl","city":"Blesdijke","coordinates":{"lat":"52.829521","long":"6.01099"}},{"country":"nl","city":"Blesdijkerveld","coordinates":{"lat":"52.829069","long":"6.0334"}},{"country":"nl","city":"Bleskensgraaf","coordinates":{"lat":"51.872001","long":"4.784624"}},{"country":"nl","city":"Blesse","coordinates":{"lat":"52.844106","long":"6.038313"}},{"country":"nl","city":"Blessum","coordinates":{"lat":"53.181699","long":"5.709501"}},{"country":"nl","city":"Blieswijk","coordinates":{"lat":"52.012887","long":"4.527929"}},{"country":"nl","city":"Blija","coordinates":{"lat":"53.352683","long":"5.861279"}},{"country":"nl","city":"Blijdenstein","coordinates":{"lat":"52.711495","long":"6.249479"}},{"country":"nl","city":"Blijenbeek","coordinates":{"lat":"51.634805","long":"6.050921"}},{"country":"nl","city":"Blijham","coordinates":{"lat":"53.107929","long":"7.081359"}},{"country":"nl","city":"Blikhalm","coordinates":{"lat":"51.45","long":"5.7"}},{"country":"nl","city":"Blitterswijck","coordinates":{"lat":"51.531684","long":"6.108443"}},{"country":"nl","city":"Blitterswijk","coordinates":{"lat":"51.531684","long":"6.108443"}},{"country":"nl","city":"Bloemberg","coordinates":{"lat":"52.652375","long":"6.349153"}},{"country":"nl","city":"Bloemendaal","coordinates":{"lat":"52.405912","long":"4.609438"}},{"country":"nl","city":"Bloemendaal","coordinates":{"lat":"52.028777","long":"4.694404"}},{"country":"nl","city":"Bloemendaalseweg","coordinates":{"lat":"52.028777","long":"4.694404"}},{"country":"nl","city":"Bloemhof","coordinates":{"lat":"51.89723","long":"4.499427"}},{"country":"nl","city":"Blokdijk","coordinates":{"lat":"52.65","long":"5.15"}},{"country":"nl","city":"Blokhuizen","coordinates":{"lat":"52.751448","long":"4.831903"}},{"country":"nl","city":"Blokker","coordinates":{"lat":"52.666861","long":"5.087238"}},{"country":"nl","city":"Blokland","coordinates":{"lat":"52.0344","long":"4.958358"}},{"country":"nl","city":"Blokum","coordinates":{"lat":"53.260193","long":"6.719733"}},{"country":"nl","city":"Blokzijl","coordinates":{"lat":"52.726557","long":"5.961056"}},{"country":"nl","city":"Bobeldijk","coordinates":{"lat":"52.65375","long":"5.000504"}},{"country":"nl","city":"Bocholtz","coordinates":{"lat":"50.816252","long":"6.014036"}},{"country":"nl","city":"Bocholtzerheide","coordinates":{"lat":"50.816331","long":"5.992982"}},{"country":"nl","city":"Bocholz","coordinates":{"lat":"50.816252","long":"6.014036"}},{"country":"nl","city":"Boddenbroek","coordinates":{"lat":"51.513237","long":"6.049909"}},{"country":"nl","city":"Bodegraven","coordinates":{"lat":"52.086135","long":"4.756828"}},{"country":"nl","city":"Boechouterhaven","coordinates":{"lat":"51.274507","long":"3.723644"}},{"country":"nl","city":"Boeicop","coordinates":{"lat":"51.933333","long":"5.116667"}},{"country":"nl","city":"Boeiink","coordinates":{"lat":"51.529497","long":"4.416312"}},{"country":"nl","city":"Boeikoop","coordinates":{"lat":"51.933333","long":"5.116667"}},{"country":"nl","city":"Boeikop","coordinates":{"lat":"51.933333","long":"5.116667"}},{"country":"nl","city":"Boekel","coordinates":{"lat":"51.60165","long":"5.673885"}},{"country":"nl","city":"Boekel","coordinates":{"lat":"52.587807","long":"4.749986"}},{"country":"nl","city":"Boekelo","coordinates":{"lat":"52.203127","long":"6.800784"}},{"country":"nl","city":"Boekeloo","coordinates":{"lat":"52.203127","long":"6.800784"}},{"country":"nl","city":"Boekend","coordinates":{"lat":"51.3761","long":"6.11689"}},{"country":"nl","city":"Boekend","coordinates":{"lat":"51.55","long":"5.7"}},{"country":"nl","city":"Boekenderbos","coordinates":{"lat":"51.316667","long":"6.033333"}},{"country":"nl","city":"Boeket","coordinates":{"lat":"51.283333","long":"5.733333"}},{"country":"nl","city":"Boekhorst","coordinates":{"lat":"52.975446","long":"6.29195"}},{"country":"nl","city":"Boelenslaan","coordinates":{"lat":"53.162293","long":"6.143767"}},{"country":"nl","city":"Boerakker","coordinates":{"lat":"53.185956","long":"6.329871"}},{"country":"nl","city":"Boer","coordinates":{"lat":"53.215853","long":"5.565332"}},{"country":"nl","city":"Boerdijk","coordinates":{"lat":"52.726914","long":"5.071816"}},{"country":"nl","city":"Boerdonk","coordinates":{"lat":"51.558307","long":"5.627499"}},{"country":"nl","city":"Boerelaan","coordinates":{"lat":"53.131779","long":"6.491406"}},{"country":"nl","city":"Boerengat","coordinates":{"lat":"51.333333","long":"3.783333"}},{"country":"nl","city":"Boerenhoek","coordinates":{"lat":"51.904949","long":"5.972378"}},{"country":"nl","city":"Boerenhol","coordinates":{"lat":"51.38399","long":"3.53547"}},{"country":"nl","city":"Boerenstreek","coordinates":{"lat":"53.11585","long":"6.346868"}},{"country":"nl","city":"Boerhaar","coordinates":{"lat":"52.37506","long":"6.150558"}},{"country":"nl","city":"Boermastreek","coordinates":{"lat":"52.887568","long":"6.901464"}},{"country":"nl","city":"Boertang","coordinates":{"lat":"53.006774","long":"7.192259"}},{"country":"nl","city":"Boertange","coordinates":{"lat":"53.006774","long":"7.192259"}},{"country":"nl","city":"Boerveenschemond","coordinates":{"lat":"53.007905","long":"6.883333"}},{"country":"nl","city":"Boesingheliede","coordinates":{"lat":"52.362232","long":"4.723333"}},{"country":"nl","city":"Boetele","coordinates":{"lat":"52.372443","long":"6.305312"}},{"country":"nl","city":"Boeteloo","coordinates":{"lat":"52.372443","long":"6.305312"}},{"country":"nl","city":"Boevenheuvel","coordinates":{"lat":"51.35","long":"5.35"}},{"country":"nl","city":"Bogaard","coordinates":{"lat":"51.633333","long":"5.45"}},{"country":"nl","city":"Bohemen","coordinates":{"lat":"52.066667","long":"4.233333"}},{"country":"nl","city":"Boijl","coordinates":{"lat":"52.908758","long":"6.19903"}},{"country":"nl","city":"Boil","coordinates":{"lat":"52.908758","long":"6.19903"}},{"country":"nl","city":"Bois-le-Duc","coordinates":{"lat":"51.700196","long":"5.306806"}},{"country":"nl","city":"Bokhorst","coordinates":{"lat":"51.468874","long":"5.684202"}},{"country":"nl","city":"Bokhoven","coordinates":{"lat":"51.73708","long":"5.232005"}},{"country":"nl","city":"Boksheide","coordinates":{"lat":"51.326149","long":"5.308519"}},{"country":"nl","city":"Boksmeer","coordinates":{"lat":"51.644012","long":"5.960815"}},{"country":"nl","city":"Bokstel","coordinates":{"lat":"51.590116","long":"5.328162"}},{"country":"nl","city":"Boksum","coordinates":{"lat":"53.176874","long":"5.729171"}},{"country":"nl","city":"Bokt","coordinates":{"lat":"51.490924","long":"5.499781"}},{"country":"nl","city":"Bolberg","coordinates":{"lat":"51.533394","long":"4.933804"}},{"country":"nl","city":"Bolenberg","coordinates":{"lat":"51.303482","long":"6.114111"}},{"country":"nl","city":"Bolkhoek","coordinates":{"lat":"52.344492","long":"6.703207"}},{"country":"nl","city":"Bolkshoek","coordinates":{"lat":"52.344492","long":"6.703207"}},{"country":"nl","city":"Bollendorp","coordinates":{"lat":"52.583333","long":"4.683333"}},{"country":"nl","city":"Bollingawier","coordinates":{"lat":"53.378931","long":"6.034234"}},{"country":"nl","city":"Bolnes","coordinates":{"lat":"51.897699","long":"4.577243"}},{"country":"nl","city":"Bolshuizen","coordinates":{"lat":"53.299511","long":"6.479558"}},{"country":"nl","city":"Bolst","coordinates":{"lat":"51.60648","long":"5.598783"}},{"country":"nl","city":"Bolsward","coordinates":{"lat":"53.065545","long":"5.531756"}},{"country":"nl","city":"Bomen- en Bloemen Buurt","coordinates":{"lat":"52.066667","long":"4.283333"}},{"country":"nl","city":"Bommel","coordinates":{"lat":"51.715881","long":"4.283632"}},{"country":"nl","city":"Bommelskous","coordinates":{"lat":"51.765175","long":"4.409846"}},{"country":"nl","city":"Bommenede","coordinates":{"lat":"51.733333","long":"3.933333"}},{"country":"nl","city":"Bommerich","coordinates":{"lat":"50.779995","long":"5.927212"}},{"country":"nl","city":"Bong","coordinates":{"lat":"51.333018","long":"6.082857"}},{"country":"nl","city":"Bonkwerd","coordinates":{"lat":"53.132522","long":"5.606534"}},{"country":"nl","city":"Bonnen","coordinates":{"lat":"53.005212","long":"6.774874"}},{"country":"nl","city":"Bonnerveen","coordinates":{"lat":"53.013739","long":"6.832912"}},{"country":"nl","city":"Bonrepas","coordinates":{"lat":"51.965413","long":"4.842373"}},{"country":"nl","city":"Bontebok","coordinates":{"lat":"52.962226","long":"6.028006"}},{"country":"nl","city":"Bontebrug","coordinates":{"lat":"51.893967","long":"6.396298"}},{"country":"nl","city":"Bontemorgen","coordinates":{"lat":"51.966667","long":"5.516667"}},{"country":"nl","city":"Boomen","coordinates":{"lat":"51.419587","long":"5.693243"}},{"country":"nl","city":"Boompjes","coordinates":{"lat":"51.621876","long":"4.320061"}},{"country":"nl","city":"Boompjesdijk","coordinates":{"lat":"51.621876","long":"4.320061"}},{"country":"nl","city":"Booneschans","coordinates":{"lat":"53.161255","long":"7.182016"}},{"country":"nl","city":"Boord","coordinates":{"lat":"51.468481","long":"5.522166"}},{"country":"nl","city":"Boornbergum","coordinates":{"lat":"53.082106","long":"6.044777"}},{"country":"nl","city":"Boornzwaag","coordinates":{"lat":"52.883333","long":"5.566667"}},{"country":"nl","city":"Boornzwaag over de Wielen","coordinates":{"lat":"52.95","long":"5.75"}},{"country":"nl","city":"Borchwerf","coordinates":{"lat":"51.55","long":"4.45"}},{"country":"nl","city":"Borculo","coordinates":{"lat":"52.116011","long":"6.520741"}},{"country":"nl","city":"Borgele","coordinates":{"lat":"52.276298","long":"6.149255"}},{"country":"nl","city":"Borger","coordinates":{"lat":"52.922169","long":"6.792614"}},{"country":"nl","city":"Borgercompagnie","coordinates":{"lat":"53.116713","long":"6.819972"}},{"country":"nl","city":"Borgertange","coordinates":{"lat":"52.937372","long":"7.109768"}},{"country":"nl","city":"Borgharen","coordinates":{"lat":"50.87763","long":"5.688171"}},{"country":"nl","city":"Borgsweer","coordinates":{"lat":"53.298335","long":"7.014433"}},{"country":"nl","city":"Borgweg","coordinates":{"lat":"53.178988","long":"6.711987"}},{"country":"nl","city":"Borkel","coordinates":{"lat":"51.3","long":"5.433333"}},{"country":"nl","city":"Borkeld","coordinates":{"lat":"52.278707","long":"6.466553"}},{"country":"nl","city":"Borkulo","coordinates":{"lat":"52.116011","long":"6.520741"}},{"country":"nl","city":"Born","coordinates":{"lat":"51.029865","long":"5.806392"}},{"country":"nl","city":"Borne","coordinates":{"lat":"51.620595","long":"5.415564"}},{"country":"nl","city":"Borne","coordinates":{"lat":"52.301356","long":"6.748199"}},{"country":"nl","city":"Bornebroek","coordinates":{"lat":"52.309458","long":"6.65634"}},{"country":"nl","city":"Bornerbroek","coordinates":{"lat":"52.309458","long":"6.65634"}},{"country":"nl","city":"Bornwerd","coordinates":{"lat":"53.33426","long":"5.954667"}},{"country":"nl","city":"Bornwird","coordinates":{"lat":"53.33426","long":"5.954667"}},{"country":"nl","city":"Bornwirdhuizen","coordinates":{"lat":"53.333333","long":"5.983333"}},{"country":"nl","city":"Borsele","coordinates":{"lat":"51.423688","long":"3.734448"}},{"country":"nl","city":"Borssele","coordinates":{"lat":"51.423688","long":"3.734448"}},{"country":"nl","city":"Borsselen","coordinates":{"lat":"51.423688","long":"3.734448"}},{"country":"nl","city":"Borteldonk","coordinates":{"lat":"51.503247","long":"4.468015"}},{"country":"nl","city":"Bosch","coordinates":{"lat":"51.268605","long":"5.596042"}},{"country":"nl","city":"Boscheind","coordinates":{"lat":"51.282256","long":"5.306005"}},{"country":"nl","city":"Bosch en Duin","coordinates":{"lat":"52.121073","long":"5.250649"}},{"country":"nl","city":"Boschheurne","coordinates":{"lat":"52.118308","long":"6.461062"}},{"country":"nl","city":"Boschhoven","coordinates":{"lat":"51.463711","long":"4.946826"}},{"country":"nl","city":"Boschkant","coordinates":{"lat":"51.788596","long":"5.757904"}},{"country":"nl","city":"Boschkant","coordinates":{"lat":"51.546549","long":"5.428192"}},{"country":"nl","city":"Boschkens","coordinates":{"lat":"51.533886","long":"5.065132"}},{"country":"nl","city":"Boschoord","coordinates":{"lat":"52.897829","long":"6.226476"}},{"country":"nl","city":"Boschoven","coordinates":{"lat":"51.259872","long":"5.682247"}},{"country":"nl","city":"Boschweg","coordinates":{"lat":"51.627786","long":"5.421423"}},{"country":"nl","city":"Bos en Lommer","coordinates":{"lat":"52.380104","long":"4.848873"}},{"country":"nl","city":"Boshoek","coordinates":{"lat":"52.340785","long":"6.030899"}},{"country":"nl","city":"Boshoven","coordinates":{"lat":"51.259872","long":"5.682247"}},{"country":"nl","city":"Boshoven","coordinates":{"lat":"51.345644","long":"5.381018"}},{"country":"nl","city":"Boshoven-Vrakker","coordinates":{"lat":"51.259872","long":"5.682247"}},{"country":"nl","city":"Boshuizen","coordinates":{"lat":"51.537905","long":"6.002704"}},{"country":"nl","city":"Bosje","coordinates":{"lat":"53.023054","long":"6.868241"}},{"country":"nl","city":"Boskamp","coordinates":{"lat":"52.330018","long":"6.128557"}},{"country":"nl","city":"Boskant","coordinates":{"lat":"51.546549","long":"5.428192"}},{"country":"nl","city":"Boskoop","coordinates":{"lat":"52.069873","long":"4.667693"}},{"country":"nl","city":"Boslust","coordinates":{"lat":"51.480488","long":"4.969718"}},{"country":"nl","city":"Bosschenhoofd","coordinates":{"lat":"51.56078","long":"4.54028"}},{"country":"nl","city":"Bosschenhuizen","coordinates":{"lat":"50.836856","long":"5.957264"}},{"country":"nl","city":"Bosscherheide","coordinates":{"lat":"51.571923","long":"6.083105"}},{"country":"nl","city":"Bossenburgh","coordinates":{"lat":"51.462903","long":"3.572815"}},{"country":"nl","city":"Bosserheide","coordinates":{"lat":"51.571923","long":"6.083105"}},{"country":"nl","city":"Bosserstraat","coordinates":{"lat":"51.296036","long":"5.748613"}},{"country":"nl","city":"Boteburen","coordinates":{"lat":"53.35","long":"5.85"}},{"country":"nl","city":"Botele","coordinates":{"lat":"12.233333","long":"-68.316667"}},{"country":"nl","city":"Boterveen","coordinates":{"lat":"52.864411","long":"6.386494"}},{"country":"nl","city":"Boterwijk","coordinates":{"lat":"51.512411","long":"5.287016"}},{"country":"nl","city":"Botshol","coordinates":{"lat":"52.243906","long":"4.902927"}},{"country":"nl","city":"Botshoofd","coordinates":{"lat":"51.557559","long":"4.228123"}},{"country":"nl","city":"Bottel","coordinates":{"lat":"51.456604","long":"5.768795"}},{"country":"nl","city":"Bottom","coordinates":{"lat":"17.633333","long":"-63.25"}},{"country":"nl","city":"Bouchauterhaven","coordinates":{"lat":"51.274507","long":"3.723644"}},{"country":"nl","city":"Boudewijnskerke","coordinates":{"lat":"51.524177","long":"3.477467"}},{"country":"nl","city":"Bouille","coordinates":{"lat":"17.466667","long":"-62.966667"}},{"country":"nl","city":"Boukoel","coordinates":{"lat":"51.215508","long":"6.047602"}},{"country":"nl","city":"Boukoul","coordinates":{"lat":"51.215508","long":"6.047602"}},{"country":"nl","city":"Bourtange","coordinates":{"lat":"53.006774","long":"7.192259"}},{"country":"nl","city":"Bouwberg","coordinates":{"lat":"50.955225","long":"5.994756"}},{"country":"nl","city":"Bouwerschap","coordinates":{"lat":"53.274565","long":"6.711957"}},{"country":"nl","city":"Bovenberg","coordinates":{"lat":"51.954593","long":"4.823547"}},{"country":"nl","city":"Boven Bolivia","coordinates":{"lat":"12.183333","long":"-68.216667"}},{"country":"nl","city":"Bovenburen","coordinates":{"lat":"52.9254","long":"5.46592"}},{"country":"nl","city":"Bovendijks","coordinates":{"lat":"53.316667","long":"6.783333"}},{"country":"nl","city":"Boveneind","coordinates":{"lat":"51.817579","long":"5.51387"}},{"country":"nl","city":"Boven-Haastrecht","coordinates":{"lat":"52.010641","long":"4.799571"}},{"country":"nl","city":"Boven Hardingsveld","coordinates":{"lat":"51.823905","long":"4.880543"}},{"country":"nl","city":"Boven-Hardinxveld","coordinates":{"lat":"51.823905","long":"4.880543"}},{"country":"nl","city":"Bovenkarspel","coordinates":{"lat":"52.698043","long":"5.255178"}},{"country":"nl","city":"Bovenkerk","coordinates":{"lat":"52.291529","long":"4.83362"}},{"country":"nl","city":"Bovenkerk","coordinates":{"lat":"51.9734","long":"4.783412"}},{"country":"nl","city":"Bovenknijpe","coordinates":{"lat":"52.968332","long":"5.967714"}},{"country":"nl","city":"Boven-Leeuwen","coordinates":{"lat":"51.886557","long":"5.535829"}},{"country":"nl","city":"Bovenrijge","coordinates":{"lat":"53.272135","long":"6.664127"}},{"country":"nl","city":"Bovensluis","coordinates":{"lat":"51.683806","long":"4.468616"}},{"country":"nl","city":"Bovensmilde","coordinates":{"lat":"52.976223","long":"6.480455"}},{"country":"nl","city":"Bovenstad","coordinates":{"lat":"51.933333","long":"4.816667"}},{"country":"nl","city":"Bovenste Huis","coordinates":{"lat":"51.616291","long":"5.680424"}},{"country":"nl","city":"Bovenstreek","coordinates":{"lat":"53.022886","long":"6.855798"}},{"country":"nl","city":"Bovenstreek","coordinates":{"lat":"52.433333","long":"5.9"}},{"country":"nl","city":"Bovenstreek","coordinates":{"lat":"53.125486","long":"6.967349"}},{"country":"nl","city":"Bovenveen","coordinates":{"lat":"52.425666","long":"5.899846"}},{"country":"nl","city":"Boven Veensloot","coordinates":{"lat":"53.128711","long":"6.926437"}},{"country":"nl","city":"Bowgraven","coordinates":{"lat":"50.87763","long":"5.688171"}},{"country":"nl","city":"Boxmeer","coordinates":{"lat":"51.644012","long":"5.960815"}},{"country":"nl","city":"Boxtel","coordinates":{"lat":"51.590116","long":"5.328162"}},{"country":"nl","city":"Boxum","coordinates":{"lat":"53.176874","long":"5.729171"}},{"country":"nl","city":"Boyl","coordinates":{"lat":"52.908758","long":"6.19903"}},{"country":"nl","city":"Boyle","coordinates":{"lat":"52.908758","long":"6.19903"}},{"country":"nl","city":"Bozum","coordinates":{"lat":"53.089721","long":"5.69498"}},{"country":"nl","city":"Braakhoek","coordinates":{"lat":"51.404463","long":"5.176576"}},{"country":"nl","city":"Braakhuizen","coordinates":{"lat":"51.426137","long":"5.568127"}},{"country":"nl","city":"Braakpeel","coordinates":{"lat":"51.281648","long":"5.797268"}},{"country":"nl","city":"Braamberg","coordinates":{"lat":"52.646223","long":"6.518732"}},{"country":"nl","city":"Braamberg","coordinates":{"lat":"52.937526","long":"7.047028"}},{"country":"nl","city":"Braambosch","coordinates":{"lat":"51.344097","long":"5.413338"}},{"country":"nl","city":"Braamt","coordinates":{"lat":"51.922615","long":"6.263956"}},{"country":"nl","city":"Braband","coordinates":{"lat":"51.833333","long":"4.333333"}},{"country":"nl","city":"Brabander","coordinates":{"lat":"51.535898","long":"5.968294"}},{"country":"nl","city":"Brachterbeek","coordinates":{"lat":"51.145306","long":"5.905317"}},{"country":"nl","city":"Brakel","coordinates":{"lat":"51.819097","long":"5.09387"}},{"country":"nl","city":"Brakel","coordinates":{"lat":"51.515663","long":"4.999939"}},{"country":"nl","city":"Brakkenstein","coordinates":{"lat":"51.813242","long":"5.865393"}},{"country":"nl","city":"Brakkenstraat","coordinates":{"lat":"51.55","long":"4.65"}},{"country":"nl","city":"Brakkestein","coordinates":{"lat":"51.813242","long":"5.865393"}},{"country":"nl","city":"Brammelo","coordinates":{"lat":"52.155311","long":"6.679683"}},{"country":"nl","city":"Brammeloo","coordinates":{"lat":"52.155311","long":"6.679683"}},{"country":"nl","city":"Brand","coordinates":{"lat":"51.45","long":"5.616667"}},{"country":"nl","city":"Brandeburen","coordinates":{"lat":"52.95","long":"5.5"}},{"country":"nl","city":"Brandemolen","coordinates":{"lat":"51.483355","long":"6.193483"}},{"country":"nl","city":"Brandevoort","coordinates":{"lat":"51.460648","long":"5.616634"}},{"country":"nl","city":"Brandt","coordinates":{"lat":"51.137571","long":"5.862128"}},{"country":"nl","city":"Brandwijk","coordinates":{"lat":"51.889822","long":"4.813508"}},{"country":"nl","city":"Brantgum","coordinates":{"lat":"53.352064","long":"5.93004"}},{"country":"nl","city":"Breda","coordinates":{"lat":"51.566667","long":"4.8"}},{"country":"nl","city":"Bredelaar","coordinates":{"lat":"51.911405","long":"5.877465"}},{"country":"nl","city":"Bredevoort","coordinates":{"lat":"51.94295","long":"6.618108"}},{"country":"nl","city":"Bredeweg","coordinates":{"lat":"51.761193","long":"5.943552"}},{"country":"nl","city":"Bredius Kwartier","coordinates":{"lat":"52.280605","long":"5.173011"}},{"country":"nl","city":"Breede","coordinates":{"lat":"53.385655","long":"6.537025"}},{"country":"nl","city":"Breedenbroek","coordinates":{"lat":"51.872904","long":"6.472621"}},{"country":"nl","city":"Breedeveen","coordinates":{"lat":"52.024214","long":"5.417135"}},{"country":"nl","city":"Breedschot","coordinates":{"lat":"51.508361","long":"4.714535"}},{"country":"nl","city":"Breehees","coordinates":{"lat":"51.498915","long":"5.067958"}},{"country":"nl","city":"Breemortel","coordinates":{"lat":"51.44504","long":"5.812829"}},{"country":"nl","city":"Breeveld","coordinates":{"lat":"52.103751","long":"4.92591"}},{"country":"nl","city":"Breezand","coordinates":{"lat":"52.88773","long":"4.801825"}},{"country":"nl","city":"Breezand","coordinates":{"lat":"51.584587","long":"3.616353"}},{"country":"nl","city":"Bregtdorp","coordinates":{"lat":"52.711655","long":"4.684375"}},{"country":"nl","city":"Breklenkamp","coordinates":{"lat":"52.452565","long":"6.986064"}},{"country":"nl","city":"Bremberg","coordinates":{"lat":"51.566667","long":"4.683333"}},{"country":"nl","city":"Brembosch","coordinates":{"lat":"51.497183","long":"4.433643"}},{"country":"nl","city":"Brem","coordinates":{"lat":"51.533333","long":"5.05"}},{"country":"nl","city":"Breskens","coordinates":{"lat":"51.397492","long":"3.55322"}},{"country":"nl","city":"Breudijk","coordinates":{"lat":"52.102184","long":"4.957423"}},{"country":"nl","city":"Breugel","coordinates":{"lat":"51.517635","long":"5.516803"}},{"country":"nl","city":"Breukelen","coordinates":{"lat":"51.583333","long":"5.316667"}},{"country":"nl","city":"Breukelen","coordinates":{"lat":"52.177836","long":"5.002248"}},{"country":"nl","city":"Breukelerveen","coordinates":{"lat":"52.178301","long":"5.06951"}},{"country":"nl","city":"Breukeleveen","coordinates":{"lat":"52.178301","long":"5.06951"}},{"country":"nl","city":"Breust","coordinates":{"lat":"50.781225","long":"5.71061"}},{"country":"nl","city":"Bricat","coordinates":{"lat":"12.15","long":"-68.216667"}},{"country":"nl","city":"Briel","coordinates":{"lat":"51.633333","long":"4.7"}},{"country":"nl","city":"Brielle","coordinates":{"lat":"51.900408","long":"4.171243"}},{"country":"nl","city":"Brienenoord","coordinates":{"lat":"51.903336","long":"4.557348"}},{"country":"nl","city":"Brienenoordbrug","coordinates":{"lat":"51.903336","long":"4.557348"}},{"country":"nl","city":"Brigdamme","coordinates":{"lat":"51.516667","long":"3.6"}},{"country":"nl","city":"Brijdorpe","coordinates":{"lat":"51.720117","long":"3.87501"}},{"country":"nl","city":"Brillerij","coordinates":{"lat":"53.28708","long":"6.481775"}},{"country":"nl","city":"Briltil","coordinates":{"lat":"53.24168","long":"6.387872"}},{"country":"nl","city":"Brinke","coordinates":{"lat":"51.938243","long":"6.673955"}},{"country":"nl","city":"Brinkheurne","coordinates":{"lat":"51.952743","long":"6.739558"}},{"country":"nl","city":"Brinkhoek","coordinates":{"lat":"52.536306","long":"6.120267"}},{"country":"nl","city":"Brinkhorst","coordinates":{"lat":"52.211934","long":"5.951554"}},{"country":"nl","city":"Brinkmanshoek","coordinates":{"lat":"52.080589","long":"6.499361"}},{"country":"nl","city":"Britsum","coordinates":{"lat":"53.253047","long":"5.784651"}},{"country":"nl","city":"Britswerd","coordinates":{"lat":"53.112165","long":"5.674862"}},{"country":"nl","city":"Broek","coordinates":{"lat":"52.981337","long":"5.778048"}},{"country":"nl","city":"Broek","coordinates":{"lat":"51.947527","long":"6.239868"}},{"country":"nl","city":"Broek","coordinates":{"lat":"53.393939","long":"6.425194"}},{"country":"nl","city":"Broek","coordinates":{"lat":"50.784205","long":"5.915573"}},{"country":"nl","city":"Broek","coordinates":{"lat":"51.406604","long":"5.440556"}},{"country":"nl","city":"Broek","coordinates":{"lat":"52.436965","long":"4.991849"}},{"country":"nl","city":"Broek","coordinates":{"lat":"51.932324","long":"4.969155"}},{"country":"nl","city":"Broekdijk","coordinates":{"lat":"52.45","long":"5.933333"}},{"country":"nl","city":"Broekeind","coordinates":{"lat":"51.429469","long":"6.147897"}},{"country":"nl","city":"Broekenseind","coordinates":{"lat":"51.395293","long":"5.301679"}},{"country":"nl","city":"Broekerhaven","coordinates":{"lat":"52.692898","long":"5.266904"}},{"country":"nl","city":"Broekhem","coordinates":{"lat":"50.869493","long":"5.822235"}},{"country":"nl","city":"Broekheurne","coordinates":{"lat":"52.180109","long":"6.866878"}},{"country":"nl","city":"Broekhin","coordinates":{"lat":"51.208455","long":"6.013282"}},{"country":"nl","city":"Broekhoek","coordinates":{"lat":"51.734471","long":"5.518009"}},{"country":"nl","city":"Broekhorn","coordinates":{"lat":"52.672102","long":"4.815142"}},{"country":"nl","city":"Broekhoven","coordinates":{"lat":"50.930777","long":"5.748729"}},{"country":"nl","city":"Broekhoven","coordinates":{"lat":"51.361745","long":"5.379434"}},{"country":"nl","city":"Broekhuizen","coordinates":{"lat":"52.698592","long":"6.25993"}},{"country":"nl","city":"Broekhuizen","coordinates":{"lat":"50.916667","long":"6.066667"}},{"country":"nl","city":"Broekhuizen","coordinates":{"lat":"52.016667","long":"5.4"}},{"country":"nl","city":"Broekhuizen","coordinates":{"lat":"52.521026","long":"6.213875"}},{"country":"nl","city":"Broekhuizenvorst","coordinates":{"lat":"51.495576","long":"6.159695"}},{"country":"nl","city":"Broekhuizervorst","coordinates":{"lat":"51.495576","long":"6.159695"}},{"country":"nl","city":"Broek in Waterland","coordinates":{"lat":"52.436965","long":"4.991849"}},{"country":"nl","city":"Broekkant","coordinates":{"lat":"51.8","long":"5.833333"}},{"country":"nl","city":"Broekkant","coordinates":{"lat":"51.28241","long":"5.589968"}},{"country":"nl","city":"Broekland","coordinates":{"lat":"52.26438","long":"6.005754"}},{"country":"nl","city":"Broekland","coordinates":{"lat":"52.360975","long":"6.20049"}},{"country":"nl","city":"Broeklanden","coordinates":{"lat":"51.956948","long":"5.976728"}},{"country":"nl","city":"Broek-Noord","coordinates":{"lat":"52.983333","long":"5.783333"}},{"country":"nl","city":"Broekoord","coordinates":{"lat":"52.75","long":"5.2"}},{"country":"nl","city":"Broek op Langedijk","coordinates":{"lat":"52.672176","long":"4.805856"}},{"country":"nl","city":"Broek op Langendijk","coordinates":{"lat":"52.672176","long":"4.805856"}},{"country":"nl","city":"Broeksittard","coordinates":{"lat":"51.001463","long":"5.897498"}},{"country":"nl","city":"Broeksterwoude","coordinates":{"lat":"53.273675","long":"5.996697"}},{"country":"nl","city":"Broekveld","coordinates":{"lat":"50.9","long":"6.066667"}},{"country":"nl","city":"Broekzijde","coordinates":{"lat":"51.522504","long":"5.177354"}},{"country":"nl","city":"Broekzijde","coordinates":{"lat":"52.345491","long":"6.721922"}},{"country":"nl","city":"Brommelen","coordinates":{"lat":"50.907203","long":"5.913491"}},{"country":"nl","city":"Brongerga","coordinates":{"lat":"52.95","long":"5.983333"}},{"country":"nl","city":"Bronkhorst","coordinates":{"lat":"52.075825","long":"6.181178"}},{"country":"nl","city":"Bronneger","coordinates":{"lat":"52.947871","long":"6.81802"}},{"country":"nl","city":"Bronnegerveen","coordinates":{"lat":"52.954814","long":"6.838789"}},{"country":"nl","city":"Bronsberg","coordinates":{"lat":"52.116667","long":"6.2"}},{"country":"nl","city":"Bronsbergen","coordinates":{"lat":"52.116667","long":"6.2"}},{"country":"nl","city":"Bronsveen","coordinates":{"lat":"53.101618","long":"7.03981"}},{"country":"nl","city":"Brouwershaven","coordinates":{"lat":"51.7272","long":"3.910533"}},{"country":"nl","city":"Brouwershoek","coordinates":{"lat":"52.102027","long":"6.46263"}},{"country":"nl","city":"Brouwhuis","coordinates":{"lat":"51.463279","long":"5.703021"}},{"country":"nl","city":"Bruchem","coordinates":{"lat":"51.787493","long":"5.239972"}},{"country":"nl","city":"Brucht","coordinates":{"lat":"52.550205","long":"6.610041"}},{"country":"nl","city":"Bruchterveld","coordinates":{"lat":"52.529987","long":"6.661295"}},{"country":"nl","city":"Brug","coordinates":{"lat":"51.6","long":"5.616667"}},{"country":"nl","city":"Bruggemors","coordinates":{"lat":"52.233539","long":"6.85306"}},{"country":"nl","city":"Bruggen","coordinates":{"lat":"51.477639","long":"5.760011"}},{"country":"nl","city":"Bruggenmors","coordinates":{"lat":"52.233539","long":"6.85306"}},{"country":"nl","city":"Bruggenum","coordinates":{"lat":"51.233825","long":"5.979129"}},{"country":"nl","city":"Bruggerhuizen","coordinates":{"lat":"51.328523","long":"5.480886"}},{"country":"nl","city":"Bruil","coordinates":{"lat":"52.072643","long":"6.450548"}},{"country":"nl","city":"Bruinehaar","coordinates":{"lat":"52.469388","long":"6.705393"}},{"country":"nl","city":"Bruinisse","coordinates":{"lat":"51.659981","long":"4.095209"}},{"country":"nl","city":"Bruisterbosch","coordinates":{"lat":"50.805775","long":"5.802523"}},{"country":"nl","city":"Brukske","coordinates":{"lat":"51.521014","long":"5.992698"}},{"country":"nl","city":"Brumhold","coordinates":{"lat":"51.270773","long":"5.954413"}},{"country":"nl","city":"Brummen","coordinates":{"lat":"52.089817","long":"6.156512"}},{"country":"nl","city":"Brunnepe","coordinates":{"lat":"52.561851","long":"5.90343"}},{"country":"nl","city":"Brunsbergen","coordinates":{"lat":"52.116667","long":"6.2"}},{"country":"nl","city":"Brunssum","coordinates":{"lat":"50.95","long":"5.966667"}},{"country":"nl","city":"Brunsting","coordinates":{"lat":"52.87097","long":"6.48648"}},{"country":"nl","city":"Brunsum","coordinates":{"lat":"50.95","long":"5.966667"}},{"country":"nl","city":"Bruntinge","coordinates":{"lat":"52.816186","long":"6.5837"}},{"country":"nl","city":"Bubel","coordinates":{"lat":"51.27159","long":"5.57471"}},{"country":"nl","city":"Buchten","coordinates":{"lat":"51.042055","long":"5.810004"}},{"country":"nl","city":"Budel","coordinates":{"lat":"51.27159","long":"5.57471"}},{"country":"nl","city":"Budel-Dorplein","coordinates":{"lat":"51.240217","long":"5.57026"}},{"country":"nl","city":"Budel-Schoot","coordinates":{"lat":"51.249535","long":"5.567753"}},{"country":"nl","city":"Budschop","coordinates":{"lat":"51.283298","long":"5.762961"}},{"country":"nl","city":"Buena Esperansa","coordinates":{"lat":"12.166667","long":"-68.216667"}},{"country":"nl","city":"Buena Vista","coordinates":{"lat":"12.25","long":"-68.316667"}},{"country":"nl","city":"Bueren","coordinates":{"lat":"53.447516","long":"5.798411"}},{"country":"nl","city":"Buggenem","coordinates":{"lat":"51.233825","long":"5.979129"}},{"country":"nl","city":"Buggenum","coordinates":{"lat":"51.233825","long":"5.979129"}},{"country":"nl","city":"Buiksloot","coordinates":{"lat":"52.405421","long":"4.91249"}},{"country":"nl","city":"Buikslotermeer","coordinates":{"lat":"52.4","long":"4.95"}},{"country":"nl","city":"Buikstede","coordinates":{"lat":"53.236291","long":"6.295991"}},{"country":"nl","city":"Buinen","coordinates":{"lat":"52.762227","long":"6.354289"}},{"country":"nl","city":"Buinerveen","coordinates":{"lat":"52.933777","long":"6.881173"}},{"country":"nl","city":"Buis","coordinates":{"lat":"51.466667","long":"4.6"}},{"country":"nl","city":"Buitenhof","coordinates":{"lat":"51.992886","long":"4.339735"}},{"country":"nl","city":"Buitenhuizen","coordinates":{"lat":"52.71561","long":"6.253037"}},{"country":"nl","city":"Buitenhuizen","coordinates":{"lat":"53.187858","long":"6.768498"}},{"country":"nl","city":"Buitenhuizen","coordinates":{"lat":"52.435042","long":"4.696231"}},{"country":"nl","city":"Buitenkaag","coordinates":{"lat":"52.220095","long":"4.562635"}},{"country":"nl","city":"Buitenpost","coordinates":{"lat":"53.254334","long":"6.152933"}},{"country":"nl","city":"Buitensluis","coordinates":{"lat":"51.731226","long":"4.440564"}},{"country":"nl","city":"Buitenstvallaat","coordinates":{"lat":"53.10403","long":"6.045394"}},{"country":"nl","city":"Buitenstverlaat","coordinates":{"lat":"53.10403","long":"6.045394"}},{"country":"nl","city":"Buitenveldert","coordinates":{"lat":"52.331643","long":"4.884671"}},{"country":"nl","city":"Bulkemsbroek","coordinates":{"lat":"50.829562","long":"5.965958"}},{"country":"nl","city":"Bulkenaar","coordinates":{"lat":"51.515652","long":"4.421347"}},{"country":"nl","city":"Bullenkamp","coordinates":{"lat":"51.786333","long":"5.78178"}},{"country":"nl","city":"Bult","coordinates":{"lat":"53.149542","long":"7.128572"}},{"country":"nl","city":"Bultinge","coordinates":{"lat":"52.766667","long":"6.45"}},{"country":"nl","city":"Bunde","coordinates":{"lat":"50.90013","long":"5.739974"}},{"country":"nl","city":"Bunne","coordinates":{"lat":"53.11805","long":"6.534238"}},{"country":"nl","city":"Bunnik","coordinates":{"lat":"52.06574","long":"5.207608"}},{"country":"nl","city":"Bunschoten","coordinates":{"lat":"52.233333","long":"5.383333"}},{"country":"nl","city":"Bunt","coordinates":{"lat":"52.15","long":"5.333333"}},{"country":"nl","city":"Buren","coordinates":{"lat":"53.447516","long":"5.798411"}},{"country":"nl","city":"Buren","coordinates":{"lat":"51.912218","long":"5.335327"}},{"country":"nl","city":"Burg","coordinates":{"lat":"53.056223","long":"4.796742"}},{"country":"nl","city":"Burg","coordinates":{"lat":"51.690392","long":"3.732486"}},{"country":"nl","city":"Burgemeester Beinsdorp","coordinates":{"lat":"52.862099","long":"7.078653"}},{"country":"nl","city":"Burgerbrug","coordinates":{"lat":"52.748314","long":"4.703568"}},{"country":"nl","city":"Burgerdijk","coordinates":{"lat":"51.972329","long":"4.263748"}},{"country":"nl","city":"Burgerenk","coordinates":{"lat":"52.346329","long":"5.969581"}},{"country":"nl","city":"Burgersdijk","coordinates":{"lat":"51.972329","long":"4.263748"}},{"country":"nl","city":"Burgerveen","coordinates":{"lat":"52.24025","long":"4.679081"}},{"country":"nl","city":"Burgervlotbrug","coordinates":{"lat":"52.75325","long":"4.683284"}},{"country":"nl","city":"Burgh","coordinates":{"lat":"51.690392","long":"3.732486"}},{"country":"nl","city":"Burghsluis","coordinates":{"lat":"51.678029","long":"3.749041"}},{"country":"nl","city":"Burgsluis","coordinates":{"lat":"51.678029","long":"3.749041"}},{"country":"nl","city":"Burgt","coordinates":{"lat":"51.607368","long":"5.679225"}},{"country":"nl","city":"Burgwerd","coordinates":{"lat":"53.086693","long":"5.548195"}},{"country":"nl","city":"Burum","coordinates":{"lat":"53.273686","long":"6.230694"}},{"country":"nl","city":"Bus","coordinates":{"lat":"51.595814","long":"5.497233"}},{"country":"nl","city":"Busch en Dam","coordinates":{"lat":"52.500251","long":"4.732494"}},{"country":"nl","city":"Bussel","coordinates":{"lat":"51.418909","long":"5.713205"}},{"country":"nl","city":"Busselte","coordinates":{"lat":"52.76722","long":"6.1987"}},{"country":"nl","city":"Bussereind","coordinates":{"lat":"51.262786","long":"6.052615"}},{"country":"nl","city":"Bussloo","coordinates":{"lat":"52.197709","long":"6.129598"}},{"country":"nl","city":"Bussum","coordinates":{"lat":"52.2655","long":"5.179357"}},