[{"country":"gy","city":"Abary","coordinates":{"lat":"6.55","long":"-57.75"}},{"country":"gy","city":"Achiwib","coordinates":{"lat":"2.3","long":"-59.5833333"}},{"country":"gy","city":"Achiwuib Village","coordinates":{"lat":"2.3","long":"-59.5833333"}},{"country":"gy","city":"Acquero","coordinates":{"lat":"7.65","long":"-58.9333333"}},{"country":"gy","city":"Adelair","coordinates":{"lat":"2.1333333","long":"-59.6333333"}},{"country":"gy","city":"Adventure","coordinates":{"lat":"7.0833333","long":"-58.4833333"}},{"country":"gy","city":"Agricola Village","coordinates":{"lat":"6.4666667","long":"-58.1666667"}},{"country":"gy","city":"Aishalton","coordinates":{"lat":"2.5166667","long":"-59.25"}},{"country":"gy","city":"Aishalton Village","coordinates":{"lat":"2.5166667","long":"-59.25"}},{"country":"gy","city":"Ajimipepai","coordinates":{"lat":"5.9","long":"-60.5666667"}},{"country":"gy","city":"Akar","coordinates":{"lat":"5.6833333","long":"-60.3166667"}},{"country":"gy","city":"Akar Village","coordinates":{"lat":"5.6833333","long":"-60.3166667"}},{"country":"gy","city":"Akawini Mission","coordinates":{"lat":"7.3666667","long":"-58.7333333"}},{"country":"gy","city":"Akwero","coordinates":{"lat":"7.65","long":"-58.9333333"}},{"country":"gy","city":"Alberttown","coordinates":{"lat":"6.8166667","long":"-58.15"}},{"country":"gy","city":"Albouystown","coordinates":{"lat":"6.8","long":"-58.1666667"}},{"country":"gy","city":"Alexander Village","coordinates":{"lat":"6.8","long":"-58.1666667"}},{"country":"gy","city":"Alexanderville","coordinates":{"lat":"6.8333333","long":"-58.15"}},{"country":"gy","city":"Alnes","coordinates":{"lat":"6.2","long":"-57.2833333"}},{"country":"gy","city":"Alness","coordinates":{"lat":"6.2","long":"-57.2833333"}},{"country":"gy","city":"Altora Village","coordinates":{"lat":"2.4833333","long":"-59.1666667"}},{"country":"gy","city":"Amamure Village","coordinates":{"lat":"6.8","long":"-60.0166667"}},{"country":"gy","city":"Amamuri Village","coordinates":{"lat":"6.8","long":"-60.0166667"}},{"country":"gy","city":"Amazon","coordinates":{"lat":"7.3833333","long":"-58.5833333"}},{"country":"gy","city":"Ambrose Village","coordinates":{"lat":"3.0333333","long":"-59.7666667"}},{"country":"gy","city":"Amokokopai Village","coordinates":{"lat":"5.3833333","long":"-60.3"}},{"country":"gy","city":"Ampa","coordinates":{"lat":"6.5","long":"-58.5833333"}},{"country":"gy","city":"Amstel","coordinates":{"lat":"6.8333333","long":"-58.25"}},{"country":"gy","city":"Anna Catherina","coordinates":{"lat":"6.7666667","long":"-58.2666667"}},{"country":"gy","city":"Annai","coordinates":{"lat":"3.95","long":"-59.1333333"}},{"country":"gy","city":"Anwai","coordinates":{"lat":"3.95","long":"-59.1333333"}},{"country":"gy","city":"Apanachi","coordinates":{"lat":"5.65","long":"-59.2166667"}},{"country":"gy","city":"Apoteri","coordinates":{"lat":"4.0333333","long":"-58.5833333"}},{"country":"gy","city":"Aqueero","coordinates":{"lat":"7.65","long":"-58.9333333"}},{"country":"gy","city":"Arakaka","coordinates":{"lat":"7.5833333","long":"-60.0166667"}},{"country":"gy","city":"Arakwai Outstation","coordinates":{"lat":"2.7666667","long":"-59.4833333"}},{"country":"gy","city":"Arau Village","coordinates":{"lat":"6.4166667","long":"-61.1333333"}},{"country":"gy","city":"Arawai Village","coordinates":{"lat":"6.3166667","long":"-61.1666667"}},{"country":"gy","city":"Arnik Village","coordinates":{"lat":"5.0166667","long":"-59.5333333"}},{"country":"gy","city":"Assura Village","coordinates":{"lat":"5.8166667","long":"-59.65"}},{"country":"gy","city":"Atamadpau","coordinates":{"lat":"3.0","long":"-59.7166667"}},{"country":"gy","city":"Attai","coordinates":{"lat":"5.0833333","long":"-58.5166667"}},{"country":"gy","city":"Attai Village","coordinates":{"lat":"5.0833333","long":"-58.5166667"}},{"country":"gy","city":"Aunama","coordinates":{"lat":"7.15","long":"-60.0833333"}},{"country":"gy","city":"Aunama Village","coordinates":{"lat":"7.15","long":"-60.0833333"}},{"country":"gy","city":"Aurora","coordinates":{"lat":"6.8","long":"-59.75"}},{"country":"gy","city":"Aurora","coordinates":{"lat":"7.0","long":"-58.5"}},{"country":"gy","city":"Awarabati","coordinates":{"lat":"6.8","long":"-60.8"}},{"country":"gy","city":"Awariwaunau","coordinates":{"lat":"2.6666667","long":"-59.2"}},{"country":"gy","city":"Awaruwaunawa","coordinates":{"lat":"2.6666667","long":"-59.2"}},{"country":"gy","city":"Bagotstown","coordinates":{"lat":"6.7833333","long":"-58.1666667"}},{"country":"gy","city":"Baiabu","coordinates":{"lat":"6.55","long":"-57.8833333"}},{"country":"gy","city":"Banakari","coordinates":{"lat":"6.6166667","long":"-58.6166667"}},{"country":"gy","city":"Barabara","coordinates":{"lat":"6.55","long":"-57.8833333"}},{"country":"gy","city":"Barabina Hill","coordinates":{"lat":"8.2166667","long":"-59.8"}},{"country":"gy","city":"Barakara","coordinates":{"lat":"6.3833333","long":"-58.6666667"}},{"country":"gy","city":"Barakara","coordinates":{"lat":"5.85","long":"-57.4666667"}},{"country":"gy","city":"Barakara Mission","coordinates":{"lat":"5.85","long":"-57.4666667"}},{"country":"gy","city":"Baramani","coordinates":{"lat":"7.8333333","long":"-59.2166667"}},{"country":"gy","city":"Baramanna","coordinates":{"lat":"7.8333333","long":"-59.2166667"}},{"country":"gy","city":"Baramanni","coordinates":{"lat":"7.8333333","long":"-59.2166667"}},{"country":"gy","city":"Baramita","coordinates":{"lat":"7.35","long":"-60.4833333"}},{"country":"gy","city":"Barimanni","coordinates":{"lat":"7.8333333","long":"-59.2166667"}},{"country":"gy","city":"Barteke","coordinates":{"lat":"6.4","long":"-58.6166667"}},{"country":"gy","city":"Bartica","coordinates":{"lat":"6.4","long":"-58.6166667"}},{"country":"gy","city":"Bartica","coordinates":{"lat":"5.7833333","long":"-57.6333333"}},{"country":"gy","city":"Basha Village","coordinates":{"lat":"3.3333333","long":"-59.8"}},{"country":"gy","city":"Bel Air","coordinates":{"lat":"6.8333333","long":"-58.1333333"}},{"country":"gy","city":"Bel Air","coordinates":{"lat":"6.3166667","long":"-57.55"}},{"country":"gy","city":"Bel Air Gardens","coordinates":{"lat":"6.8333333","long":"-58.1333333"}},{"country":"gy","city":"Bel Air Park","coordinates":{"lat":"6.8166667","long":"-58.1333333"}},{"country":"gy","city":"Bel Air Springs","coordinates":{"lat":"6.8333333","long":"-58.1333333"}},{"country":"gy","city":"Belfield","coordinates":{"lat":"6.7333333","long":"-57.9666667"}},{"country":"gy","city":"Belfield Village","coordinates":{"lat":"6.7333333","long":"-57.9666667"}},{"country":"gy","city":"Belladrum","coordinates":{"lat":"6.5166667","long":"-57.7"}},{"country":"gy","city":"Berebisibali","coordinates":{"lat":"6.6666667","long":"-58.5666667"}},{"country":"gy","city":"Berebisiballi","coordinates":{"lat":"6.6666667","long":"-58.5666667"}},{"country":"gy","city":"Beribissibali","coordinates":{"lat":"6.6666667","long":"-58.5666667"}},{"country":"gy","city":"Beribissiballi","coordinates":{"lat":"6.6666667","long":"-58.5666667"}},{"country":"gy","city":"Berks","coordinates":{"lat":"7.4","long":"-58.5666667"}},{"country":"gy","city":"Beterverwagting","coordinates":{"lat":"6.8","long":"-58.0666667"}},{"country":"gy","city":"Bethany","coordinates":{"lat":"6.8","long":"-58.6"}},{"country":"gy","city":"Bethany","coordinates":{"lat":"6.9666667","long":"-58.5833333"}},{"country":"gy","city":"Biabu","coordinates":{"lat":"6.55","long":"-57.8833333"}},{"country":"gy","city":"Big Baiabo","coordinates":{"lat":"6.55","long":"-57.8833333"}},{"country":"gy","city":"Big Baiabu","coordinates":{"lat":"6.55","long":"-57.8833333"}},{"country":"gy","city":"Big Biaboo","coordinates":{"lat":"6.55","long":"-57.8833333"}},{"country":"gy","city":"Big Biabu","coordinates":{"lat":"6.55","long":"-57.8833333"}},{"country":"gy","city":"Big Diamond","coordinates":{"lat":"6.7166667","long":"-58.1833333"}},{"country":"gy","city":"Biloku","coordinates":{"lat":"1.7666667","long":"-58.55"}},{"country":"gy","city":"Blairmont","coordinates":{"lat":"6.25","long":"-57.55"}},{"country":"gy","city":"Blairmont Place","coordinates":{"lat":"6.25","long":"-57.55"}},{"country":"gy","city":"Blygezight","coordinates":{"lat":"6.8166667","long":"-58.1333333"}},{"country":"gy","city":"Blygezight Gardens","coordinates":{"lat":"6.8333333","long":"-58.1333333"}},{"country":"gy","city":"Bom Sucesso","coordinates":{"lat":"3.3833333","long":"-59.8"}},{"country":"gy","city":"Bon Success","coordinates":{"lat":"3.3833333","long":"-59.8"}},{"country":"gy","city":"Bounty Hall","coordinates":{"lat":"7.3666667","long":"-58.5166667"}},{"country":"gy","city":"Bourda","coordinates":{"lat":"6.8166667","long":"-58.15"}},{"country":"gy","city":"Brandwagt-Sari","coordinates":{"lat":"5.9833333","long":"-57.6333333"}},{"country":"gy","city":"Brighton","coordinates":{"lat":"6.15","long":"-57.2166667"}},{"country":"gy","city":"Burisanawa Village","coordinates":{"lat":"2.35","long":"-59.35"}},{"country":"gy","city":"Bush Lot","coordinates":{"lat":"6.2166667","long":"-57.2666667"}},{"country":"gy","city":"Bush Lot","coordinates":{"lat":"6.4","long":"-57.6"}},{"country":"gy","city":"Bush Lot Village","coordinates":{"lat":"6.2166667","long":"-57.2666667"}},{"country":"gy","city":"Butakari","coordinates":{"lat":"5.75","long":"-58.6166667"}},{"country":"gy","city":"Butukari","coordinates":{"lat":"5.75","long":"-58.6166667"}},{"country":"gy","city":"Buxton","coordinates":{"lat":"6.7833333","long":"-58.0333333"}},{"country":"gy","city":"Cajueiro","coordinates":{"lat":"3.8","long":"-59.4"}},{"country":"gy","city":"Caledonia","coordinates":{"lat":"7.0","long":"-58.4333333"}},{"country":"gy","city":"Campbellville","coordinates":{"lat":"6.8166667","long":"-58.1333333"}},{"country":"gy","city":"Canefield","coordinates":{"lat":"6.2333333","long":"-57.4833333"}},{"country":"gy","city":"Cane Grove","coordinates":{"lat":"6.6166667","long":"-57.9166667"}},{"country":"gy","city":"Capoey","coordinates":{"lat":"7.2","long":"-58.4333333"}},{"country":"gy","city":"Charity","coordinates":{"lat":"7.4","long":"-58.6"}},{"country":"gy","city":"Charlestown","coordinates":{"lat":"6.8166667","long":"-58.1666667"}},{"country":"gy","city":"Chenapowu Village","coordinates":{"lat":"4.9166667","long":"-59.5666667"}},{"country":"gy","city":"Chinese Landing","coordinates":{"lat":"7.5166667","long":"-59.55"}},{"country":"gy","city":"Christianburg","coordinates":{"lat":"6.0166667","long":"-58.3166667"}},{"country":"gy","city":"Clonbrook","coordinates":{"lat":"6.7333333","long":"-57.9333333"}},{"country":"gy","city":"Cockatara Village","coordinates":{"lat":"6.0","long":"-58.3"}},{"country":"gy","city":"Coomacka","coordinates":{"lat":"5.5666667","long":"-57.9166667"}},{"country":"gy","city":"Courida Park","coordinates":{"lat":"6.8166667","long":"-58.1"}},{"country":"gy","city":"Crabwood Creek","coordinates":{"lat":"5.85","long":"-57.15"}},{"country":"gy","city":"Craig","coordinates":{"lat":"6.6833333","long":"-58.1666667"}},{"country":"gy","city":"Cummingsburg","coordinates":{"lat":"6.8166667","long":"-58.1666667"}},{"country":"gy","city":"Dadanawa","coordinates":{"lat":"2.8333333","long":"-59.5166667"}},{"country":"gy","city":"Dalli","coordinates":{"lat":"6.4833333","long":"-58.5833333"}},{"country":"gy","city":"Danielstown","coordinates":{"lat":"7.3","long":"-58.4833333"}},{"country":"gy","city":"Dartmouth","coordinates":{"lat":"7.3666667","long":"-58.5"}},{"country":"gy","city":"Dawa","coordinates":{"lat":"7.2","long":"-58.6"}},{"country":"gy","city":"De Jonge Rachael","coordinates":{"lat":"6.7","long":"-58.2"}},{"country":"gy","city":"De Kinderen","coordinates":{"lat":"6.6333333","long":"-57.8333333"}},{"country":"gy","city":"De Kindern","coordinates":{"lat":"6.6333333","long":"-57.8333333"}},{"country":"gy","city":"Demerara","coordinates":{"lat":"6.8","long":"-58.1666667"}},{"country":"gy","city":"Den Amstel","coordinates":{"lat":"6.8333333","long":"-58.25"}},{"country":"gy","city":"Den Amstel Village","coordinates":{"lat":"6.8333333","long":"-58.25"}},{"country":"gy","city":"De Vigilante","coordinates":{"lat":"5.85","long":"-57.7"}},{"country":"gy","city":"Diamond","coordinates":{"lat":"6.7166667","long":"-58.1833333"}},{"country":"gy","city":"Diamond Place","coordinates":{"lat":"6.7166667","long":"-58.1833333"}},{"country":"gy","city":"Dukestown","coordinates":{"lat":"5.9","long":"-57.1333333"}},{"country":"gy","city":"Durung Bang","coordinates":{"lat":"7.25","long":"-58.8833333"}},{"country":"gy","city":"Ebini Downs","coordinates":{"lat":"5.6666667","long":"-57.7833333"}},{"country":"gy","city":"Ebini","coordinates":{"lat":"5.6666667","long":"-57.7833333"}},{"country":"gy","city":"Ekereku","coordinates":{"lat":"6.4666667","long":"-60.8333333"}},{"country":"gy","city":"Elizabeth","coordinates":{"lat":"6.9166667","long":"-58.4333333"}},{"country":"gy","city":"Enachu","coordinates":{"lat":"6.15","long":"-60.0333333"}},{"country":"gy","city":"Enachu Landing","coordinates":{"lat":"6.15","long":"-60.0333333"}},{"country":"gy","city":"Enachu Station","coordinates":{"lat":"6.15","long":"-60.0333333"}},{"country":"gy","city":"Enaruko Village","coordinates":{"lat":"4.5666667","long":"-59.6666667"}},{"country":"gy","city":"Enmore","coordinates":{"lat":"6.7666667","long":"-57.9833333"}},{"country":"gy","city":"Enterprise","coordinates":{"lat":"6.9333333","long":"-58.4"}},{"country":"gy","city":"Epira","coordinates":{"lat":"5.1333333","long":"-57.3333333"}},{"country":"gy","city":"Epira Mission","coordinates":{"lat":"5.1333333","long":"-57.3333333"}},{"country":"gy","city":"Espera","coordinates":{"lat":"5.1333333","long":"-57.3333333"}},{"country":"gy","city":"Eupukari","coordinates":{"lat":"3.6666667","long":"-59.35"}},{"country":"gy","city":"Eurowa","coordinates":{"lat":"7.4","long":"-58.6"}},{"country":"gy","city":"Fear Not","coordinates":{"lat":"7.3","long":"-58.4833333"}},{"country":"gy","city":"First Savannah","coordinates":{"lat":"6.3833333","long":"-57.7833333"}},{"country":"gy","city":"Five Star","coordinates":{"lat":"7.6","long":"-60.3666667"}},{"country":"gy","city":"Five Star Landing","coordinates":{"lat":"7.6","long":"-60.3666667"}},{"country":"gy","city":"Five Stars","coordinates":{"lat":"7.6","long":"-60.3666667"}},{"country":"gy","city":"Fort Wellington","coordinates":{"lat":"6.4","long":"-57.6"}},{"country":"gy","city":"Fredericksburg","coordinates":{"lat":"6.95","long":"-58.4333333"}},{"country":"gy","city":"Fyrish","coordinates":{"lat":"6.2833333","long":"-57.3833333"}},{"country":"gy","city":"Fyrish Village","coordinates":{"lat":"6.2833333","long":"-57.3833333"}},{"country":"gy","city":"Georgetown","coordinates":{"lat":"6.8","long":"-58.1666667"}},{"country":"gy","city":"Glasgow","coordinates":{"lat":"6.5166667","long":"-58.2833333"}},{"country":"gy","city":"Glasgow Village","coordinates":{"lat":"6.5166667","long":"-58.2833333"}},{"country":"gy","city":"GNS Kimbia","coordinates":{"lat":"5.6166667","long":"-57.7333333"}},{"country":"gy","city":"Golden Fleece","coordinates":{"lat":"7.15","long":"-58.4833333"}},{"country":"gy","city":"Golden Fleece Plantation","coordinates":{"lat":"7.15","long":"-58.4833333"}},{"country":"gy","city":"Golden Grove","coordinates":{"lat":"6.7166667","long":"-58.1833333"}},{"country":"gy","city":"Goldspie","coordinates":{"lat":"6.1","long":"-57.2"}},{"country":"gy","city":"Good Hope","coordinates":{"lat":"6.1","long":"-57.2"}},{"country":"gy","city":"Good Hope","coordinates":{"lat":"3.8666667","long":"-59.5833333"}},{"country":"gy","city":"Good Intent","coordinates":{"lat":"6.7166667","long":"-58.2"}},{"country":"gy","city":"Gordon Table","coordinates":{"lat":"6.3833333","long":"-57.7833333"}},{"country":"gy","city":"Governor Light","coordinates":{"lat":"6.45","long":"-57.7833333"}},{"country":"gy","city":"Grahams Hall","coordinates":{"lat":"6.8333333","long":"-58.0833333"}},{"country":"gy","city":"Grass Hook","coordinates":{"lat":"6.5333333","long":"-57.9166667"}},{"country":"gy","city":"Great Diamond","coordinates":{"lat":"6.7166667","long":"-58.1833333"}},{"country":"gy","city":"Hai Maruni","coordinates":{"lat":"6.4","long":"-58.2666667"}},{"country":"gy","city":"Hart","coordinates":{"lat":"3.75","long":"-59.5833333"}},{"country":"gy","city":"Hawkins Mission","coordinates":{"lat":"3.4833333","long":"-59.55"}},{"country":"gy","city":"Helena","coordinates":{"lat":"6.6833333","long":"-57.9166667"}},{"country":"gy","city":"Helena Number Two","coordinates":{"lat":"6.7","long":"-57.9333333"}},{"country":"gy","city":"Hiawa","coordinates":{"lat":"3.4","long":"-59.6333333"}},{"country":"gy","city":"Hitia","coordinates":{"lat":"5.8","long":"-57.75"}},{"country":"gy","city":"Hittia Settlement","coordinates":{"lat":"5.8","long":"-57.75"}},{"country":"gy","city":"Hobediah","coordinates":{"lat":"7.9666667","long":"-59.8166667"}},{"country":"gy","city":"Hoff Van Aurich","coordinates":{"lat":"7.1833333","long":"-58.4833333"}},{"country":"gy","city":"Holmia","coordinates":{"lat":"4.9666667","long":"-59.5833333"}},{"country":"gy","city":"Hooboo","coordinates":{"lat":"6.8166667","long":"-58.4666667"}},{"country":"gy","city":"Hopetown","coordinates":{"lat":"6.5333333","long":"-58.2833333"}},{"country":"gy","city":"Hopetown","coordinates":{"lat":"6.3833333","long":"-57.6166667"}},{"country":"gy","city":"Hororabo","coordinates":{"lat":"6.2833333","long":"-58.7333333"}},{"country":"gy","city":"Hosororo","coordinates":{"lat":"8.1666667","long":"-59.8"}},{"country":"gy","city":"Hossororo","coordinates":{"lat":"8.1666667","long":"-59.8"}},{"country":"gy","city":"Hotakwai","coordinates":{"lat":"8.0166667","long":"-59.8166667"}},{"country":"gy","city":"Houston","coordinates":{"lat":"6.8","long":"-58.1666667"}},{"country":"gy","city":"Hubu","coordinates":{"lat":"6.8166667","long":"-58.4666667"}},{"country":"gy","city":"Hururu","coordinates":{"lat":"5.3666667","long":"-58.0"}},{"country":"gy","city":"Hyde Park","coordinates":{"lat":"6.5","long":"-58.2666667"}},{"country":"gy","city":"Iguapa","coordinates":{"lat":"7.4","long":"-59.2666667"}},{"country":"gy","city":"Igupa Village","coordinates":{"lat":"7.4","long":"-59.2666667"}},{"country":"gy","city":"Illimir Village","coordinates":{"lat":"2.2666667","long":"-59.45"}},{"country":"gy","city":"Imbaimadai","coordinates":{"lat":"5.7","long":"-60.2833333"}},{"country":"gy","city":"Imprenza","coordinates":{"lat":"3.1333333","long":"-59.8333333"}},{"country":"gy","city":"Ipichau","coordinates":{"lat":"4.8833333","long":"-60.0166667"}},{"country":"gy","city":"Ipisháu","coordinates":{"lat":"4.8833333","long":"-60.0166667"}},{"country":"gy","city":"Ipisiau Village","coordinates":{"lat":"4.8833333","long":"-60.0166667"}},{"country":"gy","city":"Ipotaikuru","coordinates":{"lat":"7.4333333","long":"-59.6"}},{"country":"gy","city":"Ishalton","coordinates":{"lat":"2.5166667","long":"-59.25"}},{"country":"gy","city":"Isherton","coordinates":{"lat":"2.3166667","long":"-59.3666667"}},{"country":"gy","city":"Islington","coordinates":{"lat":"6.2166667","long":"-57.5166667"}},{"country":"gy","city":"Issano","coordinates":{"lat":"5.8166667","long":"-59.4166667"}},{"country":"gy","city":"Isseneru Village","coordinates":{"lat":"6.4666667","long":"-60.3333333"}},{"country":"gy","city":"Issororo","coordinates":{"lat":"8.1666667","long":"-59.8"}},{"country":"gy","city":"Issororo","coordinates":{"lat":"7.25","long":"-58.8833333"}},{"country":"gy","city":"Itabac","coordinates":{"lat":"4.6","long":"-60.1"}},{"country":"gy","city":"Itoni Township","coordinates":{"lat":"5.5333333","long":"-58.25"}},{"country":"gy","city":"Ituni","coordinates":{"lat":"5.5333333","long":"-58.25"}},{"country":"gy","city":"Ituni Townsite","coordinates":{"lat":"5.5333333","long":"-58.25"}},{"country":"gy","city":"Jacaretinga","coordinates":{"lat":"3.5166667","long":"-59.6666667"}},{"country":"gy","city":"Jacoba","coordinates":{"lat":"6.45","long":"-57.6666667"}},{"country":"gy","city":"Jakaretinga","coordinates":{"lat":"3.5166667","long":"-59.6666667"}},{"country":"gy","city":"Java","coordinates":{"lat":"6.1333333","long":"-57.2"}},{"country":"gy","city":"Joanna","coordinates":{"lat":"6.0833333","long":"-57.2666667"}},{"country":"gy","city":"Johi","coordinates":{"lat":"1.85","long":"-58.5333333"}},{"country":"gy","city":"Johi Village","coordinates":{"lat":"1.85","long":"-58.5333333"}},{"country":"gy","city":"Juanita","coordinates":{"lat":"7.95","long":"-60.2166667"}},{"country":"gy","city":"Kaibarupai Village","coordinates":{"lat":"3.5666667","long":"-59.8666667"}},{"country":"gy","city":"Kaikan","coordinates":{"lat":"6.1833333","long":"-61.1333333"}},{"country":"gy","city":"Kaituma","coordinates":{"lat":"7.7333333","long":"-59.8833333"}},{"country":"gy","city":"Kalacoon","coordinates":{"lat":"6.4","long":"-58.65"}},{"country":"gy","city":"Kalakoon House","coordinates":{"lat":"6.4","long":"-58.65"}},{"country":"gy","city":"Kalakun","coordinates":{"lat":"6.4","long":"-58.65"}},{"country":"gy","city":"Kalkoon","coordinates":{"lat":"6.4","long":"-58.65"}},{"country":"gy","city":"Kalkuni","coordinates":{"lat":"5.55","long":"-57.9166667"}},{"country":"gy","city":"Kamana Village","coordinates":{"lat":"4.8333333","long":"-59.9333333"}},{"country":"gy","city":"Kamarang","coordinates":{"lat":"5.8666667","long":"-60.6166667"}},{"country":"gy","city":"Kamaria","coordinates":{"lat":"6.4166667","long":"-58.7666667"}},{"country":"gy","city":"Kamuda","coordinates":{"lat":"5.6333333","long":"-60.3"}},{"country":"gy","city":"Kamuda Village","coordinates":{"lat":"5.6333333","long":"-60.3"}},{"country":"gy","city":"Kamwatta Hill","coordinates":{"lat":"8.1166667","long":"-59.85"}},{"country":"gy","city":"Kanapang Village","coordinates":{"lat":"4.5333333","long":"-60.1333333"}},{"country":"gy","city":"Karanambo","coordinates":{"lat":"3.75","long":"-59.3"}},{"country":"gy","city":"Karasabai","coordinates":{"lat":"4.0333333","long":"-59.5333333"}},{"country":"gy","city":"Karasabai Village","coordinates":{"lat":"4.0333333","long":"-59.5333333"}},{"country":"gy","city":"Karaudanawa","coordinates":{"lat":"2.4666667","long":"-59.4333333"}},{"country":"gy","city":"Karia","coordinates":{"lat":"6.8333333","long":"-58.5833333"}},{"country":"gy","city":"Kariakaria","coordinates":{"lat":"6.8333333","long":"-58.5833333"}},{"country":"gy","city":"Kariakau","coordinates":{"lat":"7.3666667","long":"-59.7"}},{"country":"gy","city":"Kariaku","coordinates":{"lat":"7.3666667","long":"-59.7"}},{"country":"gy","city":"Karisparu Village","coordinates":{"lat":"4.9166667","long":"-59.45"}},{"country":"gy","city":"Karto","coordinates":{"lat":"4.6666667","long":"-59.8166667"}},{"country":"gy","city":"Kataliriwau Outstation","coordinates":{"lat":"2.8166667","long":"-59.25"}},{"country":"gy","city":"Kato","coordinates":{"lat":"4.6666667","long":"-59.8166667"}},{"country":"gy","city":"Kato Village","coordinates":{"lat":"4.6666667","long":"-59.8166667"}},{"country":"gy","city":"Kaywaek","coordinates":{"lat":"5.9333333","long":"-60.6333333"}},{"country":"gy","city":"Kaywaek Village","coordinates":{"lat":"5.9333333","long":"-60.6333333"}},{"country":"gy","city":"Keweigek","coordinates":{"lat":"5.9333333","long":"-60.6333333"}},{"country":"gy","city":"Kingston","coordinates":{"lat":"6.8166667","long":"-58.1666667"}},{"country":"gy","city":"Kitty","coordinates":{"lat":"6.8166667","long":"-58.1333333"}},{"country":"gy","city":"Kitty Village","coordinates":{"lat":"6.8166667","long":"-58.1333333"}},{"country":"gy","city":"Klip","coordinates":{"lat":"6.3833333","long":"-58.6666667"}},{"country":"gy","city":"Kokadai","coordinates":{"lat":"5.75","long":"-60.5666667"}},{"country":"gy","city":"Kokatara Village","coordinates":{"lat":"6.0","long":"-58.3"}},{"country":"gy","city":"Kokerite","coordinates":{"lat":"7.3333333","long":"-59.5666667"}},{"country":"gy","city":"Kokerit","coordinates":{"lat":"7.3333333","long":"-59.5666667"}},{"country":"gy","city":"Kokerit Landing","coordinates":{"lat":"7.3333333","long":"-59.5666667"}},{"country":"gy","city":"Konashen","coordinates":{"lat":"1.5666667","long":"-58.6833333"}},{"country":"gy","city":"Konora Village","coordinates":{"lat":"7.25","long":"-60.0166667"}},{"country":"gy","city":"Konoro Village","coordinates":{"lat":"7.25","long":"-60.0166667"}},{"country":"gy","city":"Kopinang Mission","coordinates":{"lat":"4.9333333","long":"-59.8"}},{"country":"gy","city":"Koriabo","coordinates":{"lat":"7.6166667","long":"-59.6333333"}},{"country":"gy","city":"Kotoewau","coordinates":{"lat":"2.3","long":"-59.15"}},{"country":"gy","city":"Kowaeng","coordinates":{"lat":"5.65","long":"-60.3"}},{"country":"gy","city":"Kowaeng Village","coordinates":{"lat":"5.65","long":"-60.3"}},{"country":"gy","city":"Kukuieng","coordinates":{"lat":"4.5833333","long":"-59.6666667"}},{"country":"gy","city":"Kukui-Eng Village","coordinates":{"lat":"4.5833333","long":"-59.6666667"}},{"country":"gy","city":"Kumaka","coordinates":{"lat":"7.65","long":"-58.95"}},{"country":"gy","city":"Kumaka","coordinates":{"lat":"5.5666667","long":"-57.9166667"}},{"country":"gy","city":"Kumu Village","coordinates":{"lat":"3.3333333","long":"-59.8"}},{"country":"gy","city":"Kurachi","coordinates":{"lat":"6.8833333","long":"-60.2666667"}},{"country":"gy","city":"Kurikebaru","coordinates":{"lat":"4.75","long":"-59.8833333"}},{"country":"gy","city":"Kurikebary","coordinates":{"lat":"4.75","long":"-59.8833333"}},{"country":"gy","city":"Kurukabaru","coordinates":{"lat":"4.75","long":"-59.8833333"}},{"country":"gy","city":"Kurukabaru Village","coordinates":{"lat":"4.75","long":"-59.8833333"}},{"country":"gy","city":"Kurukuru-Baibari","coordinates":{"lat":"1.7333333","long":"-58.6166667"}},{"country":"gy","city":"Kurutuku Village","coordinates":{"lat":"6.9","long":"-60.3"}},{"country":"gy","city":"Kwabanna","coordinates":{"lat":"7.5666667","long":"-59.15"}},{"country":"gy","city":"Kwaimatta","coordinates":{"lat":"3.8166667","long":"-59.3333333"}},{"country":"gy","city":"Kwaimatta Village","coordinates":{"lat":"3.8166667","long":"-59.3333333"}},{"country":"gy","city":"Kwaiwatta Village","coordinates":{"lat":"3.8166667","long":"-59.3333333"}},{"country":"gy","city":"Kwakwani","coordinates":{"lat":"5.2833333","long":"-58.05"}},{"country":"gy","city":"Kwamatta","coordinates":{"lat":"3.8166667","long":"-59.3333333"}},{"country":"gy","city":"Kwatata","coordinates":{"lat":"3.6333333","long":"-59.5"}},{"country":"gy","city":"Kwiokrebaru","coordinates":{"lat":"6.0166667","long":"-60.65"}},{"country":"gy","city":"Lacytown","coordinates":{"lat":"6.8166667","long":"-58.1666667"}},{"country":"gy","city":"La Grange","coordinates":{"lat":"6.7833333","long":"-58.2"}},{"country":"gy","city":"La Juanita","coordinates":{"lat":"7.95","long":"-60.2166667"}},{"country":"gy","city":"Lamaha Gardens","coordinates":{"lat":"6.8166667","long":"-58.1333333"}},{"country":"gy","city":"Lanaballi","coordinates":{"lat":"6.6","long":"-58.5666667"}},{"country":"gy","city":"Lancaster","coordinates":{"lat":"5.8333333","long":"-58.25"}},{"country":"gy","city":"Land of Canaan","coordinates":{"lat":"6.6","long":"-58.2"}},{"country":"gy","city":"La Penitence","coordinates":{"lat":"6.8","long":"-58.15"}},{"country":"gy","city":"Leeds","coordinates":{"lat":"6.05","long":"-57.1666667"}},{"country":"gy","city":"Lesbeholden","coordinates":{"lat":"6.15","long":"-57.3"}},{"country":"gy","city":"Lethem","coordinates":{"lat":"3.3833333","long":"-59.8"}},{"country":"gy","city":"Lethen","coordinates":{"lat":"3.3833333","long":"-59.8"}},{"country":"gy","city":"Lichfield","coordinates":{"lat":"6.4833333","long":"-57.65"}},{"country":"gy","city":"Linden","coordinates":{"lat":"6.0","long":"-58.3"}},{"country":"gy","city":"Lodge","coordinates":{"lat":"6.8166667","long":"-58.1333333"}},{"country":"gy","city":"Lodge Village","coordinates":{"lat":"6.8166667","long":"-58.1333333"}},{"country":"gy","city":"Lorenza","coordinates":{"lat":"6.7","long":"-58.2"}},{"country":"gy","city":"Louisiana","coordinates":{"lat":"6.9","long":"-58.4333333"}},{"country":"gy","city":"Lower Kamaria","coordinates":{"lat":"6.4166667","long":"-58.7666667"}},{"country":"gy","city":"Lowood","coordinates":{"lat":"6.4","long":"-58.2666667"}},{"country":"gy","city":"Low Wood","coordinates":{"lat":"6.4","long":"-58.2666667"}},{"country":"gy","city":"Lumidpau","coordinates":{"lat":"2.4","long":"-59.4833333"}},{"country":"gy","city":"Mabaruma","coordinates":{"lat":"8.2","long":"-59.7833333"}},{"country":"gy","city":"Macaw","coordinates":{"lat":"6.0833333","long":"-57.5833333"}},{"country":"gy","city":"MacDonald","coordinates":{"lat":"3.5166667","long":"-59.55"}},{"country":"gy","city":"Machabo","coordinates":{"lat":"7.05","long":"-58.55"}},{"country":"gy","city":"Mackenzie","coordinates":{"lat":"6.0","long":"-58.2833333"}},{"country":"gy","city":"Macusi Village","coordinates":{"lat":"3.0666667","long":"-59.7166667"}},{"country":"gy","city":"Mahaica Village","coordinates":{"lat":"6.6833333","long":"-57.9166667"}},{"country":"gy","city":"Mahaicony","coordinates":{"lat":"6.55","long":"-57.8"}},{"country":"gy","city":"Mahaicony Village","coordinates":{"lat":"6.55","long":"-57.8"}},{"country":"gy","city":"Mahdia","coordinates":{"lat":"5.2666667","long":"-59.15"}},{"country":"gy","city":"Makari","coordinates":{"lat":"4.55","long":"-58.55"}},{"country":"gy","city":"Makouria","coordinates":{"lat":"6.4666667","long":"-58.5833333"}},{"country":"gy","city":"Malali","coordinates":{"lat":"5.6166667","long":"-58.35"}},{"country":"gy","city":"Mamir Pawa","coordinates":{"lat":"1.9666667","long":"-59.7333333"}},{"country":"gy","city":"Manaka","coordinates":{"lat":"6.7","long":"-58.6166667"}},{"country":"gy","city":"Manari","coordinates":{"lat":"7.5166667","long":"-59.8333333"}},{"country":"gy","city":"Manari","coordinates":{"lat":"3.4333333","long":"-59.7666667"}},{"country":"gy","city":"Manari Village","coordinates":{"lat":"7.5166667","long":"-59.8333333"}},{"country":"gy","city":"Manawarin","coordinates":{"lat":"7.5833333","long":"-58.8666667"}},{"country":"gy","city":"Marakanata","coordinates":{"lat":"3.6","long":"-59.55"}},{"country":"gy","city":"Maria Johanna","coordinates":{"lat":"6.9333333","long":"-58.4666667"}},{"country":"gy","city":"Mariwa Village","coordinates":{"lat":"3.05","long":"-59.6666667"}},{"country":"gy","city":"Marlborough","coordinates":{"lat":"7.4833333","long":"-58.6333333"}},{"country":"gy","city":"Martins Burial Ground","coordinates":{"lat":"6.5333333","long":"-57.8833333"}},{"country":"gy","city":"Maruranau","coordinates":{"lat":"2.75","long":"-59.1666667"}},{"country":"gy","city":"Maruranawa","coordinates":{"lat":"2.75","long":"-59.1666667"}},{"country":"gy","city":"Marurawaunawa","coordinates":{"lat":"2.75","long":"-59.1666667"}},{"country":"gy","city":"Marurawaunawa Village","coordinates":{"lat":"2.75","long":"-59.1666667"}},{"country":"gy","city":"Masabona","coordinates":{"lat":"5.6","long":"-58.3833333"}},{"country":"gy","city":"Massara","coordinates":{"lat":"3.9","long":"-59.3"}},{"country":"gy","city":"Massara Village","coordinates":{"lat":"3.9","long":"-59.3"}},{"country":"gy","city":"Matthews Ridge","coordinates":{"lat":"7.5","long":"-60.1666667"}},{"country":"gy","city":"McDoom Village","coordinates":{"lat":"6.7833333","long":"-58.1833333"}},{"country":"gy","city":"McKenzie","coordinates":{"lat":"6.0","long":"-58.2833333"}},{"country":"gy","city":"McTurk","coordinates":{"lat":"3.8","long":"-59.4"}},{"country":"gy","city":"Meadow Bank","coordinates":{"lat":"6.8","long":"-58.1833333"}},{"country":"gy","city":"Melville","coordinates":{"lat":"6.9666667","long":"-58.4666667"}},{"country":"gy","city":"Melvilles Ranch","coordinates":{"lat":"2.8333333","long":"-59.5166667"}},{"country":"gy","city":"Meritizero","coordinates":{"lat":"3.75","long":"-59.5833333"}},{"country":"gy","city":"Meruwang","coordinates":{"lat":"5.8166667","long":"-61.0"}},{"country":"gy","city":"Mibikuri","coordinates":{"lat":"6.1166667","long":"-57.2833333"}},{"country":"gy","city":"Minata","coordinates":{"lat":"5.95","long":"-60.6"}},{"country":"gy","city":"Mission Landing","coordinates":{"lat":"7.75","long":"-59.8666667"}},{"country":"gy","city":"Moco-Moco","coordinates":{"lat":"3.3333333","long":"-59.6666667"}},{"country":"gy","city":"Moco-Moco Village","coordinates":{"lat":"3.3333333","long":"-59.6666667"}},{"country":"gy","city":"Mongreppo","coordinates":{"lat":"6.4","long":"-58.6166667"}},{"country":"gy","city":"Monkey Mountain","coordinates":{"lat":"4.4833333","long":"-59.6833333"}},{"country":"gy","city":"Moraikobe","coordinates":{"lat":"6.1","long":"-57.95"}},{"country":"gy","city":"Morasi","coordinates":{"lat":"6.75","long":"-58.5"}},{"country":"gy","city":"Morawhanna","coordinates":{"lat":"8.2666667","long":"-59.75"}},{"country":"gy","city":"Moreiro","coordinates":{"lat":"3.9","long":"-59.55"}},{"country":"gy","city":"Moreiru","coordinates":{"lat":"3.9","long":"-59.55"}},{"country":"gy","city":"Morowta","coordinates":{"lat":"5.75","long":"-60.5833333"}},{"country":"gy","city":"Mortice","coordinates":{"lat":"6.5","long":"-57.8"}},{"country":"gy","city":"Mountain Point","coordinates":{"lat":"3.0","long":"-59.6333333"}},{"country":"gy","city":"Mountain View","coordinates":{"lat":"3.5166667","long":"-59.55"}},{"country":"gy","city":"Mount Everard","coordinates":{"lat":"7.8166667","long":"-59.4666667"}},{"country":"gy","city":"Mubohina","coordinates":{"lat":"7.5833333","long":"-59.1333333"}},{"country":"gy","city":"Muriakundi","coordinates":{"lat":"7.1666667","long":"-60.1333333"}},{"country":"gy","city":"Muriwa Village","coordinates":{"lat":"3.05","long":"-59.6666667"}},{"country":"gy","city":"Muruakundi","coordinates":{"lat":"7.1666667","long":"-60.1333333"}},{"country":"gy","city":"Muruwawe Village","coordinates":{"lat":"6.4666667","long":"-61.15"}},{"country":"gy","city":"Nappi Village","coordinates":{"lat":"3.4166667","long":"-59.5666667"}},{"country":"gy","city":"New Amsterdam","coordinates":{"lat":"6.25","long":"-57.5166667"}},{"country":"gy","city":"New Burg","coordinates":{"lat":"6.8166667","long":"-58.15"}},{"country":"gy","city":"New Found Out","coordinates":{"lat":"6.3833333","long":"-58.0666667"}},{"country":"gy","city":"New Ground Village","coordinates":{"lat":"5.85","long":"-57.4666667"}},{"country":"gy","city":"New Haven","coordinates":{"lat":"6.0833333","long":"-58.1333333"}},{"country":"gy","city":"Newtown","coordinates":{"lat":"6.8166667","long":"-58.1333333"}},{"country":"gy","city":"Nismes","coordinates":{"lat":"6.75","long":"-58.2"}},{"country":"gy","city":"Noitgedacht","coordinates":{"lat":"6.0","long":"-58.3"}},{"country":"gy","city":"Number 2","coordinates":{"lat":"6.7","long":"-57.9333333"}},{"country":"gy","city":"Number 80","coordinates":{"lat":"5.8833333","long":"-57.1333333"}},{"country":"gy","city":"Number Forty-five","coordinates":{"lat":"6.1","long":"-57.2"}},{"country":"gy","city":"Number Forty","coordinates":{"lat":"6.4666667","long":"-57.6666667"}},{"country":"gy","city":"Number Forty-one","coordinates":{"lat":"6.4666667","long":"-57.6666667"}},{"country":"gy","city":"Number Forty-six","coordinates":{"lat":"6.0833333","long":"-57.2"}},{"country":"gy","city":"Number Sixty-one","coordinates":{"lat":"6.0","long":"-57.15"}},{"country":"gy","city":"Number Sixty-seven","coordinates":{"lat":"5.9666667","long":"-57.15"}},{"country":"gy","city":"Number Sixty-six","coordinates":{"lat":"5.9666667","long":"-57.15"}},{"country":"gy","city":"Number Sixty-two","coordinates":{"lat":"5.9833333","long":"-57.15"}},{"country":"gy","city":"Number Ten","coordinates":{"lat":"6.5833333","long":"-57.8833333"}},{"country":"gy","city":"Number Twelve","coordinates":{"lat":"6.35","long":"-57.5833333"}},{"country":"gy","city":"Old Vigilante","coordinates":{"lat":"5.85","long":"-57.7"}},{"country":"gy","city":"Old Vigilantie","coordinates":{"lat":"5.85","long":"-57.7"}},{"country":"gy","city":"Onderneeming","coordinates":{"lat":"7.1","long":"-58.4833333"}},{"country":"gy","city":"Opadai","coordinates":{"lat":"5.4333333","long":"-60.5833333"}},{"country":"gy","city":"Oranapai Landing","coordinates":{"lat":"6.0666667","long":"-59.9166667"}},{"country":"gy","city":"Oranapai","coordinates":{"lat":"6.0666667","long":"-59.9166667"}},{"country":"gy","city":"Oranopai","coordinates":{"lat":"6.0666667","long":"-59.9166667"}},{"country":"gy","city":"Oreala","coordinates":{"lat":"5.3166667","long":"-57.3333333"}},{"country":"gy","city":"Orealla Mission","coordinates":{"lat":"5.3166667","long":"-57.3333333"}},{"country":"gy","city":"Orealla","coordinates":{"lat":"5.3166667","long":"-57.3333333"}},{"country":"gy","city":"Orinduik","coordinates":{"lat":"4.7","long":"-60.0166667"}},{"country":"gy","city":"Owenteik","coordinates":{"lat":"4.45","long":"-59.5833333"}},{"country":"gy","city":"Pakera","coordinates":{"lat":"7.4833333","long":"-60.15"}},{"country":"gy","city":"Parabara","coordinates":{"lat":"2.2166667","long":"-59.3"}},{"country":"gy","city":"Paradise","coordinates":{"lat":"5.5666667","long":"-57.9166667"}},{"country":"gy","city":"Paramahatoi","coordinates":{"lat":"4.7166667","long":"-59.7"}},{"country":"gy","city":"Paramakatoi","coordinates":{"lat":"4.7166667","long":"-59.7"}},{"country":"gy","city":"Parapimai","coordinates":{"lat":"7.3666667","long":"-59.6666667"}},{"country":"gy","city":"Paricaranal","coordinates":{"lat":"3.5666667","long":"-59.5833333"}},{"country":"gy","city":"Parika","coordinates":{"lat":"6.8666667","long":"-58.4166667"}},{"country":"gy","city":"Parikaranal","coordinates":{"lat":"3.5666667","long":"-59.5833333"}},{"country":"gy","city":"Parishara","coordinates":{"lat":"3.45","long":"-59.5666667"}},{"country":"gy","city":"Parishara Village","coordinates":{"lat":"3.45","long":"-59.5666667"}},{"country":"gy","city":"Paruima Mission","coordinates":{"lat":"5.8","long":"-61.05"}},{"country":"gy","city":"Paruima","coordinates":{"lat":"5.8","long":"-61.05"}},{"country":"gy","city":"Patarinau","coordinates":{"lat":"3.0333333","long":"-59.7666667"}},{"country":"gy","city":"Patentia","coordinates":{"lat":"6.7","long":"-58.2"}},{"country":"gy","city":"Pathawaru","coordinates":{"lat":"6.4333333","long":"-61.1333333"}},{"country":"gy","city":"Peropo","coordinates":{"lat":"4.1333333","long":"-59.1166667"}},{"country":"gy","city":"Perth","coordinates":{"lat":"6.55","long":"-57.8"}},{"country":"gy","city":"Perth Village","coordinates":{"lat":"6.55","long":"-57.8"}},{"country":"gy","city":"Phoenix Town","coordinates":{"lat":"6.8","long":"-58.2"}},{"country":"gy","city":"Pickersgill","coordinates":{"lat":"7.2666667","long":"-58.7166667"}},{"country":"gy","city":"Pickersgil","coordinates":{"lat":"7.2666667","long":"-58.7166667"}},{"country":"gy","city":"Pilanawa","coordinates":{"lat":"2.7666667","long":"-59.6833333"}},{"country":"gy","city":"Pilinawa","coordinates":{"lat":"2.7666667","long":"-59.6833333"}},{"country":"gy","city":"Pine Ground","coordinates":{"lat":"6.4166667","long":"-57.7833333"}},{"country":"gy","city":"Pipillipai","coordinates":{"lat":"5.5166667","long":"-60.4333333"}},{"country":"gy","city":"Pirara","coordinates":{"lat":"3.6166667","long":"-59.6666667"}},{"country":"gy","city":"Plaisance","coordinates":{"lat":"6.8","long":"-58.1"}},{"country":"gy","city":"Plaisance Village","coordinates":{"lat":"6.8","long":"-58.1"}},{"country":"gy","city":"Pomona","coordinates":{"lat":"7.0666667","long":"-58.4833333"}},{"country":"gy","city":"Port Kaituma","coordinates":{"lat":"7.7333333","long":"-59.8833333"}},{"country":"gy","city":"Port Mourant","coordinates":{"lat":"6.25","long":"-57.3333333"}},{"country":"gy","city":"Port Mourant Village","coordinates":{"lat":"6.25","long":"-57.3333333"}},{"country":"gy","city":"Post Ampa","coordinates":{"lat":"6.5","long":"-58.5833333"}},{"country":"gy","city":"Poterima","coordinates":{"lat":"6.2833333","long":"-58.5833333"}},{"country":"gy","city":"Powisanau Village","coordinates":{"lat":"2.5333333","long":"-59.45"}},{"country":"gy","city":"Prashad Nagar","coordinates":{"lat":"6.8333333","long":"-58.1333333"}},{"country":"gy","city":"Primrose Hill","coordinates":{"lat":"6.5833333","long":"-58.6166667"}},{"country":"gy","city":"Princetown","coordinates":{"lat":"5.9","long":"-57.15"}},{"country":"gy","city":"Providence Place","coordinates":{"lat":"6.2166667","long":"-57.5166667"}},{"country":"gy","city":"Providence","coordinates":{"lat":"6.7666667","long":"-58.1666667"}},{"country":"gy","city":"Pubu","coordinates":{"lat":"5.2333333","long":"-58.6166667"}},{"country":"gy","city":"Pukasanta Village","coordinates":{"lat":"3.0666667","long":"-58.9"}},{"country":"gy","city":"Puwa","coordinates":{"lat":"4.5166667","long":"-59.9833333"}},{"country":"gy","city":"Puwa Village","coordinates":{"lat":"4.5166667","long":"-59.9833333"}},{"country":"gy","city":"Quatata","coordinates":{"lat":"3.6333333","long":"-59.5"}},{"country":"gy","city":"Queenstown","coordinates":{"lat":"6.8166667","long":"-58.15"}},{"country":"gy","city":"Queenstown","coordinates":{"lat":"7.2","long":"-58.4833333"}},{"country":"gy","city":"Queenstown Village","coordinates":{"lat":"7.2","long":"-58.4833333"}},{"country":"gy","city":"Red Hill Settlement","coordinates":{"lat":"7.8666667","long":"-59.4333333"}},{"country":"gy","city":"Ridge","coordinates":{"lat":"6.9166667","long":"-58.4833333"}},{"country":"gy","city":"Rising","coordinates":{"lat":"6.0833333","long":"-57.2"}},{"country":"gy","city":"Rising Sun","coordinates":{"lat":"6.0833333","long":"-57.2"}},{"country":"gy","city":"Riverstown","coordinates":{"lat":"7.0666667","long":"-58.5"}},{"country":"gy","city":"Robbstown","coordinates":{"lat":"6.8166667","long":"-58.1666667"}},{"country":"gy","city":"Rockstone","coordinates":{"lat":"5.9833333","long":"-58.55"}},{"country":"gy","city":"Rose Hall","coordinates":{"lat":"6.2666667","long":"-57.35"}},{"country":"gy","city":"Rose Hall Village","coordinates":{"lat":"6.2666667","long":"-57.35"}},{"country":"gy","city":"Rosignal","coordinates":{"lat":"6.2833333","long":"-57.5333333"}},{"country":"gy","city":"Rosignol","coordinates":{"lat":"6.2833333","long":"-57.5333333"}},{"country":"gy","city":"Sabernawau Village","coordinates":{"lat":"2.3333333","long":"-59.2333333"}},{"country":"gy","city":"Saint Bede's Mission","coordinates":{"lat":"7.5666667","long":"-59.4666667"}},{"country":"gy","city":"Saint Bedes","coordinates":{"lat":"7.5666667","long":"-59.4666667"}},{"country":"gy","city":"Saint Benedict Mission","coordinates":{"lat":"7.8166667","long":"-59.8333333"}},{"country":"gy","city":"Saint Cuthberts Mission","coordinates":{"lat":"6.3666667","long":"-58.0833333"}},{"country":"gy","city":"Saint Cuthberts","coordinates":{"lat":"6.3666667","long":"-58.0833333"}},{"country":"gy","city":"Saint Cuthberts Village","coordinates":{"lat":"6.3666667","long":"-58.0833333"}},{"country":"gy","city":"Saint Edwards Mission","coordinates":{"lat":"6.3666667","long":"-58.7"}},{"country":"gy","city":"Saint Francis Mission","coordinates":{"lat":"6.1","long":"-57.95"}},{"country":"gy","city":"Saint Ignatius Mission","coordinates":{"lat":"3.3333333","long":"-59.8"}},{"country":"gy","city":"Saint Ignatius","coordinates":{"lat":"3.3333333","long":"-59.8"}},{"country":"gy","city":"Saint John","coordinates":{"lat":"6.3833333","long":"-57.6166667"}},{"country":"gy","city":"Saint Mary","coordinates":{"lat":"5.2","long":"-59.0166667"}},{"country":"gy","city":"Saint Marys","coordinates":{"lat":"6.25","long":"-58.5833333"}},{"country":"gy","city":"Saint Mary's","coordinates":{"lat":"5.2","long":"-59.0166667"}},{"country":"gy","city":"Saint Nicholas Mission","coordinates":{"lat":"7.5","long":"-58.95"}},{"country":"gy","city":"Saint Nicholas","coordinates":{"lat":"7.5","long":"-58.95"}},{"country":"gy","city":"Sand Creek Village","coordinates":{"lat":"3.0","long":"-59.5166667"}},{"country":"gy","city":"Sand Hills","coordinates":{"lat":"5.8","long":"-57.75"}},{"country":"gy","city":"Santa Cruz","coordinates":{"lat":"7.65","long":"-59.2333333"}},{"country":"gy","city":"Santa Fé Ranch","coordinates":{"lat":"3.7833333","long":"-59.6"}},{"country":"gy","city":"Santa Fe","coordinates":{"lat":"3.7833333","long":"-59.6"}},{"country":"gy","city":"Santa Rosa Mission","coordinates":{"lat":"7.65","long":"-58.95"}},{"country":"gy","city":"Santa Rosa","coordinates":{"lat":"7.65","long":"-58.95"}},{"country":"gy","city":"Sarah","coordinates":{"lat":"6.9666667","long":"-58.4666667"}},{"country":"gy","city":"Sawariwaunawa","coordinates":{"lat":"2.6833333","long":"-59.65"}},{"country":"gy","city":"Sawariwau","coordinates":{"lat":"2.6833333","long":"-59.65"}},{"country":"gy","city":"Saxacalli","coordinates":{"lat":"6.5833333","long":"-58.6166667"}},{"country":"gy","city":"Saxakalli","coordinates":{"lat":"6.5833333","long":"-58.6166667"}},{"country":"gy","city":"Saxsacali","coordinates":{"lat":"6.5833333","long":"-58.6166667"}},{"country":"gy","city":"Scottsburg","coordinates":{"lat":"5.9166667","long":"-57.1333333"}},{"country":"gy","city":"Shea","coordinates":{"lat":"2.8166667","long":"-59.1333333"}},{"country":"gy","city":"Shea Village","coordinates":{"lat":"2.8166667","long":"-59.1333333"}},{"country":"gy","city":"Shoa","coordinates":{"lat":"2.8166667","long":"-59.1333333"}},{"country":"gy","city":"Shulinab","coordinates":{"lat":"3.0833333","long":"-59.7833333"}},{"country":"gy","city":"Shulinab Village","coordinates":{"lat":"3.0833333","long":"-59.7833333"}},{"country":"gy","city":"Simirie","coordinates":{"lat":"6.5166667","long":"-58.5833333"}},{"country":"gy","city":"Simiri","coordinates":{"lat":"7.2166667","long":"-58.6666667"}},{"country":"gy","city":"Sinclair Landing","coordinates":{"lat":"7.7666667","long":"-59.8333333"}},{"country":"gy","city":"Sinking Ground","coordinates":{"lat":"6.3333333","long":"-57.8833333"}},{"country":"gy","city":"Sion","coordinates":{"lat":"5.6833333","long":"-57.85"}},{"country":"gy","city":"Sirikie","coordinates":{"lat":"7.3","long":"-58.6666667"}},{"country":"gy","city":"Sir James","coordinates":{"lat":"6.2833333","long":"-57.5333333"}},{"country":"gy","city":"Sisipelin","coordinates":{"lat":"4.65","long":"-59.55"}},{"country":"gy","city":"Sisipelin Village","coordinates":{"lat":"4.65","long":"-59.55"}},{"country":"gy","city":"Skeldon Place","coordinates":{"lat":"5.8833333","long":"-57.1333333"}},{"country":"gy","city":"Skeldon","coordinates":{"lat":"5.8833333","long":"-57.1333333"}},{"country":"gy","city":"Smythfield","coordinates":{"lat":"6.2333333","long":"-57.5166667"}},{"country":"gy","city":"Soesdyke","coordinates":{"lat":"6.5333333","long":"-58.25"}},{"country":"gy","city":"Soesdyk","coordinates":{"lat":"6.5333333","long":"-58.25"}},{"country":"gy","city":"Somerset","coordinates":{"lat":"7.4","long":"-58.5666667"}},{"country":"gy","city":"Springlands Place","coordinates":{"lat":"5.9","long":"-57.15"}},{"country":"gy","city":"Springlands","coordinates":{"lat":"5.9","long":"-57.15"}},{"country":"gy","city":"Stabroek","coordinates":{"lat":"6.8166667","long":"-58.15"}},{"country":"gy","city":"Stanleytown","coordinates":{"lat":"6.2333333","long":"-57.5166667"}},{"country":"gy","city":"Stanleytown","coordinates":{"lat":"6.7333333","long":"-58.2"}},{"country":"gy","city":"Subryanville","coordinates":{"lat":"6.8333333","long":"-58.1333333"}},{"country":"gy","city":"Suddie","coordinates":{"lat":"7.1166667","long":"-58.4833333"}},{"country":"gy","city":"Sunnyside","coordinates":{"lat":"3.7","long":"-59.65"}},{"country":"gy","city":"Surama","coordinates":{"lat":"4.1666667","long":"-59.0833333"}},{"country":"gy","city":"Surama Village","coordinates":{"lat":"4.1666667","long":"-59.0833333"}},{"country":"gy","city":"Surprise Hill","coordinates":{"lat":"7.8166667","long":"-59.8"}},{"country":"gy","city":"Surumatra","coordinates":{"lat":"4.1666667","long":"-59.0666667"}},{"country":"gy","city":"Tacama","coordinates":{"lat":"5.5666667","long":"-57.9166667"}},{"country":"gy","city":"Takama Battle School","coordinates":{"lat":"5.6","long":"-57.9666667"}},{"country":"gy","city":"Takama","coordinates":{"lat":"5.5666667","long":"-57.9166667"}},{"country":"gy","city":"Tamtom","coordinates":{"lat":"2.35","long":"-59.7166667"}},{"country":"gy","city":"Tamton","coordinates":{"lat":"2.35","long":"-59.7166667"}},{"country":"gy","city":"Tarlogie Farm","coordinates":{"lat":"6.1833333","long":"-57.2333333"}},{"country":"gy","city":"Tarlogie","coordinates":{"lat":"6.1833333","long":"-57.2333333"}},{"country":"gy","city":"Taruka","coordinates":{"lat":"4.8","long":"-59.6333333"}},{"country":"gy","city":"Taruma","coordinates":{"lat":"2.0833333","long":"-58.3833333"}},{"country":"gy","city":"Taruma Village","coordinates":{"lat":"2.0833333","long":"-58.3833333"}},{"country":"gy","city":"The Clip","coordinates":{"lat":"6.3833333","long":"-58.6666667"}},{"country":"gy","city":"Tiger Pond Village","coordinates":{"lat":"4.05","long":"-59.4333333"}},{"country":"gy","city":"Tipuru","coordinates":{"lat":"4.2166667","long":"-59.5666667"}},{"country":"gy","city":"Tipuru Village","coordinates":{"lat":"4.2166667","long":"-59.5666667"}},{"country":"gy","city":"Toka","coordinates":{"lat":"3.9166667","long":"-59.3833333"}},{"country":"gy","city":"Toka Village","coordinates":{"lat":"3.9166667","long":"-59.3833333"}},{"country":"gy","city":"Towakaima Landing","coordinates":{"lat":"7.3166667","long":"-60.0"}},{"country":"gy","city":"Towakaima","coordinates":{"lat":"7.3166667","long":"-60.0"}},{"country":"gy","city":"Towokaima Fallssee Towakaima","coordinates":{"lat":"7.3166667","long":"-60.0"}},{"country":"gy","city":"Tuka","coordinates":{"lat":"3.9166667","long":"-59.3833333"}},{"country":"gy","city":"Tumareng","coordinates":{"lat":"6.1666667","long":"-60.05"}},{"country":"gy","city":"Tumereng","coordinates":{"lat":"6.1666667","long":"-60.05"}},{"country":"gy","city":"Tumureng","coordinates":{"lat":"6.1666667","long":"-60.05"}},{"country":"gy","city":"Tuschen","coordinates":{"lat":"6.8833333","long":"-58.35"}},{"country":"gy","city":"Uitvlugt","coordinates":{"lat":"6.8666667","long":"-58.3"}},{"country":"gy","city":"Upper Kamaria","coordinates":{"lat":"6.4333333","long":"-58.8"}},{"country":"gy","city":"Urisirima","coordinates":{"lat":"6.4333333","long":"-58.6"}},{"country":"gy","city":"Velgrad","coordinates":{"lat":"4.8666667","long":"-59.8"}},{"country":"gy","city":"Vergenoegen","coordinates":{"lat":"6.8666667","long":"-58.35"}},{"country":"gy","city":"Vigilantie","coordinates":{"lat":"5.85","long":"-57.7"}},{"country":"gy","city":"Village Burisanawa","coordinates":{"lat":"2.35","long":"-59.35"}},{"country":"gy","city":"Village Nappita","coordinates":{"lat":"3.4166667","long":"-59.5666667"}},{"country":"gy","city":"Village Shulinab","coordinates":{"lat":"3.0833333","long":"-59.7833333"}},{"country":"gy","city":"Vreed en Hoop","coordinates":{"lat":"6.8","long":"-58.1833333"}},{"country":"gy","city":"Waikerebi Mission","coordinates":{"lat":"7.5333333","long":"-59.4"}},{"country":"gy","city":"Waioklepalul","coordinates":{"lat":"5.45","long":"-60.15"}},{"country":"gy","city":"Waioklepaluta Village","coordinates":{"lat":"5.45","long":"-60.15"}},{"country":"gy","city":"Waipa Village","coordinates":{"lat":"4.9333333","long":"-60.0"}},{"country":"gy","city":"Wai-Wai","coordinates":{"lat":"1.5833333","long":"-58.65"}},{"country":"gy","city":"Waiwoi Village","coordinates":{"lat":"1.4333333","long":"-58.8"}},{"country":"gy","city":"Wakadanawa","coordinates":{"lat":"1.9833333","long":"-59.7166667"}},{"country":"gy","city":"Wakakulud Village","coordinates":{"lat":"1.3833333","long":"-58.75"}},{"country":"gy","city":"Wakakulud","coordinates":{"lat":"1.3833333","long":"-58.75"}},{"country":"gy","city":"Wakapau Village","coordinates":{"lat":"7.5166667","long":"-58.8"}},{"country":"gy","city":"Wales","coordinates":{"lat":"6.7","long":"-58.2"}},{"country":"gy","city":"Wandaik Village","coordinates":{"lat":"4.45","long":"-59.5833333"}},{"country":"gy","city":"Wandaik","coordinates":{"lat":"4.45","long":"-59.5833333"}},{"country":"gy","city":"Wandapa Village","coordinates":{"lat":"4.55","long":"-59.7166667"}},{"country":"gy","city":"Wandapa","coordinates":{"lat":"4.55","long":"-59.7166667"}},{"country":"gy","city":"Waramadan","coordinates":{"lat":"5.8166667","long":"-60.75"}},{"country":"gy","city":"Waramadon Village","coordinates":{"lat":"5.8166667","long":"-60.75"}},{"country":"gy","city":"Waramuri Mission","coordinates":{"lat":"7.6166667","long":"-58.8666667"}},{"country":"gy","city":"Waramuri","coordinates":{"lat":"7.6166667","long":"-58.8666667"}},{"country":"gy","city":"Ward village","coordinates":{"lat":"6.0666667","long":"-57.1833333"}},{"country":"gy","city":"Warimure","coordinates":{"lat":"2.9333333","long":"-59.4833333"}},{"country":"gy","city":"Wariwau","coordinates":{"lat":"2.7166667","long":"-59.2"}},{"country":"gy","city":"Wariwiau Village","coordinates":{"lat":"2.7166667","long":"-59.2"}},{"country":"gy","city":"Waropoko Mission","coordinates":{"lat":"7.8166667","long":"-59.25"}},{"country":"gy","city":"Waruma Outstation","coordinates":{"lat":"3.1","long":"-59.9"}},{"country":"gy","city":"Waruma","coordinates":{"lat":"3.1","long":"-59.9"}},{"country":"gy","city":"Watooka Village","coordinates":{"lat":"6.0","long":"-58.3"}},{"country":"gy","city":"Watuka","coordinates":{"lat":"6.0","long":"-58.3"}},{"country":"gy","city":"Waudapa Village","coordinates":{"lat":"4.55","long":"-59.7166667"}},{"country":"gy","city":"Wauna-Yarakita","coordinates":{"lat":"8.0833333","long":"-59.9166667"}},{"country":"gy","city":"Wauna-Yarikita","coordinates":{"lat":"8.0833333","long":"-59.9166667"}},{"country":"gy","city":"Weldaad","coordinates":{"lat":"6.5","long":"-57.6833333"}},{"country":"gy","city":"Wel te Vreeden","coordinates":{"lat":"5.85","long":"-57.4666667"}},{"country":"gy","city":"Werk en Rust","coordinates":{"lat":"6.7833333","long":"-58.1666667"}},{"country":"gy","city":"Whim","coordinates":{"lat":"6.2666667","long":"-57.35"}},{"country":"gy","city":"Wiapri","coordinates":{"lat":"4.95","long":"-59.9833333"}},{"country":"gy","city":"Wichabai","coordinates":{"lat":"2.8666667","long":"-59.5333333"}},{"country":"gy","city":"Windsor Forest","coordinates":{"lat":"6.85","long":"-58.2333333"}},{"country":"gy","city":"Wineperu","coordinates":{"lat":"6.1833333","long":"-58.5833333"}},{"country":"gy","city":"Wiribisirikanali","coordinates":{"lat":"5.5","long":"-58.3833333"}},{"country":"gy","city":"Wisemar","coordinates":{"lat":"6.0","long":"-58.3166667"}},{"country":"gy","city":"Wismar","coordinates":{"lat":"6.0","long":"-58.3166667"}},{"country":"gy","city":"Wolga","coordinates":{"lat":"6.4666667","long":"-58.6166667"}},{"country":"gy","city":"Wortmanville","coordinates":{"lat":"6.8166667","long":"-58.15"}},{"country":"gy","city":"Woweta Village","coordinates":{"lat":"3.9833333","long":"-59.0833333"}},{"country":"gy","city":"Woweta","coordinates":{"lat":"3.9833333","long":"-59.0833333"}},{"country":"gy","city":"Yakarinta","coordinates":{"lat":"3.9","long":"-59.25"}},{"country":"gy","city":"Yakusari","coordinates":{"lat":"6.05","long":"-57.25"}},{"country":"gy","city":"Yepi Village","coordinates":{"lat":"1.35","long":"-58.6666667"}},{"country":"gy","city":"Yepu Village","coordinates":{"lat":"1.3666667","long":"-58.6333333"}},{"country":"gy","city":"Yupukari","coordinates":{"lat":"3.6666667","long":"-59.35"}},{"country":"gy","city":"Yupukarri","coordinates":{"lat":"3.6666667","long":"-59.35"}},{"country":"gy","city":"Zion","coordinates":{"lat":"5.6833333","long":"-57.85"}}]