[{"country":"st","city":"A. Andrade","coordinates":{"lat":"0.2333333","long":"6.7"}},{"country":"st","city":"Abade","coordinates":{"lat":"1.6333333","long":"7.45"}},{"country":"st","city":"Água-Côco","coordinates":{"lat":"0.05","long":"6.5333333"}},{"country":"st","city":"Água Izé","coordinates":{"lat":"0.2166667","long":"6.7333333"}},{"country":"st","city":"Alto Douro","coordinates":{"lat":"0.05","long":"6.5333333"}},{"country":"st","city":"Amparo","coordinates":{"lat":"0.1833333","long":"6.6666667"}},{"country":"st","city":"Amparo II","coordinates":{"lat":"0.3166667","long":"6.7166667"}},{"country":"st","city":"Anselmo de Andrade","coordinates":{"lat":"1.6","long":"7.3666667"}},{"country":"st","city":"António Dias","coordinates":{"lat":"0.2","long":"6.6666667"}},{"country":"st","city":"Atalaia","coordinates":{"lat":"1.6166667","long":"7.45"}},{"country":"st","city":"Azeitona","coordinates":{"lat":"1.6666667","long":"7.4"}},{"country":"st","city":"Babudo","coordinates":{"lat":"1.65","long":"7.4"}},{"country":"st","city":"Bela Vista","coordinates":{"lat":"1.6166667","long":"7.4166667"}},{"country":"st","city":"Bela Vista","coordinates":{"lat":"0.3666667","long":"6.7"}},{"country":"st","city":"Belmonte","coordinates":{"lat":"0.3333333","long":"6.65"}},{"country":"st","city":"Belo Monte","coordinates":{"lat":"1.6833333","long":"7.45"}},{"country":"st","city":"Bemfica","coordinates":{"lat":"0.3166667","long":"6.65"}},{"country":"st","city":"Bemposta","coordinates":{"lat":"0.3166667","long":"6.6333333"}},{"country":"st","city":"B. Faro","coordinates":{"lat":"0.2333333","long":"6.6666667"}},{"country":"st","city":"Bindá","coordinates":{"lat":"0.2166667","long":"6.4666667"}},{"country":"st","city":"Blublu","coordinates":{"lat":"0.3166667","long":"6.7166667"}},{"country":"st","city":"Boa Entrada","coordinates":{"lat":"0.35","long":"6.6666667"}},{"country":"st","city":"Boa Esperança","coordinates":{"lat":"0.3333333","long":"6.6333333"}},{"country":"st","city":"Bombaim","coordinates":{"lat":"0.25","long":"6.6333333"}},{"country":"st","city":"Bombom","coordinates":{"lat":"1.6833333","long":"7.4"}},{"country":"st","city":"Bombon","coordinates":{"lat":"0.3166667","long":"6.7333333"}},{"country":"st","city":"Buenos Aires","coordinates":{"lat":"0.2666667","long":"6.7166667"}},{"country":"st","city":"Buenos Ayres","coordinates":{"lat":"0.2666667","long":"6.7166667"}},{"country":"st","city":"Cadão","coordinates":{"lat":"0.3333333","long":"6.5333333"}},{"country":"st","city":"Caixão Grande","coordinates":{"lat":"0.3","long":"6.7166667"}},{"country":"st","city":"Caldeiras","coordinates":{"lat":"0.35","long":"6.6333333"}},{"country":"st","city":"Campainha","coordinates":{"lat":"1.6833333","long":"7.4333333"}},{"country":"st","city":"Canavial","coordinates":{"lat":"0.3833333","long":"6.6666667"}},{"country":"st","city":"Cantagalo","coordinates":{"lat":"0.2166667","long":"6.6833333"}},{"country":"st","city":"Caridade","coordinates":{"lat":"0.2","long":"6.7"}},{"country":"st","city":"Cascalheira","coordinates":{"lat":"1.6833333","long":"7.4166667"}},{"country":"st","city":"Catumbela","coordinates":{"lat":"0.25","long":"6.6666667"}},{"country":"st","city":"Chamiço","coordinates":{"lat":"0.3166667","long":"6.6"}},{"country":"st","city":"Cidade de Santo António","coordinates":{"lat":"1.65","long":"7.4333333"}},{"country":"st","city":"Cincoenta","coordinates":{"lat":"1.6833333","long":"7.3666667"}},{"country":"st","city":"Colónia Açoreana","coordinates":{"lat":"0.1833333","long":"6.6833333"}},{"country":"st","city":"Correio","coordinates":{"lat":"1.6","long":"7.35"}},{"country":"st","city":"Costa e Silva","coordinates":{"lat":"1.5666667","long":"7.35"}},{"country":"st","city":"Diana","coordinates":{"lat":"0.3333333","long":"6.6833333"}},{"country":"st","city":"Diogo Vaz","coordinates":{"lat":"0.3166667","long":"6.5"}},{"country":"st","city":"Dona Augusta","coordinates":{"lat":"0.1166667","long":"6.6333333"}},{"country":"st","city":"Dona Eugénia","coordinates":{"lat":"0.1333333","long":"6.6166667"}},{"country":"st","city":"Enjale","coordinates":{"lat":"0.0333333","long":"6.5166667"}},{"country":"st","city":"Ermelinda","coordinates":{"lat":"0.1333333","long":"6.5833333"}},{"country":"st","city":"Esperança","coordinates":{"lat":"1.6333333","long":"7.4"}},{"country":"st","city":"Esprainha","coordinates":{"lat":"0.3333333","long":"6.5166667"}},{"country":"st","city":"Fernão Dias","coordinates":{"lat":"0.4166667","long":"6.6833333"}},{"country":"st","city":"F. Mantero","coordinates":{"lat":"0.25","long":"6.7166667"}},{"country":"st","city":"Formiga","coordinates":{"lat":"0.25","long":"6.4833333"}},{"country":"st","city":"Futuro","coordinates":{"lat":"1.6666667","long":"7.4333333"}},{"country":"st","city":"General Fonseca","coordinates":{"lat":"1.5666667","long":"7.4333333"}},{"country":"st","city":"Germinia Antónia","coordinates":{"lat":"1.6333333","long":"7.3833333"}},{"country":"st","city":"Ghegue Novo","coordinates":{"lat":"0.2666667","long":"6.7166667"}},{"country":"st","city":"Graça","coordinates":{"lat":"0.25","long":"6.4833333"}},{"country":"st","city":"Granja","coordinates":{"lat":"0.15","long":"6.6333333"}},{"country":"st","city":"Gratidão","coordinates":{"lat":"0.3333333","long":"6.6833333"}},{"country":"st","city":"Guadalupe","coordinates":{"lat":"0.3833333","long":"6.65"}},{"country":"st","city":"Guarda","coordinates":{"lat":"0.35","long":"6.6"}},{"country":"st","city":"Guayaquil","coordinates":{"lat":"0.2","long":"6.6166667"}},{"country":"st","city":"Guegue Novo","coordinates":{"lat":"0.2666667","long":"6.7166667"}},{"country":"st","city":"Gumbela","coordinates":{"lat":"0.0833333","long":"6.55"}},{"country":"st","city":"Henrique","coordinates":{"lat":"0.05","long":"6.55"}},{"country":"st","city":"Infante Dom Henrique","coordinates":{"lat":"1.5666667","long":"7.4166667"}},{"country":"st","city":"Ió Grande","coordinates":{"lat":"0.2166667","long":"6.6166667"}},{"country":"st","city":"Iola","coordinates":{"lat":"1.65","long":"7.3666667"}},{"country":"st","city":"Java","coordinates":{"lat":"0.2666667","long":"6.65"}},{"country":"st","city":"Kimpo","coordinates":{"lat":"0.25","long":"6.7166667"}},{"country":"st","city":"Lapa","coordinates":{"lat":"1.6","long":"7.3666667"}},{"country":"st","city":"Laura","coordinates":{"lat":"0.2833333","long":"6.7"}},{"country":"st","city":"Lembá","coordinates":{"lat":"0.25","long":"6.4666667"}},{"country":"st","city":"Lemos","coordinates":{"lat":"0.3","long":"6.7"}},{"country":"st","city":"Macambrará","coordinates":{"lat":"0.2666667","long":"6.6333333"}},{"country":"st","city":"Madalena","coordinates":{"lat":"0.3333333","long":"6.6666667"}},{"country":"st","city":"Magdalena","coordinates":{"lat":"0.3333333","long":"6.6666667"}},{"country":"st","city":"Makambrará","coordinates":{"lat":"0.2666667","long":"6.6333333"}},{"country":"st","city":"M. Alice","coordinates":{"lat":"0.0666667","long":"6.5333333"}},{"country":"st","city":"Mantero","coordinates":{"lat":"1.6","long":"7.35"}},{"country":"st","city":"Manuel Gomes","coordinates":{"lat":"1.6333333","long":"7.3833333"}},{"country":"st","city":"Máquina","coordinates":{"lat":"1.6333333","long":"7.3833333"}},{"country":"st","city":"Matocana","coordinates":{"lat":"0.2333333","long":"6.7"}},{"country":"st","city":"Milagrosa","coordinates":{"lat":"0.2833333","long":"6.6666667"}},{"country":"st","city":"Mirante","coordinates":{"lat":"0.25","long":"6.5166667"}},{"country":"st","city":"Montalegre","coordinates":{"lat":"1.6333333","long":"7.3833333"}},{"country":"st","city":"Montalvão","coordinates":{"lat":"1.6666667","long":"7.4166667"}},{"country":"st","city":"Montebelo","coordinates":{"lat":"0.2166667","long":"6.7166667"}},{"country":"st","city":"Monte Café","coordinates":{"lat":"0.3","long":"6.65"}},{"country":"st","city":"Monte Carmo","coordinates":{"lat":"0.15","long":"6.5833333"}},{"country":"st","city":"Monteforte","coordinates":{"lat":"0.3333333","long":"6.5333333"}},{"country":"st","city":"Monte Pedra","coordinates":{"lat":"1.6166667","long":"7.4333333"}},{"country":"st","city":"Monte Raul","coordinates":{"lat":"0.2166667","long":"6.6833333"}},{"country":"st","city":"Monte Rosa","coordinates":{"lat":"0.1333333","long":"6.5166667"}},{"country":"st","city":"Monte Roza","coordinates":{"lat":"0.1333333","long":"6.5166667"}},{"country":"st","city":"Montes Hermínios","coordinates":{"lat":"0.25","long":"6.7"}},{"country":"st","city":"Morro Vigia","coordinates":{"lat":"0.3333333","long":"6.6"}},{"country":"st","city":"M. Peixe","coordinates":{"lat":"0.4","long":"6.65"}},{"country":"st","city":"Mulondo","coordinates":{"lat":"0.3","long":"6.5166667"}},{"country":"st","city":"M. Vilela","coordinates":{"lat":"0.2833333","long":"6.5666667"}},{"country":"st","city":"Nazaré","coordinates":{"lat":"0.3666667","long":"6.7166667"}},{"country":"st","city":"N. Ceilão","coordinates":{"lat":"0.2833333","long":"6.6"}},{"country":"st","city":"N. Ceylão","coordinates":{"lat":"0.2833333","long":"6.6"}},{"country":"st","city":"Neves Ferreira","coordinates":{"lat":"1.55","long":"7.4"}},{"country":"st","city":"Neves","coordinates":{"lat":"0.3666667","long":"6.55"}},{"country":"st","city":"Nitreira","coordinates":{"lat":"1.6166667","long":"7.4166667"}},{"country":"st","city":"Nova Cuba","coordinates":{"lat":"1.6333333","long":"7.4166667"}},{"country":"st","city":"Nova Estrela","coordinates":{"lat":"1.6166667","long":"7.4333333"}},{"country":"st","city":"Nova Moca","coordinates":{"lat":"0.2833333","long":"6.6333333"}},{"country":"st","city":"Nova Moka","coordinates":{"lat":"0.2833333","long":"6.6333333"}},{"country":"st","city":"Nova Olinda","coordinates":{"lat":"0.25","long":"6.7333333"}},{"country":"st","city":"Novo Brasil","coordinates":{"lat":"0.0833333","long":"6.5666667"}},{"country":"st","city":"Novo Brazil","coordinates":{"lat":"0.0833333","long":"6.5666667"}},{"country":"st","city":"Novo Destino","coordinates":{"lat":"0.3166667","long":"6.6333333"}},{"country":"st","city":"N'zumbi","coordinates":{"lat":"0.0666667","long":"6.55"}},{"country":"st","city":"Oquê Gaspar","coordinates":{"lat":"1.65","long":"7.4166667"}},{"country":"st","city":"Oquê Rosário","coordinates":{"lat":"1.65","long":"7.4166667"}},{"country":"st","city":"Oquê Três","coordinates":{"lat":"1.65","long":"7.4"}},{"country":"st","city":"Paciencia","coordinates":{"lat":"1.6666667","long":"7.4333333"}},{"country":"st","city":"Paris","coordinates":{"lat":"0.3333333","long":"6.6833333"}},{"country":"st","city":"Pau Cavalo","coordinates":{"lat":"1.65","long":"7.3833333"}},{"country":"st","city":"Paufita","coordinates":{"lat":"1.6833333","long":"7.4166667"}},{"country":"st","city":"Periquito","coordinates":{"lat":"1.6","long":"7.4333333"}},{"country":"st","city":"Perseverança","coordinates":{"lat":"0.0833333","long":"6.6166667"}},{"country":"st","city":"Pico","coordinates":{"lat":"1.6166667","long":"7.4"}},{"country":"st","city":"Piedade","coordinates":{"lat":"1.6333333","long":"7.4333333"}},{"country":"st","city":"Pincaté","coordinates":{"lat":"1.6333333","long":"7.4"}},{"country":"st","city":"Pinheira","coordinates":{"lat":"0.2833333","long":"6.7166667"}},{"country":"st","city":"Planca Primeira","coordinates":{"lat":"0.4","long":"6.6"}},{"country":"st","city":"Planca Segunda","coordinates":{"lat":"0.4","long":"6.6166667"}},{"country":"st","city":"Plancas","coordinates":{"lat":"0.3666667","long":"6.6"}},{"country":"st","city":"Platô Café","coordinates":{"lat":"0.2666667","long":"6.6666667"}},{"country":"st","city":"Poiso Alto","coordinates":{"lat":"0.3333333","long":"6.6166667"}},{"country":"st","city":"Ponta do Sol","coordinates":{"lat":"1.65","long":"7.3833333"}},{"country":"st","city":"Ponta Figo","coordinates":{"lat":"0.35","long":"6.55"}},{"country":"st","city":"Ponta Forte","coordinates":{"lat":"1.6666667","long":"7.4333333"}},{"country":"st","city":"Ponta Furada","coordinates":{"lat":"0.2333333","long":"6.4833333"}},{"country":"st","city":"Portinho","coordinates":{"lat":"0.0833333","long":"6.5333333"}},{"country":"st","city":"Porto Alegre","coordinates":{"lat":"0.0333333","long":"6.5333333"}},{"country":"st","city":"Praia da Rosema","coordinates":{"lat":"0.3666667","long":"6.5666667"}},{"country":"st","city":"Praia das Conchas","coordinates":{"lat":"0.3833333","long":"6.6166667"}},{"country":"st","city":"Praia Grande","coordinates":{"lat":"0.0833333","long":"6.5833333"}},{"country":"st","city":"Praia Inhame","coordinates":{"lat":"1.6666667","long":"7.4333333"}},{"country":"st","city":"Queluz","coordinates":{"lat":"0.3333333","long":"6.65"}},{"country":"st","city":"Quimpo","coordinates":{"lat":"0.25","long":"6.7166667"}},{"country":"st","city":"Quinas","coordinates":{"lat":"0.2666667","long":"6.6"}},{"country":"st","city":"Quingué","coordinates":{"lat":"0.2833333","long":"6.6666667"}},{"country":"st","city":"Ribeira Afonso","coordinates":{"lat":"0.2","long":"6.7166667"}},{"country":"st","city":"Ribeira Fria","coordinates":{"lat":"1.5833333","long":"7.4333333"}},{"country":"st","city":"Ribeira Funda","coordinates":{"lat":"0.3666667","long":"6.5833333"}},{"country":"st","city":"Ribeira Izé","coordinates":{"lat":"1.6833333","long":"7.4"}},{"country":"st","city":"Ribeira Palma","coordinates":{"lat":"0.35","long":"6.5833333"}},{"country":"st","city":"Rio Ave","coordinates":{"lat":"0.2666667","long":"6.5"}},{"country":"st","city":"Rio do Ouro","coordinates":{"lat":"0.3666667","long":"6.65"}},{"country":"st","city":"Rio Leça","coordinates":{"lat":"0.35","long":"6.55"}},{"country":"st","city":"Rio Vouga","coordinates":{"lat":"0.3333333","long":"6.7"}},{"country":"st","city":"Roça Furada","coordinates":{"lat":"0.2333333","long":"6.4833333"}},{"country":"st","city":"Rosema","coordinates":{"lat":"0.35","long":"6.5666667"}},{"country":"st","city":"Rozema","coordinates":{"lat":"0.35","long":"6.5666667"}},{"country":"st","city":"Salazar","coordinates":{"lat":"0.3333333","long":"6.7333333"}},{"country":"st","city":"Salomão","coordinates":{"lat":"1.6333333","long":"7.3833333"}},{"country":"st","city":"San Antonio","coordinates":{"lat":"1.65","long":"7.4333333"}},{"country":"st","city":"Santa Adelaide","coordinates":{"lat":"0.2666667","long":"6.65"}},{"country":"st","city":"Santa Catanna","coordinates":{"lat":"0.2666667","long":"6.4833333"}},{"country":"st","city":"Santa Catarina","coordinates":{"lat":"0.2666667","long":"6.4833333"}},{"country":"st","city":"Santa Cecília","coordinates":{"lat":"0.1833333","long":"6.7"}},{"country":"st","city":"Santa Clara","coordinates":{"lat":"0.35","long":"6.6166667"}},{"country":"st","city":"Santa Clotilde","coordinates":{"lat":"0.1166667","long":"6.6"}},{"country":"st","city":"Santa Cruz","coordinates":{"lat":"0.1333333","long":"6.65"}},{"country":"st","city":"Santa Elvira","coordinates":{"lat":"0.2666667","long":"6.65"}},{"country":"st","city":"Santa Irene","coordinates":{"lat":"0.1","long":"6.6"}},{"country":"st","city":"Santa Isabel","coordinates":{"lat":"1.65","long":"7.4166667"}},{"country":"st","city":"Santa Joaquina","coordinates":{"lat":"1.6166667","long":"7.4"}},{"country":"st","city":"Santa Josefina","coordinates":{"lat":"0.0666667","long":"6.5333333"}},{"country":"st","city":"Santa Luzia","coordinates":{"lat":"0.3666667","long":"6.6333333"}},{"country":"st","city":"Santa Margarida","coordinates":{"lat":"0.3333333","long":"6.6666667"}},{"country":"st","city":"Santa Maria","coordinates":{"lat":"0.35","long":"6.6"}},{"country":"st","city":"Santana","coordinates":{"lat":"1.6666667","long":"7.4333333"}},{"country":"st","city":"Sant'Ana","coordinates":{"lat":"0.2666667","long":"6.75"}},{"country":"st","city":"Santarém","coordinates":{"lat":"0.35","long":"6.6833333"}},{"country":"st","city":"Santa Rita","coordinates":{"lat":"1.6833333","long":"7.4166667"}},{"country":"st","city":"Santa Trindade","coordinates":{"lat":"1.6166667","long":"7.4"}},{"country":"st","city":"Sant'Elmo","coordinates":{"lat":"0.2166667","long":"6.6166667"}},{"country":"st","city":"Sant'Elvira","coordinates":{"lat":"0.2666667","long":"6.65"}},{"country":"st","city":"Santo Amaro","coordinates":{"lat":"0.3666667","long":"6.7"}},{"country":"st","city":"Santo André","coordinates":{"lat":"0.3333333","long":"6.7"}},{"country":"st","city":"Santo António","coordinates":{"lat":"1.65","long":"7.4166667"}},{"country":"st","city":"Santo António","coordinates":{"lat":"0.2333333","long":"6.7333333"}},{"country":"st","city":"Santo Cristo","coordinates":{"lat":"1.6333333","long":"7.4333333"}},{"country":"st","city":"São Antõnio","coordinates":{"lat":"1.65","long":"7.4333333"}},{"country":"st","city":"São Carlos do Fundão","coordinates":{"lat":"1.6166667","long":"7.3833333"}},{"country":"st","city":"São Francisco","coordinates":{"lat":"0.2","long":"6.65"}},{"country":"st","city":"São Januário","coordinates":{"lat":"0.25","long":"6.6666667"}},{"country":"st","city":"São Jão","coordinates":{"lat":"0.1333333","long":"6.65"}},{"country":"st","city":"São Jerónimo","coordinates":{"lat":"1.6833333","long":"7.3666667"}},{"country":"st","city":"São Jerónimo","coordinates":{"lat":"0.2","long":"6.6833333"}},{"country":"st","city":"São Jerónymo","coordinates":{"lat":"0.2","long":"6.6833333"}},{"country":"st","city":"São João","coordinates":{"lat":"1.65","long":"7.4333333"}},{"country":"st","city":"São João","coordinates":{"lat":"0.0833333","long":"6.55"}},{"country":"st","city":"São Joaquim","coordinates":{"lat":"1.6166667","long":"7.3833333"}},{"country":"st","city":"São Jorge","coordinates":{"lat":"1.6666667","long":"7.4"}},{"country":"st","city":"São José Picaté","coordinates":{"lat":"1.6333333","long":"7.4"}},{"country":"st","city":"São José","coordinates":{"lat":"1.6333333","long":"7.4"}},{"country":"st","city":"São José","coordinates":{"lat":"0.1166667","long":"6.6"}},{"country":"st","city":"São Luís","coordinates":{"lat":"0.3","long":"6.6166667"}},{"country":"st","city":"São Luiz","coordinates":{"lat":"0.3","long":"6.6166667"}},{"country":"st","city":"São Manoel","coordinates":{"lat":"0.2666667","long":"6.4833333"}},{"country":"st","city":"São Manuel","coordinates":{"lat":"0.2666667","long":"6.4833333"}},{"country":"st","city":"São Mateus","coordinates":{"lat":"1.6333333","long":"7.4"}},{"country":"st","city":"São Miguel","coordinates":{"lat":"0.1333333","long":"6.5"}},{"country":"st","city":"São Nicolau","coordinates":{"lat":"0.2833333","long":"6.6333333"}},{"country":"st","city":"São Paulo","coordinates":{"lat":"0.2","long":"6.65"}},{"country":"st","city":"São Pedro","coordinates":{"lat":"0.2833333","long":"6.7"}},{"country":"st","city":"Sào Thomé","coordinates":{"lat":"0.3333333","long":"6.7333333"}},{"country":"st","city":"São Tomé","coordinates":{"lat":"0.3333333","long":"6.7333333"}},{"country":"st","city":"Saudade","coordinates":{"lat":"0.2833333","long":"6.6333333"}},{"country":"st","city":"Sequeira","coordinates":{"lat":"1.6333333","long":"7.3833333"}},{"country":"st","city":"Soledade","coordinates":{"lat":"0.1333333","long":"6.65"}},{"country":"st","city":"Sundi","coordinates":{"lat":"1.6666667","long":"7.3833333"}},{"country":"st","city":"Terra Firme","coordinates":{"lat":"1.6833333","long":"7.4666667"}},{"country":"st","city":"Trás os Montes","coordinates":{"lat":"0.2666667","long":"6.6166667"}},{"country":"st","city":"Traz os Montes","coordinates":{"lat":"0.2666667","long":"6.6166667"}},{"country":"st","city":"Trindade","coordinates":{"lat":"0.3","long":"6.6833333"}},{"country":"st","city":"Triunfo","coordinates":{"lat":"0.4","long":"6.6833333"}},{"country":"st","city":"Ubabudo","coordinates":{"lat":"0.2666667","long":"6.75"}},{"country":"st","city":"Uba","coordinates":{"lat":"1.6333333","long":"7.3833333"}},{"country":"st","city":"Urzelina","coordinates":{"lat":"0.1833333","long":"6.6833333"}},{"country":"st","city":"Val Carmo","coordinates":{"lat":"0.1666667","long":"6.6333333"}},{"country":"st","city":"Vila Conceição","coordinates":{"lat":"0.05","long":"6.5666667"}},{"country":"st","city":"Vila Moura","coordinates":{"lat":"0.3","long":"6.6833333"}},{"country":"st","city":"Vila Rosa","coordinates":{"lat":"1.6833333","long":"7.4166667"}},{"country":"st","city":"Vila Sara","coordinates":{"lat":"0.3333333","long":"6.5833333"}},{"country":"st","city":"Vila Verde","coordinates":{"lat":"0.1333333","long":"6.55"}},{"country":"st","city":"Vista Alegre","coordinates":{"lat":"0.3166667","long":"6.6833333"}}]