[{"country":"gb","city":"Abberley","coordinates":{"lat":"52.3","long":"-2.366667"}},{"country":"gb","city":"Abberton","coordinates":{"lat":"51.833333","long":".916667"}},{"country":"gb","city":"Abberton","coordinates":{"lat":"52.183333","long":"-2.016667"}},{"country":"gb","city":"Abbess Roding","coordinates":{"lat":"51.783333","long":".266667"}},{"country":"gb","city":"Abbey-Cwmhir","coordinates":{"lat":"52.333333","long":"-3.4"}},{"country":"gb","city":"Abbey Dore","coordinates":{"lat":"51.966667","long":"-2.9"}},{"country":"gb","city":"Abbey Saint Bathans","coordinates":{"lat":"55.85","long":"-2.383333"}},{"country":"gb","city":"Abbey Town","coordinates":{"lat":"54.833333","long":"-3.283333"}},{"country":"gb","city":"Abbots Ann","coordinates":{"lat":"51.183333","long":"-1.516667"}},{"country":"gb","city":"Abbots Bickington","coordinates":{"lat":"50.9","long":"-4.283333"}},{"country":"gb","city":"Abbots Bromley","coordinates":{"lat":"52.8","long":"-1.866667"}},{"country":"gb","city":"Abbotsbury","coordinates":{"lat":"50.666667","long":"-2.6"}},{"country":"gb","city":"Abbotsford","coordinates":{"lat":"55.6","long":"-2.783333"}},{"country":"gb","city":"Abbotsham","coordinates":{"lat":"51.016667","long":"-4.25"}},{"country":"gb","city":"Abbotskerswell","coordinates":{"lat":"50.5","long":"-3.616667"}},{"country":"gb","city":"Abbots Langley","coordinates":{"lat":"51.7","long":"-.416667"}},{"country":"gb","city":"Abbots Lench","coordinates":{"lat":"52.15","long":"-1.966667"}},{"country":"gb","city":"Abbotsley","coordinates":{"lat":"52.183333","long":"-.2"}},{"country":"gb","city":"Abbots Ripton","coordinates":{"lat":"52.383333","long":"-.183333"}},{"country":"gb","city":"Abbots Worthy","coordinates":{"lat":"51.083333","long":"-1.283333"}},{"country":"gb","city":"Abbotts Ann","coordinates":{"lat":"51.183333","long":"-1.516667"}},{"country":"gb","city":"Abbotts Ripton","coordinates":{"lat":"52.383333","long":"-.183333"}},{"country":"gb","city":"Aber","coordinates":{"lat":"53.233333","long":"-4.016667"}},{"country":"gb","city":"Aberaeron","coordinates":{"lat":"52.25","long":"-4.25"}},{"country":"gb","city":"Aberaman","coordinates":{"lat":"51.698889","long":"-3.426944"}},{"country":"gb","city":"Aberangell","coordinates":{"lat":"52.666667","long":"-3.716667"}},{"country":"gb","city":"Aberarder","coordinates":{"lat":"57.3","long":"-4.266667"}},{"country":"gb","city":"Aberargie","coordinates":{"lat":"56.316667","long":"-3.35"}},{"country":"gb","city":"Aber-Arth","coordinates":{"lat":"52.25","long":"-4.233333"}},{"country":"gb","city":"Aberayron","coordinates":{"lat":"52.25","long":"-4.25"}},{"country":"gb","city":"Aberbargoed","coordinates":{"lat":"51.6925","long":"-3.225"}},{"country":"gb","city":"Aberbeeg","coordinates":{"lat":"51.711944","long":"-3.141667"}},{"country":"gb","city":"Aber-Brân","coordinates":{"lat":"51.95","long":"-3.483333"}},{"country":"gb","city":"Abercairny","coordinates":{"lat":"56.366667","long":"-3.75"}},{"country":"gb","city":"Abercanaid","coordinates":{"lat":"51.723611","long":"-3.366111"}},{"country":"gb","city":"Abercarn","coordinates":{"lat":"51.647222","long":"-3.136944"}},{"country":"gb","city":"Abercastle","coordinates":{"lat":"51.959444","long":"-5.125833"}},{"country":"gb","city":"Aberchalder","coordinates":{"lat":"57.233333","long":"-4.366667"}},{"country":"gb","city":"Aberchirder","coordinates":{"lat":"57.55","long":"-2.616667"}},{"country":"gb","city":"Aberconway","coordinates":{"lat":"53.283333","long":"-3.833333"}},{"country":"gb","city":"Aber Cowarch","coordinates":{"lat":"52.75","long":"-3.7"}},{"country":"gb","city":"Abercynon","coordinates":{"lat":"51.639167","long":"-3.336667"}},{"country":"gb","city":"Aberdalgie","coordinates":{"lat":"56.35","long":"-3.5"}},{"country":"gb","city":"Aberdare","coordinates":{"lat":"51.715","long":"-3.454167"}},{"country":"gb","city":"Aberdaron","coordinates":{"lat":"52.816667","long":"-4.7"}},{"country":"gb","city":"Aberdaugleddau","coordinates":{"lat":"51.716667","long":"-5.033333"}},{"country":"gb","city":"Aberdeen","coordinates":{"lat":"57.133333","long":"-2.1"}},{"country":"gb","city":"Aberdeen","coordinates":{"lat":"57.166667","long":"-2.666667"}},{"country":"gb","city":"Aberdeen City","coordinates":{"lat":"57.166667","long":"-2.166667"}},{"country":"gb","city":"Aberdeen County","coordinates":{"lat":"57.166667","long":"-2.666667"}},{"country":"gb","city":"Aberdeenshire","coordinates":{"lat":"57.166667","long":"-2.666667"}},{"country":"gb","city":"Aberdour","coordinates":{"lat":"57.65","long":"-2.183333"}},{"country":"gb","city":"Aberdour","coordinates":{"lat":"56.05","long":"-3.3"}},{"country":"gb","city":"Aberdovey","coordinates":{"lat":"52.55","long":"-4.033333"}},{"country":"gb","city":"Aberdulais","coordinates":{"lat":"51.666667","long":"-3.783333"}},{"country":"gb","city":"Aberdyfi","coordinates":{"lat":"52.55","long":"-4.033333"}},{"country":"gb","city":"Aberearne","coordinates":{"lat":"51.647222","long":"-3.136944"}},{"country":"gb","city":"Aberedw","coordinates":{"lat":"52.116667","long":"-3.35"}},{"country":"gb","city":"Abereiddy","coordinates":{"lat":"51.935833","long":"-5.204444"}},{"country":"gb","city":"Abererch","coordinates":{"lat":"52.9","long":"-4.4"}},{"country":"gb","city":"Aberfam","coordinates":{"lat":"51.687222","long":"-3.331944"}},{"country":"gb","city":"Aberfan","coordinates":{"lat":"51.687222","long":"-3.331944"}},{"country":"gb","city":"Aberfeldy","coordinates":{"lat":"56.616667","long":"-3.85"}},{"country":"gb","city":"Aberffraw","coordinates":{"lat":"53.183333","long":"-4.45"}},{"country":"gb","city":"Aberfield","coordinates":{"lat":"51.4","long":"-.916667"}},{"country":"gb","city":"Aberford","coordinates":{"lat":"53.816667","long":"-1.333333"}},{"country":"gb","city":"Aberfoyle","coordinates":{"lat":"56.183333","long":"-4.383333"}},{"country":"gb","city":"Abergavenny","coordinates":{"lat":"51.833333","long":"-3.016667"}},{"country":"gb","city":"Abergele","coordinates":{"lat":"53.283333","long":"-3.583333"}},{"country":"gb","city":"Abergorlech","coordinates":{"lat":"51.983056","long":"-4.060278"}},{"country":"gb","city":"Abergorloch","coordinates":{"lat":"51.983056","long":"-4.060278"}},{"country":"gb","city":"Abergwaun","coordinates":{"lat":"51.992778","long":"-4.973611"}},{"country":"gb","city":"Abergwesyn","coordinates":{"lat":"52.15","long":"-3.683333"}},{"country":"gb","city":"Abergwili","coordinates":{"lat":"51.864722","long":"-4.271667"}},{"country":"gb","city":"Abergwyfni","coordinates":{"lat":"51.65","long":"-3.6"}},{"country":"gb","city":"Abergwynfi","coordinates":{"lat":"51.65","long":"-3.6"}},{"country":"gb","city":"Abergynolwyn","coordinates":{"lat":"52.633333","long":"-3.95"}},{"country":"gb","city":"Aberhafesp","coordinates":{"lat":"52.516667","long":"-3.383333"}},{"country":"gb","city":"Aberkenfig","coordinates":{"lat":"51.54","long":"-3.595556"}},{"country":"gb","city":"Aberlady","coordinates":{"lat":"56","long":"-2.85"}},{"country":"gb","city":"Aberlemm","coordinates":{"lat":"56.683333","long":"-2.766667"}},{"country":"gb","city":"Aberlemno","coordinates":{"lat":"56.683333","long":"-2.766667"}},{"country":"gb","city":"Aberllefenni","coordinates":{"lat":"52.666667","long":"-3.816667"}},{"country":"gb","city":"Aberllefenny","coordinates":{"lat":"52.666667","long":"-3.816667"}},{"country":"gb","city":"Aberlour","coordinates":{"lat":"57.466667","long":"-3.233333"}},{"country":"gb","city":"Abermule","coordinates":{"lat":"52.533333","long":"-3.233333"}},{"country":"gb","city":"Abernant","coordinates":{"lat":"51.881389","long":"-4.415556"}},{"country":"gb","city":"Aber-nant","coordinates":{"lat":"51.719444","long":"-3.430278"}},{"country":"gb","city":"Abernethy","coordinates":{"lat":"56.333333","long":"-3.333333"}},{"country":"gb","city":"Aberoynon","coordinates":{"lat":"51.639167","long":"-3.336667"}},{"country":"gb","city":"Aberporth","coordinates":{"lat":"52.133333","long":"-4.55"}},{"country":"gb","city":"Abersoch","coordinates":{"lat":"52.816667","long":"-4.5"}},{"country":"gb","city":"Abersychan","coordinates":{"lat":"51.732778","long":"-3.066389"}},{"country":"gb","city":"Abertawe","coordinates":{"lat":"51.633333","long":"-3.966667"}},{"country":"gb","city":"Aberteifi","coordinates":{"lat":"52.25","long":"-4"}},{"country":"gb","city":"Aberthaw","coordinates":{"lat":"51.391111","long":"-3.3925"}},{"country":"gb","city":"Abertillery","coordinates":{"lat":"51.733333","long":"-3.131667"}},{"country":"gb","city":"Abertridwr","coordinates":{"lat":"51.595833","long":"-3.268333"}},{"country":"gb","city":"Aberystwyth","coordinates":{"lat":"52.416667","long":"-4.066667"}},{"country":"gb","city":"Abingdon","coordinates":{"lat":"51.666667","long":"-1.283333"}},{"country":"gb","city":"Abingdon-on-Thames","coordinates":{"lat":"51.666667","long":"-1.283333"}},{"country":"gb","city":"Abinger","coordinates":{"lat":"51.183333","long":"-.4"}},{"country":"gb","city":"Abington","coordinates":{"lat":"55.483333","long":"-3.7"}},{"country":"gb","city":"Ab Kettleby","coordinates":{"lat":"52.783333","long":"-.916667"}},{"country":"gb","city":"Abkettley","coordinates":{"lat":"52.783333","long":"-.916667"}},{"country":"gb","city":"Ab Lench","coordinates":{"lat":"52.15","long":"-1.966667"}},{"country":"gb","city":"Aboine","coordinates":{"lat":"57.083333","long":"-2.833333"}},{"country":"gb","city":"Aboyne","coordinates":{"lat":"57.083333","long":"-2.833333"}},{"country":"gb","city":"Abram","coordinates":{"lat":"53.516667","long":"-2.583333"}},{"country":"gb","city":"Abthorpe","coordinates":{"lat":"52.1","long":"-1.05"}},{"country":"gb","city":"Aby","coordinates":{"lat":"53.266667","long":".116667"}},{"country":"gb","city":"Acaster Malbis","coordinates":{"lat":"53.9","long":"-1.1"}},{"country":"gb","city":"Accrington","coordinates":{"lat":"53.766667","long":"-2.35"}},{"country":"gb","city":"Acha","coordinates":{"lat":"56.6","long":"-6.6"}},{"country":"gb","city":"Achafubil","coordinates":{"lat":"56.833333","long":"-5.133333"}},{"country":"gb","city":"Achagarve","coordinates":{"lat":"57.883333","long":"-5.583333"}},{"country":"gb","city":"Achagate","coordinates":{"lat":"57.3","long":"-4.9"}},{"country":"gb","city":"Achahoish","coordinates":{"lat":"55.95","long":"-5.566667"}},{"country":"gb","city":"Achaladair","coordinates":{"lat":"56.55","long":"-4.733333"}},{"country":"gb","city":"Achallader","coordinates":{"lat":"56.55","long":"-4.733333"}},{"country":"gb","city":"Achanalt","coordinates":{"lat":"57.616667","long":"-4.9"}},{"country":"gb","city":"Achaneas","coordinates":{"lat":"58.3","long":"-4.3"}},{"country":"gb","city":"Achany","coordinates":{"lat":"57.983333","long":"-4.416667"}},{"country":"gb","city":"Achaphubuil","coordinates":{"lat":"56.833333","long":"-5.133333"}},{"country":"gb","city":"Acharacle","coordinates":{"lat":"56.733333","long":"-5.783333"}},{"country":"gb","city":"Acharn","coordinates":{"lat":"56.583333","long":"-5.733333"}},{"country":"gb","city":"Acharn","coordinates":{"lat":"56.55","long":"-4.016667"}},{"country":"gb","city":"Acharosson","coordinates":{"lat":"55.933333","long":"-5.3"}},{"country":"gb","city":"Acharra","coordinates":{"lat":"56.633333","long":"-5.283333"}},{"country":"gb","city":"Achbreck","coordinates":{"lat":"57.333333","long":"-3.316667"}},{"country":"gb","city":"Acheniner","coordinates":{"lat":"58","long":"-5.316667"}},{"country":"gb","city":"Acheninver","coordinates":{"lat":"58","long":"-5.316667"}},{"country":"gb","city":"Achentee","coordinates":{"lat":"57.4","long":"-5.45"}},{"country":"gb","city":"Achentoul","coordinates":{"lat":"58.266667","long":"-3.916667"}},{"country":"gb","city":"Achfarrie","coordinates":{"lat":"58.3","long":"-4.916667"}},{"country":"gb","city":"Achfarry","coordinates":{"lat":"58.3","long":"-4.916667"}},{"country":"gb","city":"Achfary","coordinates":{"lat":"58.3","long":"-4.916667"}},{"country":"gb","city":"Achiltibuie","coordinates":{"lat":"58.016667","long":"-5.366667"}},{"country":"gb","city":"Achinduich","coordinates":{"lat":"57.966667","long":"-4.4"}},{"country":"gb","city":"Achintee","coordinates":{"lat":"57.4","long":"-5.45"}},{"country":"gb","city":"Achintoul","coordinates":{"lat":"58.266667","long":"-3.916667"}},{"country":"gb","city":"Achintraid","coordinates":{"lat":"57.383333","long":"-5.533333"}},{"country":"gb","city":"Achlain","coordinates":{"lat":"57.166667","long":"-4.85"}},{"country":"gb","city":"Achlighness","coordinates":{"lat":"58.416667","long":"-5"}},{"country":"gb","city":"Achlyness","coordinates":{"lat":"58.416667","long":"-5"}},{"country":"gb","city":"Achmelvich","coordinates":{"lat":"58.166667","long":"-5.3"}},{"country":"gb","city":"Achmore","coordinates":{"lat":"57.333333","long":"-5.566667"}},{"country":"gb","city":"Achmore","coordinates":{"lat":"56.45","long":"-4.283333"}},{"country":"gb","city":"Achnaba","coordinates":{"lat":"56.016667","long":"-5.366667"}},{"country":"gb","city":"Achnacloich","coordinates":{"lat":"56.45","long":"-5.316667"}},{"country":"gb","city":"Achnacroish","coordinates":{"lat":"56.5","long":"-5.5"}},{"country":"gb","city":"Achnagarve","coordinates":{"lat":"57.883333","long":"-5.583333"}},{"country":"gb","city":"Achnahanat","coordinates":{"lat":"57.95","long":"-4.516667"}},{"country":"gb","city":"Achnahannet","coordinates":{"lat":"57.95","long":"-4.516667"}},{"country":"gb","city":"Achnasheen","coordinates":{"lat":"57.583333","long":"-5.1"}},{"country":"gb","city":"Achnastank","coordinates":{"lat":"57.383333","long":"-3.2"}},{"country":"gb","city":"Achness","coordinates":{"lat":"57.983333","long":"-4.583333"}},{"country":"gb","city":"Achriesgill","coordinates":{"lat":"58.433333","long":"-4.983333"}},{"country":"gb","city":"Achterneed","coordinates":{"lat":"57.6","long":"-4.533333"}},{"country":"gb","city":"Achurch","coordinates":{"lat":"52.433333","long":"-.483333"}},{"country":"gb","city":"Ackergill","coordinates":{"lat":"58.466667","long":"-3.133333"}},{"country":"gb","city":"Acklam","coordinates":{"lat":"54.033333","long":"-.8"}},{"country":"gb","city":"Acklington","coordinates":{"lat":"55.3","long":"-1.633333"}},{"country":"gb","city":"Ackworth","coordinates":{"lat":"53.65","long":"-1.333333"}},{"country":"gb","city":"Acle","coordinates":{"lat":"52.633333","long":"1.55"}},{"country":"gb","city":"Acocks Green","coordinates":{"lat":"52.45","long":"-1.816667"}},{"country":"gb","city":"Acomb","coordinates":{"lat":"54.983333","long":"-2.1"}},{"country":"gb","city":"Acomb","coordinates":{"lat":"53.95","long":"-1.133333"}},{"country":"gb","city":"Aconbury","coordinates":{"lat":"52","long":"-2.7"}},{"country":"gb","city":"Acrefair","coordinates":{"lat":"52.966667","long":"-3.083333"}},{"country":"gb","city":"Acton","coordinates":{"lat":"51.494168","long":"-.223193"}},{"country":"gb","city":"Acton","coordinates":{"lat":"52.45","long":"-3.016667"}},{"country":"gb","city":"Acton","coordinates":{"lat":"54.3","long":"-6.366667"}},{"country":"gb","city":"Acton","coordinates":{"lat":"53.266667","long":"-2.6"}},{"country":"gb","city":"Acton Burnell","coordinates":{"lat":"52.616667","long":"-2.7"}},{"country":"gb","city":"Acton Round","coordinates":{"lat":"52.55","long":"-2.533333"}},{"country":"gb","city":"Acton Scott","coordinates":{"lat":"52.5","long":"-2.8"}},{"country":"gb","city":"Acton Trussell","coordinates":{"lat":"52.75","long":"-2.1"}},{"country":"gb","city":"Acton Turville","coordinates":{"lat":"51.524444","long":"-2.278333"}},{"country":"gb","city":"Adbaston","coordinates":{"lat":"52.85","long":"-2.35"}},{"country":"gb","city":"Adderbury","coordinates":{"lat":"52","long":"-1.316667"}},{"country":"gb","city":"Adderley","coordinates":{"lat":"52.95","long":"-2.5"}},{"country":"gb","city":"Addiewell","coordinates":{"lat":"55.833333","long":"-3.6"}},{"country":"gb","city":"Addingham","coordinates":{"lat":"53.933333","long":"-1.883333"}},{"country":"gb","city":"Addington","coordinates":{"lat":"51.933333","long":"-.916667"}},{"country":"gb","city":"Addington","coordinates":{"lat":"51.35","long":"-.033333"}},{"country":"gb","city":"Addington","coordinates":{"lat":"51.283333","long":".4"}},{"country":"gb","city":"Addington","coordinates":{"lat":"52.35","long":"-.583333"}},{"country":"gb","city":"Addlestone","coordinates":{"lat":"51.366667","long":"-.483333"}},{"country":"gb","city":"Addlestrop","coordinates":{"lat":"51.933333","long":"-1.65"}},{"country":"gb","city":"Addlethorpe","coordinates":{"lat":"53.183333","long":".316667"}},{"country":"gb","city":"Adel","coordinates":{"lat":"53.85","long":"-1.566667"}},{"country":"gb","city":"Adforton","coordinates":{"lat":"52.333333","long":"-2.866667"}},{"country":"gb","city":"Adlestrop","coordinates":{"lat":"51.933333","long":"-1.65"}},{"country":"gb","city":"Adlingfleet","coordinates":{"lat":"53.666667","long":"-.733333"}},{"country":"gb","city":"Adlington","coordinates":{"lat":"53.6","long":"-2.6"}},{"country":"gb","city":"Admaston","coordinates":{"lat":"52.716667","long":"-2.55"}},{"country":"gb","city":"Admington","coordinates":{"lat":"52.1","long":"-1.7"}},{"country":"gb","city":"Adpar","coordinates":{"lat":"53.033333","long":"-4.466667"}},{"country":"gb","city":"Adstock","coordinates":{"lat":"51.95","long":"-.916667"}},{"country":"gb","city":"Adstone","coordinates":{"lat":"52.15","long":"-1.133333"}},{"country":"gb","city":"Adur District","coordinates":{"lat":"50.85","long":"-.333333"}},{"country":"gb","city":"Advie","coordinates":{"lat":"57.383333","long":"-3.45"}},{"country":"gb","city":"Adwick le Street","coordinates":{"lat":"53.566667","long":"-1.183333"}},{"country":"gb","city":"Afan","coordinates":{"lat":"51.65","long":"-3.733333"}},{"country":"gb","city":"Aghadovey","coordinates":{"lat":"55.016667","long":"-6.666667"}},{"country":"gb","city":"Aghadowey","coordinates":{"lat":"55.016667","long":"-6.666667"}},{"country":"gb","city":"Aghagallon","coordinates":{"lat":"54.5","long":"-6.3"}},{"country":"gb","city":"Aghalee","coordinates":{"lat":"54.516667","long":"-6.266667"}},{"country":"gb","city":"Aghanloo","coordinates":{"lat":"55.1","long":"-6.933333"}},{"country":"gb","city":"Aghory","coordinates":{"lat":"54.35","long":"-6.483333"}},{"country":"gb","city":"Ahoghill","coordinates":{"lat":"54.866667","long":"-6.366667"}},{"country":"gb","city":"Aigburth","coordinates":{"lat":"53.366667","long":"-2.933333"}},{"country":"gb","city":"Aikton","coordinates":{"lat":"54.866667","long":"-3.133333"}},{"country":"gb","city":"Ainderby","coordinates":{"lat":"54.316667","long":"-1.483333"}},{"country":"gb","city":"Ainderby Steeple","coordinates":{"lat":"54.316667","long":"-1.483333"}},{"country":"gb","city":"Ainsdale","coordinates":{"lat":"53.6","long":"-3.033333"}},{"country":"gb","city":"Ainstable","coordinates":{"lat":"54.8","long":"-2.733333"}},{"country":"gb","city":"Aintree","coordinates":{"lat":"53.466667","long":"-2.933333"}},{"country":"gb","city":"Aird","coordinates":{"lat":"55.233333","long":"-6.5"}},{"country":"gb","city":"Aird of Sleat","coordinates":{"lat":"57.033333","long":"-5.95"}},{"country":"gb","city":"Aird of Tong","coordinates":{"lat":"58.233333","long":"-6.333333"}},{"country":"gb","city":"Airdrie","coordinates":{"lat":"55.85","long":"-3.983333"}},{"country":"gb","city":"Aird Tong","coordinates":{"lat":"58.233333","long":"-6.333333"}},{"country":"gb","city":"Aird Tunga","coordinates":{"lat":"58.233333","long":"-6.333333"}},{"country":"gb","city":"Aird Uig","coordinates":{"lat":"58.233333","long":"-7.033333"}},{"country":"gb","city":"Aireborough","coordinates":{"lat":"53.866667","long":"-1.683333"}},{"country":"gb","city":"Airmyn","coordinates":{"lat":"53.716667","long":"-.9"}},{"country":"gb","city":"Airor","coordinates":{"lat":"57.066667","long":"-5.766667"}},{"country":"gb","city":"Airth","coordinates":{"lat":"56.066667","long":"-3.766667"}},{"country":"gb","city":"Airton","coordinates":{"lat":"54.016667","long":"-2.15"}},{"country":"gb","city":"Aisholt","coordinates":{"lat":"51.113056","long":"-3.153889"}},{"country":"gb","city":"Aislaby","coordinates":{"lat":"54.45","long":"-.666667"}},{"country":"gb","city":"Aith","coordinates":{"lat":"60.266667","long":"-1.383333"}},{"country":"gb","city":"Aitnoch","coordinates":{"lat":"57.45","long":"-3.716667"}},{"country":"gb","city":"Akeld","coordinates":{"lat":"55.55","long":"-2.066667"}},{"country":"gb","city":"Akeley","coordinates":{"lat":"52.033333","long":"-.966667"}},{"country":"gb","city":"Alberbury","coordinates":{"lat":"52.716667","long":"-2.95"}},{"country":"gb","city":"Albrighton","coordinates":{"lat":"52.633333","long":"-2.266667"}},{"country":"gb","city":"Alburgh","coordinates":{"lat":"52.433333","long":"1.333333"}},{"country":"gb","city":"Albury","coordinates":{"lat":"51.9","long":".083333"}},{"country":"gb","city":"Albury","coordinates":{"lat":"51.2","long":"-.483333"}},{"country":"gb","city":"Alcester","coordinates":{"lat":"52.216667","long":"-1.866667"}},{"country":"gb","city":"Alconbury","coordinates":{"lat":"52.366667","long":"-.266667"}},{"country":"gb","city":"Aldborough","coordinates":{"lat":"54.083333","long":"-1.383333"}},{"country":"gb","city":"Aldbourne","coordinates":{"lat":"51.466667","long":"-1.616667"}},{"country":"gb","city":"Aldbrough","coordinates":{"lat":"53.816667","long":"-.116667"}},{"country":"gb","city":"Aldbrough","coordinates":{"lat":"54.483333","long":"-1.683333"}},{"country":"gb","city":"Aldbury","coordinates":{"lat":"51.8","long":"-.6"}},{"country":"gb","city":"Aldeburgh","coordinates":{"lat":"52.15","long":"1.6"}},{"country":"gb","city":"Aldeby","coordinates":{"lat":"52.483333","long":"1.6"}},{"country":"gb","city":"Aldenham","coordinates":{"lat":"51.666667","long":"-.35"}},{"country":"gb","city":"Alderbury","coordinates":{"lat":"51.033333","long":"-1.733333"}},{"country":"gb","city":"Alderford","coordinates":{"lat":"52.716667","long":"1.15"}},{"country":"gb","city":"Alderholt","coordinates":{"lat":"50.916667","long":"-1.833333"}},{"country":"gb","city":"Alderley","coordinates":{"lat":"51.616667","long":"-2.333333"}},{"country":"gb","city":"Alderley","coordinates":{"lat":"53.283333","long":"-2.233333"}},{"country":"gb","city":"Alderley Edge","coordinates":{"lat":"53.3","long":"-2.233333"}},{"country":"gb","city":"Alderley Park","coordinates":{"lat":"53.266667","long":"-2.233333"}},{"country":"gb","city":"Aldermaston","coordinates":{"lat":"51.383333","long":"-1.15"}},{"country":"gb","city":"Alderminster","coordinates":{"lat":"52.133333","long":"-1.666667"}},{"country":"gb","city":"Aldershot","coordinates":{"lat":"51.25","long":"-.766667"}},{"country":"gb","city":"Alderton","coordinates":{"lat":"51.983333","long":"-2"}},{"country":"gb","city":"Alderton","coordinates":{"lat":"52.016667","long":"1.416667"}},{"country":"gb","city":"Alderwasley","coordinates":{"lat":"53.066667","long":"-1.533333"}},{"country":"gb","city":"Aldford","coordinates":{"lat":"53.116667","long":"-2.866667"}},{"country":"gb","city":"Aldham","coordinates":{"lat":"52.05","long":".983333"}},{"country":"gb","city":"Aldie","coordinates":{"lat":"57.45","long":"-1.883333"}},{"country":"gb","city":"Aldingham","coordinates":{"lat":"54.116667","long":"-3.1"}},{"country":"gb","city":"Aldington","coordinates":{"lat":"51.083333","long":".95"}},{"country":"gb","city":"Aldlwark","coordinates":{"lat":"54.066667","long":"-1.283333"}},{"country":"gb","city":"Aldridge","coordinates":{"lat":"52.6","long":"-1.916667"}},{"country":"gb","city":"Aldringham","coordinates":{"lat":"52.183333","long":"1.583333"}},{"country":"gb","city":"Aldsworth","coordinates":{"lat":"51.783333","long":"-1.766667"}},{"country":"gb","city":"Aldwark","coordinates":{"lat":"54.066667","long":"-1.283333"}},{"country":"gb","city":"Aldwark","coordinates":{"lat":"53.433333","long":"-1.316667"}},{"country":"gb","city":"Aldwarke","coordinates":{"lat":"53.433333","long":"-1.316667"}},{"country":"gb","city":"Aldwincle","coordinates":{"lat":"52.416667","long":"-.516667"}},{"country":"gb","city":"Aldwincle Saint Peter","coordinates":{"lat":"52.416667","long":"-.516667"}},{"country":"gb","city":"Aldworth","coordinates":{"lat":"51.5","long":"-1.2"}},{"country":"gb","city":"Alexandria","coordinates":{"lat":"55.983333","long":"-4.6"}},{"country":"gb","city":"Alfold","coordinates":{"lat":"51.083333","long":"-.516667"}},{"country":"gb","city":"Alford","coordinates":{"lat":"53.25","long":".183333"}},{"country":"gb","city":"Alford","coordinates":{"lat":"51.088333","long":"-2.564167"}},{"country":"gb","city":"Alford","coordinates":{"lat":"57.216667","long":"-2.7"}},{"country":"gb","city":"Alfreton","coordinates":{"lat":"53.1","long":"-1.383333"}},{"country":"gb","city":"Alfriston","coordinates":{"lat":"50.8","long":".15"}},{"country":"gb","city":"Algarkirk","coordinates":{"lat":"52.883333","long":"-.066667"}},{"country":"gb","city":"Alhampton","coordinates":{"lat":"51.111944","long":"-2.533611"}},{"country":"gb","city":"Alkborough","coordinates":{"lat":"53.683333","long":"-.666667"}},{"country":"gb","city":"Alkham","coordinates":{"lat":"51.133333","long":"1.233333"}},{"country":"gb","city":"Allanfearn","coordinates":{"lat":"57.5","long":"-4.15"}},{"country":"gb","city":"Allanton","coordinates":{"lat":"55.783333","long":"-2.216667"}},{"country":"gb","city":"Allendale Town","coordinates":{"lat":"54.9","long":"-2.233333"}},{"country":"gb","city":"Allenheads","coordinates":{"lat":"54.8","long":"-2.216667"}},{"country":"gb","city":"Allensmore","coordinates":{"lat":"52.016667","long":"-2.783333"}},{"country":"gb","city":"Aller","coordinates":{"lat":"51.060278","long":"-2.858056"}},{"country":"gb","city":"Allerdean","coordinates":{"lat":"55.7","long":"-2.05"}},{"country":"gb","city":"Allerford","coordinates":{"lat":"51.209444","long":"-3.570278"}},{"country":"gb","city":"Allerston","coordinates":{"lat":"54.216667","long":"-.65"}},{"country":"gb","city":"Allerton","coordinates":{"lat":"54.016667","long":"-1.366667"}},{"country":"gb","city":"Allerton Mauleverer","coordinates":{"lat":"54.016667","long":"-1.366667"}},{"country":"gb","city":"Allesley","coordinates":{"lat":"52.416667","long":"-1.55"}},{"country":"gb","city":"Allestree","coordinates":{"lat":"52.933333","long":"-1.483333"}},{"country":"gb","city":"Allexton","coordinates":{"lat":"52.6","long":"-.783333"}},{"country":"gb","city":"Allgreave","coordinates":{"lat":"53.2","long":"-2.033333"}},{"country":"gb","city":"Allhallows","coordinates":{"lat":"51.466667","long":".65"}},{"country":"gb","city":"Alligin","coordinates":{"lat":"57.55","long":"-5.6"}},{"country":"gb","city":"Allington","coordinates":{"lat":"51.283333","long":".516667"}},{"country":"gb","city":"Allington","coordinates":{"lat":"52.933333","long":"-.716667"}},{"country":"gb","city":"Allington","coordinates":{"lat":"51.15","long":"-1.7"}},{"country":"gb","city":"Alloa","coordinates":{"lat":"56.116667","long":"-3.8"}},{"country":"gb","city":"Allonby","coordinates":{"lat":"54.766667","long":"-3.416667"}},{"country":"gb","city":"Allscott","coordinates":{"lat":"52.716667","long":"-2.566667"}},{"country":"gb","city":"Allscotte","coordinates":{"lat":"52.716667","long":"-2.566667"}},{"country":"gb","city":"All Stretton","coordinates":{"lat":"52.55","long":"-2.8"}},{"country":"gb","city":"Alltbeath","coordinates":{"lat":"57.233333","long":"-5.183333"}},{"country":"gb","city":"Alltmawr","coordinates":{"lat":"52.1","long":"-3.366667"}},{"country":"gb","city":"Alltnacaillich","coordinates":{"lat":"58.366667","long":"-4.633333"}},{"country":"gb","city":"Alltsigh","coordinates":{"lat":"57.233333","long":"-4.55"}},{"country":"gb","city":"Alltwalis","coordinates":{"lat":"51.961944","long":"-4.263333"}},{"country":"gb","city":"Alltwen","coordinates":{"lat":"51.7","long":"-3.85"}},{"country":"gb","city":"Almeley","coordinates":{"lat":"52.15","long":"-2.983333"}},{"country":"gb","city":"Almer","coordinates":{"lat":"50.783333","long":"-2.116667"}},{"country":"gb","city":"Almondbank","coordinates":{"lat":"56.4","long":"-3.55"}},{"country":"gb","city":"Almondbury","coordinates":{"lat":"53.616667","long":"-1.75"}},{"country":"gb","city":"Almondsbury","coordinates":{"lat":"51.555","long":"-2.572778"}},{"country":"gb","city":"Almwick","coordinates":{"lat":"55.4","long":"-1.7"}},{"country":"gb","city":"Alne","coordinates":{"lat":"54.083333","long":"-1.233333"}},{"country":"gb","city":"Alness","coordinates":{"lat":"57.683333","long":"-4.25"}},{"country":"gb","city":"Alnham","coordinates":{"lat":"55.383333","long":"-2"}},{"country":"gb","city":"Alnmouth","coordinates":{"lat":"55.4","long":"-1.6"}},{"country":"gb","city":"Alnwick","coordinates":{"lat":"55.416667","long":"-1.7"}},{"country":"gb","city":"Alpheton","coordinates":{"lat":"52.116667","long":".75"}},{"country":"gb","city":"Alphington","coordinates":{"lat":"50.7","long":"-3.533333"}},{"country":"gb","city":"Alpington","coordinates":{"lat":"52.55","long":"1.383333"}},{"country":"gb","city":"Alresford","coordinates":{"lat":"51.85","long":".983333"}},{"country":"gb","city":"Alrewas","coordinates":{"lat":"52.716667","long":"-1.733333"}},{"country":"gb","city":"Alrick","coordinates":{"lat":"56.733333","long":"-3.316667"}},{"country":"gb","city":"Alsager","coordinates":{"lat":"53.1","long":"-2.3"}},{"country":"gb","city":"Alsholt","coordinates":{"lat":"51.113056","long":"-3.153889"}},{"country":"gb","city":"Alsop en le Dale","coordinates":{"lat":"53.083333","long":"-1.766667"}},{"country":"gb","city":"Alston","coordinates":{"lat":"54.8","long":"-2.433333"}},{"country":"gb","city":"Alstonefield","coordinates":{"lat":"53.083333","long":"-1.8"}},{"country":"gb","city":"Alstonfield","coordinates":{"lat":"53.083333","long":"-1.8"}},{"country":"gb","city":"Altamullan","coordinates":{"lat":"54.683333","long":"-7.733333"}},{"country":"gb","city":"Altamuskin","coordinates":{"lat":"54.516667","long":"-7.083333"}},{"country":"gb","city":"Altandhu","coordinates":{"lat":"58.05","long":"-5.45"}},{"country":"gb","city":"Altandon","coordinates":{"lat":"58.05","long":"-5.45"}},{"country":"gb","city":"Altandoune","coordinates":{"lat":"58.2","long":"-4.033333"}},{"country":"gb","city":"Altandow","coordinates":{"lat":"58.05","long":"-5.45"}},{"country":"gb","city":"Altanduin","coordinates":{"lat":"58.2","long":"-4.033333"}},{"country":"gb","city":"Altarnun","coordinates":{"lat":"50.6","long":"-4.533333"}},{"country":"gb","city":"Altcar","coordinates":{"lat":"53.533333","long":"-3.016667"}},{"country":"gb","city":"Altgreshan","coordinates":{"lat":"57.8","long":"-5.8"}},{"country":"gb","city":"Altham","coordinates":{"lat":"53.8","long":"-2.35"}},{"country":"gb","city":"Althorne","coordinates":{"lat":"51.65","long":".75"}},{"country":"gb","city":"Althorpe","coordinates":{"lat":"53.583333","long":"-.733333"}},{"country":"gb","city":"Altmover","coordinates":{"lat":"54.933333","long":"-7"}},{"country":"gb","city":"Altmullan","coordinates":{"lat":"54.683333","long":"-7.733333"}},{"country":"gb","city":"Altnaharra","coordinates":{"lat":"58.266667","long":"-4.45"}},{"country":"gb","city":"Altnamachin","coordinates":{"lat":"54.166667","long":"-6.633333"}},{"country":"gb","city":"Altnamackan","coordinates":{"lat":"54.166667","long":"-6.633333"}},{"country":"gb","city":"Altofts","coordinates":{"lat":"53.7","long":"-1.433333"}},{"country":"gb","city":"Alton Albany","coordinates":{"lat":"55.2","long":"-4.7"}},{"country":"gb","city":"Alton","coordinates":{"lat":"51.133333","long":"-.983333"}},{"country":"gb","city":"Alton","coordinates":{"lat":"52.966667","long":"-1.883333"}},{"country":"gb","city":"Alton Barnes","coordinates":{"lat":"51.35","long":"-1.85"}},{"country":"gb","city":"Alton Priors","coordinates":{"lat":"51.35","long":"-1.833333"}},{"country":"gb","city":"Altrincham","coordinates":{"lat":"53.383333","long":"-2.35"}},{"country":"gb","city":"Alva","coordinates":{"lat":"56.15","long":"-3.8"}},{"country":"gb","city":"Alvah","coordinates":{"lat":"57.616667","long":"-2.533333"}},{"country":"gb","city":"Alvanley","coordinates":{"lat":"53.25","long":"-2.75"}},{"country":"gb","city":"Alvechurch","coordinates":{"lat":"52.333333","long":"-1.95"}},{"country":"gb","city":"Alvediston","coordinates":{"lat":"51.007778","long":"-2.036389"}},{"country":"gb","city":"Alveley","coordinates":{"lat":"52.45","long":"-2.35"}},{"country":"gb","city":"Alverstoke","coordinates":{"lat":"50.783333","long":"-1.15"}},{"country":"gb","city":"Alverstone","coordinates":{"lat":"50.666667","long":"-1.183333"}},{"country":"gb","city":"Alverthorpe","coordinates":{"lat":"53.683333","long":"-1.533333"}},{"country":"gb","city":"Alves","coordinates":{"lat":"57.633333","long":"-3.45"}},{"country":"gb","city":"Alvescot","coordinates":{"lat":"51.733333","long":"-1.6"}},{"country":"gb","city":"Alveston","coordinates":{"lat":"51.588056","long":"-2.531389"}},{"country":"gb","city":"Alveston","coordinates":{"lat":"52.2","long":"-1.65"}},{"country":"gb","city":"Alvie","coordinates":{"lat":"57.15","long":"-3.866667"}},{"country":"gb","city":"Alvingham","coordinates":{"lat":"53.4","long":".05"}},{"country":"gb","city":"Alvington","coordinates":{"lat":"51.704444","long":"-2.575278"}},{"country":"gb","city":"Alwalton","coordinates":{"lat":"52.55","long":"-.316667"}},{"country":"gb","city":"Alwinton","coordinates":{"lat":"55.333333","long":"-2.116667"}},{"country":"gb","city":"Alyth","coordinates":{"lat":"56.616667","long":"-3.216667"}},{"country":"gb","city":"Amber Hill","coordinates":{"lat":"52.983333","long":"-.15"}},{"country":"gb","city":"Amberley","coordinates":{"lat":"50.916667","long":"-.533333"}},{"country":"gb","city":"Amble","coordinates":{"lat":"55.333333","long":"-1.583333"}},{"country":"gb","city":"Amblecote","coordinates":{"lat":"52.466667","long":"-2.15"}},{"country":"gb","city":"Ambleside","coordinates":{"lat":"54.416667","long":"-2.966667"}},{"country":"gb","city":"Ambleston","coordinates":{"lat":"51.895833","long":"-4.907222"}},{"country":"gb","city":"Ambrosden","coordinates":{"lat":"51.85","long":"-1.116667"}},{"country":"gb","city":"Amcotts","coordinates":{"lat":"53.616667","long":"-.716667"}},{"country":"gb","city":"Amersham","coordinates":{"lat":"51.666667","long":"-.616667"}},{"country":"gb","city":"Amesbury","coordinates":{"lat":"51.166667","long":"-1.783333"}},{"country":"gb","city":"Amhuinnsuidhe","coordinates":{"lat":"57.966667","long":"-6.966667"}},{"country":"gb","city":"Amisfield Town","coordinates":{"lat":"55.116667","long":"-3.566667"}},{"country":"gb","city":"Amlwch","coordinates":{"lat":"53.4","long":"-4.333333"}},{"country":"gb","city":"Ammanford","coordinates":{"lat":"51.791944","long":"-3.989167"}},{"country":"gb","city":"Amotherby","coordinates":{"lat":"54.15","long":"-.85"}},{"country":"gb","city":"Ampleforth","coordinates":{"lat":"54.2","long":"-1.116667"}},{"country":"gb","city":"Ampney","coordinates":{"lat":"51.7","long":"-1.883333"}},{"country":"gb","city":"Ampney Crucis","coordinates":{"lat":"51.716667","long":"-1.9"}},{"country":"gb","city":"Ampney Saint Mary","coordinates":{"lat":"51.716667","long":"-1.866667"}},{"country":"gb","city":"Ampney Saint Peter","coordinates":{"lat":"51.7","long":"-1.883333"}},{"country":"gb","city":"Ampthill","coordinates":{"lat":"52.033333","long":"-.483333"}},{"country":"gb","city":"Amroth","coordinates":{"lat":"51.731944","long":"-4.660556"}},{"country":"gb","city":"Amulree","coordinates":{"lat":"56.5","long":"-3.783333"}},{"country":"gb","city":"Ancaster","coordinates":{"lat":"52.966667","long":"-.533333"}},{"country":"gb","city":"Ancroft","coordinates":{"lat":"55.7","long":"-2"}},{"country":"gb","city":"Ancrum","coordinates":{"lat":"55.5","long":"-2.583333"}},{"country":"gb","city":"Anderby","coordinates":{"lat":"53.25","long":".283333"}},{"country":"gb","city":"Anderton","coordinates":{"lat":"53.266667","long":"-2.533333"}},{"country":"gb","city":"Andover","coordinates":{"lat":"51.2","long":"-1.483333"}},{"country":"gb","city":"Andoversford","coordinates":{"lat":"51.866667","long":"-1.95"}},{"country":"gb","city":"An Gallanach","coordinates":{"lat":"56.833333","long":"-6.216667"}},{"country":"gb","city":"Angersleigh","coordinates":{"lat":"50.966667","long":"-3.133333"}},{"country":"gb","city":"Angle","coordinates":{"lat":"51.684167","long":"-5.090833"}},{"country":"gb","city":"Anglesea","coordinates":{"lat":"53.25","long":"-4.333333"}},{"country":"gb","city":"Anglesey","coordinates":{"lat":"53.25","long":"-4.333333"}},{"country":"gb","city":"Angmering","coordinates":{"lat":"50.816667","long":"-.483333"}},{"country":"gb","city":"Angus","coordinates":{"lat":"56.666667","long":"-2.916667"}},{"country":"gb","city":"Angus County","coordinates":{"lat":"56.666667","long":"-2.916667"}},{"country":"gb","city":"Ankerville","coordinates":{"lat":"57.733333","long":"-4"}},{"country":"gb","city":"Ankerville Corner","coordinates":{"lat":"57.733333","long":"-3.983333"}},{"country":"gb","city":"Anlaby","coordinates":{"lat":"53.733333","long":"-.433333"}},{"country":"gb","city":"An Lorgain","coordinates":{"lat":"54.466667","long":"-6.333333"}},{"country":"gb","city":"Anmer","coordinates":{"lat":"52.833333","long":".583333"}},{"country":"gb","city":"Annaclone","coordinates":{"lat":"54.3","long":"-6.183333"}},{"country":"gb","city":"Annacloy","coordinates":{"lat":"54.35","long":"-5.75"}},{"country":"gb","city":"Annaghmore","coordinates":{"lat":"54.45","long":"-6.6"}},{"country":"gb","city":"Annahilt","coordinates":{"lat":"54.433333","long":"-6"}},{"country":"gb","city":"Annaloist","coordinates":{"lat":"54.483333","long":"-6.366667"}},{"country":"gb","city":"Annalong","coordinates":{"lat":"54.1","long":"-5.883333"}},{"country":"gb","city":"Annan","coordinates":{"lat":"54.983333","long":"-3.266667"}},{"country":"gb","city":"Annaside","coordinates":{"lat":"54.25","long":"-3.4"}},{"country":"gb","city":"Annbank","coordinates":{"lat":"55.466667","long":"-4.516667"}},{"country":"gb","city":"Annesley","coordinates":{"lat":"53.05","long":"-1.25"}},{"country":"gb","city":"Annfield Plain","coordinates":{"lat":"54.85","long":"-1.733333"}},{"country":"gb","city":"Anniesland","coordinates":{"lat":"55.883333","long":"-4.316667"}},{"country":"gb","city":"An Oghmagh","coordinates":{"lat":"54.6","long":"-7.3"}},{"country":"gb","city":"An Ómaigh","coordinates":{"lat":"54.6","long":"-7.3"}},{"country":"gb","city":"Anslow","coordinates":{"lat":"52.816667","long":"-1.683333"}},{"country":"gb","city":"Anster","coordinates":{"lat":"56.216667","long":"-2.7"}},{"country":"gb","city":"Anstey","coordinates":{"lat":"51.966667","long":".05"}},{"country":"gb","city":"Anstey","coordinates":{"lat":"52.65","long":"-1.183333"}},{"country":"gb","city":"Anstey","coordinates":{"lat":"51.036389","long":"-2.063889"}},{"country":"gb","city":"Anstruther","coordinates":{"lat":"56.216667","long":"-2.7"}},{"country":"gb","city":"Anstruther Easter","coordinates":{"lat":"56.216667","long":"-2.683333"}},{"country":"gb","city":"Anstruther Wester","coordinates":{"lat":"56.216667","long":"-2.7"}},{"country":"gb","city":"Ansty","coordinates":{"lat":"52.65","long":"-1.183333"}},{"country":"gb","city":"Ansty","coordinates":{"lat":"52.433333","long":"-1.416667"}},{"country":"gb","city":"Ansty","coordinates":{"lat":"51.036389","long":"-2.063889"}},{"country":"gb","city":"Anthony","coordinates":{"lat":"50.366667","long":"-4.25"}},{"country":"gb","city":"Anthorn","coordinates":{"lat":"54.9","long":"-3.3"}},{"country":"gb","city":"Antingham","coordinates":{"lat":"52.85","long":"1.35"}},{"country":"gb","city":"An tïúr","coordinates":{"lat":"54.183333","long":"-6.333333"}},{"country":"gb","city":"Antony","coordinates":{"lat":"50.366667","long":"-4.25"}},{"country":"gb","city":"Antrim","coordinates":{"lat":"54.666667","long":"-6.25"}},{"country":"gb","city":"Antrim District","coordinates":{"lat":"54.666667","long":"-6.25"}},{"country":"gb","city":"Anwick","coordinates":{"lat":"53.033333","long":"-.35"}},{"country":"gb","city":"Anwoth","coordinates":{"lat":"55.866667","long":"-4.216667"}},{"country":"gb","city":"Apley","coordinates":{"lat":"53.266667","long":"-.35"}},{"country":"gb","city":"Apperley","coordinates":{"lat":"53.833333","long":"-1.7"}},{"country":"gb","city":"Apperley Bridge","coordinates":{"lat":"53.833333","long":"-1.7"}},{"country":"gb","city":"Appersett","coordinates":{"lat":"54.3","long":"-2.216667"}},{"country":"gb","city":"Appleby","coordinates":{"lat":"54.583333","long":"-2.483333"}},{"country":"gb","city":"Appleby","coordinates":{"lat":"53.616667","long":"-.566667"}},{"country":"gb","city":"Appleby Magna","coordinates":{"lat":"52.666667","long":"-1.516667"}},{"country":"gb","city":"Applecross","coordinates":{"lat":"57.416667","long":"-5.816667"}},{"country":"gb","city":"Appledore","coordinates":{"lat":"51.05","long":"-4.2"}},{"country":"gb","city":"Appledram","coordinates":{"lat":"50.816667","long":"-.8"}},{"country":"gb","city":"Appleford","coordinates":{"lat":"51.616667","long":"-1.233333"}},{"country":"gb","city":"Applegarth Town","coordinates":{"lat":"55.133333","long":"-3.4"}},{"country":"gb","city":"Appleshaw","coordinates":{"lat":"51.233333","long":"-1.566667"}},{"country":"gb","city":"Appleton","coordinates":{"lat":"51.7","long":"-1.35"}},{"country":"gb","city":"Appleton","coordinates":{"lat":"53.35","long":"-2.55"}},{"country":"gb","city":"Appleton le Moor","coordinates":{"lat":"54.266667","long":"-.866667"}},{"country":"gb","city":"Appleton le Moors","coordinates":{"lat":"54.266667","long":"-.866667"}},{"country":"gb","city":"Appletreewick","coordinates":{"lat":"54.033333","long":"-1.916667"}},{"country":"gb","city":"Appley Bridge","coordinates":{"lat":"53.566667","long":"-2.716667"}},{"country":"gb","city":"Aravar","coordinates":{"lat":"58.25","long":"-5.116667"}},{"country":"gb","city":"Arberth","coordinates":{"lat":"51.799167","long":"-4.743611"}},{"country":"gb","city":"Arbirlot","coordinates":{"lat":"56.55","long":"-2.65"}},{"country":"gb","city":"Arboe","coordinates":{"lat":"54.633333","long":"-6.55"}},{"country":"gb","city":"Arborfield","coordinates":{"lat":"51.4","long":"-.916667"}},{"country":"gb","city":"Arbroath","coordinates":{"lat":"56.55","long":"-2.583333"}},{"country":"gb","city":"Arbuthnott","coordinates":{"lat":"56.85","long":"-2.316667"}},{"country":"gb","city":"Archieston","coordinates":{"lat":"57.466667","long":"-3.283333"}},{"country":"gb","city":"Archiestown","coordinates":{"lat":"57.466667","long":"-3.283333"}},{"country":"gb","city":"Ardalnaig","coordinates":{"lat":"56.516667","long":"-4.1"}},{"country":"gb","city":"Ardaragh","coordinates":{"lat":"54.233333","long":"-6.266667"}},{"country":"gb","city":"Ardarragh","coordinates":{"lat":"54.233333","long":"-6.266667"}},{"country":"gb","city":"Ardavasar","coordinates":{"lat":"57.066667","long":"-5.9"}},{"country":"gb","city":"Ardbeg","coordinates":{"lat":"55.633333","long":"-6.1"}},{"country":"gb","city":"Ard Bó","coordinates":{"lat":"54.633333","long":"-6.55"}},{"country":"gb","city":"Ardboe","coordinates":{"lat":"54.633333","long":"-6.55"}},{"country":"gb","city":"Ardcharnich","coordinates":{"lat":"57.85","long":"-5.083333"}},{"country":"gb","city":"Ardchonell","coordinates":{"lat":"56.25","long":"-5.25"}},{"country":"gb","city":"Ardchonnel","coordinates":{"lat":"56.25","long":"-5.25"}},{"country":"gb","city":"Ardchonnell","coordinates":{"lat":"56.25","long":"-5.25"}},{"country":"gb","city":"Ardclach","coordinates":{"lat":"57.483333","long":"-3.75"}},{"country":"gb","city":"Arddleen","coordinates":{"lat":"52.733333","long":"-3.1"}},{"country":"gb","city":"Ardeer Square","coordinates":{"lat":"55.633333","long":"-4.75"}},{"country":"gb","city":"Ardeley","coordinates":{"lat":"51.916667","long":"-.083333"}},{"country":"gb","city":"Ardentinny","coordinates":{"lat":"56.033333","long":"-4.9"}},{"country":"gb","city":"Ardeonaig","coordinates":{"lat":"56.483333","long":"-4.166667"}},{"country":"gb","city":"Ardersier","coordinates":{"lat":"57.566667","long":"-4.033333"}},{"country":"gb","city":"Ardess","coordinates":{"lat":"54.516667","long":"-7.666667"}},{"country":"gb","city":"Ardfenaig","coordinates":{"lat":"56.316667","long":"-6.3"}},{"country":"gb","city":"Ardfern","coordinates":{"lat":"56.166667","long":"-5.533333"}},{"country":"gb","city":"Ardfinaig","coordinates":{"lat":"56.316667","long":"-6.3"}},{"country":"gb","city":"Ardfin","coordinates":{"lat":"55.8","long":"-6.016667"}},{"country":"gb","city":"Ardglass","coordinates":{"lat":"54.266667","long":"-5.6"}},{"country":"gb","city":"Ardgour","coordinates":{"lat":"56.716667","long":"-5.25"}},{"country":"gb","city":"Ardheslaig","coordinates":{"lat":"57.55","long":"-5.7"}},{"country":"gb","city":"Ardingly","coordinates":{"lat":"51.033333","long":"-.083333"}},{"country":"gb","city":"Ardkeen","coordinates":{"lat":"54.416667","long":"-5.516667"}},{"country":"gb","city":"Ardleigh","coordinates":{"lat":"51.916667","long":".983333"}},{"country":"gb","city":"Ardler","coordinates":{"lat":"56.55","long":"-3.2"}},{"country":"gb","city":"Ardley","coordinates":{"lat":"51.933333","long":"-1.216667"}},{"country":"gb","city":"Ardlui","coordinates":{"lat":"56.3","long":"-4.716667"}},{"country":"gb","city":"Ardlussa","coordinates":{"lat":"56.016667","long":"-5.766667"}},{"country":"gb","city":"Ardmaddy","coordinates":{"lat":"56.5","long":"-5.116667"}},{"country":"gb","city":"Ardmair","coordinates":{"lat":"57.916667","long":"-5.2"}},{"country":"gb","city":"Ardmaleish","coordinates":{"lat":"55.883333","long":"-5.066667"}},{"country":"gb","city":"Ardmenish","coordinates":{"lat":"55.883333","long":"-5.883333"}},{"country":"gb","city":"Ardmillan","coordinates":{"lat":"54.483333","long":"-5.666667"}},{"country":"gb","city":"Ardmoney","coordinates":{"lat":"54.3","long":"-7.35"}},{"country":"gb","city":"Ardmore","coordinates":{"lat":"55.016667","long":"-6.883333"}},{"country":"gb","city":"Ardmuir","coordinates":{"lat":"57.916667","long":"-5.2"}},{"country":"gb","city":"Ardnamulloch","coordinates":{"lat":"57.25","long":"-5.1"}},{"country":"gb","city":"Ardnarff","coordinates":{"lat":"57.366667","long":"-5.516667"}},{"country":"gb","city":"Ardnastang","coordinates":{"lat":"56.683333","long":"-5.583333"}},{"country":"gb","city":"Ardnave","coordinates":{"lat":"55.866667","long":"-6.35"}},{"country":"gb","city":"Ardno","coordinates":{"lat":"56.216667","long":"-4.983333"}},{"country":"gb","city":"Ard of Tongue","coordinates":{"lat":"58.233333","long":"-6.333333"}},{"country":"gb","city":"Ardovie","coordinates":{"lat":"56.7","long":"-2.666667"}},{"country":"gb","city":"Ardrishaig","coordinates":{"lat":"56.016667","long":"-5.45"}},{"country":"gb","city":"Ardrossan","coordinates":{"lat":"55.616667","long":"-4.816667"}},{"country":"gb","city":"Ards","coordinates":{"lat":"54.5","long":"-5.583333"}},{"country":"gb","city":"Ards District","coordinates":{"lat":"54.5","long":"-5.583333"}},{"country":"gb","city":"Ardshealach","coordinates":{"lat":"56.733333","long":"-5.766667"}},{"country":"gb","city":"Ardshieloch","coordinates":{"lat":"56.733333","long":"-5.766667"}},{"country":"gb","city":"Ardsley","coordinates":{"lat":"53.533333","long":"-1.416667"}},{"country":"gb","city":"Ardsley","coordinates":{"lat":"53.716667","long":"-1.55"}},{"country":"gb","city":"Ardsley East","coordinates":{"lat":"53.716667","long":"-1.55"}},{"country":"gb","city":"Ardslignish","coordinates":{"lat":"56.666667","long":"-5.983333"}},{"country":"gb","city":"Ardstraw","coordinates":{"lat":"54.733333","long":"-7.466667"}},{"country":"gb","city":"Ardtalla","coordinates":{"lat":"55.7","long":"-6.033333"}},{"country":"gb","city":"Ardtalnaig","coordinates":{"lat":"56.516667","long":"-4.1"}},{"country":"gb","city":"Ardtarig","coordinates":{"lat":"55.983333","long":"-5.116667"}},{"country":"gb","city":"Ardtoe","coordinates":{"lat":"56.75","long":"-5.866667"}},{"country":"gb","city":"Ardtrea","coordinates":{"lat":"54.633333","long":"-6.683333"}},{"country":"gb","city":"Ardullie","coordinates":{"lat":"57.633333","long":"-4.383333"}},{"country":"gb","city":"Ardvar","coordinates":{"lat":"58.25","long":"-5.116667"}},{"country":"gb","city":"Ardvasar","coordinates":{"lat":"57.066667","long":"-5.9"}},{"country":"gb","city":"Ardvazar","coordinates":{"lat":"57.066667","long":"-5.9"}},{"country":"gb","city":"Ardverikie","coordinates":{"lat":"56.95","long":"-4.45"}},{"country":"gb","city":"Ardvorlich","coordinates":{"lat":"56.366667","long":"-4.216667"}},{"country":"gb","city":"Ardwell","coordinates":{"lat":"54.766667","long":"-4.95"}},{"country":"gb","city":"Ardwell","coordinates":{"lat":"57.35","long":"-3.05"}},{"country":"gb","city":"Arfon","coordinates":{"lat":"53.083333","long":"-4"}},{"country":"gb","city":"Arford","coordinates":{"lat":"51.116667","long":"-.816667"}},{"country":"gb","city":"Argyll and Bute","coordinates":{"lat":"56.180493","long":"-5.689955"}},{"country":"gb","city":"Argyll","coordinates":{"lat":"56.25","long":"-5.25"}},{"country":"gb","city":"Argyll County","coordinates":{"lat":"56.25","long":"-5.25"}},{"country":"gb","city":"Argyllshire","coordinates":{"lat":"56.25","long":"-5.25"}},{"country":"gb","city":"Arinabost","coordinates":{"lat":"56.65","long":"-6.55"}},{"country":"gb","city":"Arinagour","coordinates":{"lat":"56.616667","long":"-6.516667"}},{"country":"gb","city":"Arisaig","coordinates":{"lat":"56.916667","long":"-5.833333"}},{"country":"gb","city":"Arkesden","coordinates":{"lat":"51.983333","long":".166667"}},{"country":"gb","city":"Arkholme","coordinates":{"lat":"54.133333","long":"-2.633333"}},{"country":"gb","city":"Arksey","coordinates":{"lat":"53.55","long":"-1.133333"}},{"country":"gb","city":"Arlecdon","coordinates":{"lat":"54.55","long":"-3.466667"}},{"country":"gb","city":"Arlesey","coordinates":{"lat":"52","long":"-.233333"}},{"country":"gb","city":"Arlesley","coordinates":{"lat":"52","long":"-.233333"}},{"country":"gb","city":"Arley","coordinates":{"lat":"52.5","long":"-1.583333"}},{"country":"gb","city":"Arley","coordinates":{"lat":"52.433333","long":"-2.35"}},{"country":"gb","city":"Arlingham","coordinates":{"lat":"51.8","long":"-2.433333"}},{"country":"gb","city":"Arlington","coordinates":{"lat":"51.15","long":"-3.983333"}},{"country":"gb","city":"Arlington","coordinates":{"lat":"51.75","long":"-1.833333"}},{"country":"gb","city":"Armadale","coordinates":{"lat":"58.55","long":"-4.1"}},{"country":"gb","city":"Armadale","coordinates":{"lat":"55.883333","long":"-3.7"}},{"country":"gb","city":"Armagh","coordinates":{"lat":"54.333333","long":"-6.5"}},{"country":"gb","city":"Armagh District","coordinates":{"lat":"54.333333","long":"-6.5"}},{"country":"gb","city":"Armathwaite","coordinates":{"lat":"54.8","long":"-2.766667"}},{"country":"gb","city":"Arminghall","coordinates":{"lat":"52.583333","long":"1.316667"}},{"country":"gb","city":"Armitage","coordinates":{"lat":"52.733333","long":"-1.883333"}},{"country":"gb","city":"Armoy","coordinates":{"lat":"55.116667","long":"-6.333333"}},{"country":"gb","city":"Armston","coordinates":{"lat":"52.45","long":"-.433333"}},{"country":"gb","city":"Armthorpe","coordinates":{"lat":"53.533333","long":"-1.05"}},{"country":"gb","city":"Arnabost","coordinates":{"lat":"56.65","long":"-6.55"}},{"country":"gb","city":"Arncliffe","coordinates":{"lat":"54.133333","long":"-2.1"}},{"country":"gb","city":"Arne","coordinates":{"lat":"50.7","long":"-2.033333"}},{"country":"gb","city":"Arnesby","coordinates":{"lat":"52.516667","long":"-1.083333"}},{"country":"gb","city":"Arney","coordinates":{"lat":"54.283333","long":"-7.683333"}},{"country":"gb","city":"Arngask","coordinates":{"lat":"56.283333","long":"-3.383333"}},{"country":"gb","city":"Arnhall","coordinates":{"lat":"56.8","long":"-2.633333"}},{"country":"gb","city":"Arnicle","coordinates":{"lat":"55.583333","long":"-5.633333"}},{"country":"gb","city":"Arnisdale","coordinates":{"lat":"57.133333","long":"-5.55"}},{"country":"gb","city":"Arnish","coordinates":{"lat":"57.45","long":"-6.033333"}},{"country":"gb","city":"Arnol","coordinates":{"lat":"58.333333","long":"-6.583333"}},{"country":"gb","city":"Arnold","coordinates":{"lat":"53","long":"-1.133333"}},{"country":"gb","city":"Arnside","coordinates":{"lat":"54.183333","long":"-2.833333"}},{"country":"gb","city":"Arram","coordinates":{"lat":"53.883333","long":"-.433333"}},{"country":"gb","city":"Arras","coordinates":{"lat":"53.866667","long":"-.6"}},{"country":"gb","city":"Arreton","coordinates":{"lat":"50.666667","long":"-1.25"}},{"country":"gb","city":"Arrington","coordinates":{"lat":"52.133333","long":"-.05"}},{"country":"gb","city":"Arrochan","coordinates":{"lat":"56.2","long":"-4.733333"}},{"country":"gb","city":"Arrochar","coordinates":{"lat":"56.2","long":"-4.733333"}},{"country":"gb","city":"Artfield","coordinates":{"lat":"54.966667","long":"-4.766667"}},{"country":"gb","city":"Arthingworth","coordinates":{"lat":"52.416667","long":"-.883333"}},{"country":"gb","city":"Arthog","coordinates":{"lat":"52.7","long":"-4.016667"}},{"country":"gb","city":"Articlave","coordinates":{"lat":"55.133333","long":"-6.766667"}},{"country":"gb","city":"Artigarvan","coordinates":{"lat":"54.85","long":"-7.4"}},{"country":"gb","city":"Artikelly","coordinates":{"lat":"55.066667","long":"-6.933333"}},{"country":"gb","city":"Artrea","coordinates":{"lat":"54.633333","long":"-6.683333"}},{"country":"gb","city":"Arundel","coordinates":{"lat":"50.85","long":"-.55"}},{"country":"gb","city":"Ascog","coordinates":{"lat":"55.816667","long":"-5.016667"}},{"country":"gb","city":"Ascot","coordinates":{"lat":"51.4","long":"-.666667"}},{"country":"gb","city":"Ascot under Wychwood","coordinates":{"lat":"51.85","long":"-1.566667"}},{"country":"gb","city":"Asgarby","coordinates":{"lat":"52.983333","long":"-.333333"}},{"country":"gb","city":"Ash","coordinates":{"lat":"51.35","long":".3"}},{"country":"gb","city":"Ash","coordinates":{"lat":"52.95","long":"-2.65"}},{"country":"gb","city":"Ashbocking","coordinates":{"lat":"52.15","long":"1.166667"}},{"country":"gb","city":"Ashbourne","coordinates":{"lat":"53.016667","long":"-1.733333"}},{"country":"gb","city":"Ashburnham","coordinates":{"lat":"50.9","long":".4"}},{"country":"gb","city":"Ashburton","coordinates":{"lat":"50.516667","long":"-3.75"}},{"country":"gb","city":"Ashbury","coordinates":{"lat":"50.75","long":"-4.116667"}},{"country":"gb","city":"Ashbury","coordinates":{"lat":"51.55","long":"-1.616667"}},{"country":"gb","city":"Ashby","coordinates":{"lat":"53.083333","long":"-.433333"}},{"country":"gb","city":"Ashby","coordinates":{"lat":"52.3","long":"-1.15"}},{"country":"gb","city":"Ashby","coordinates":{"lat":"53.483333","long":"-.116667"}},{"country":"gb","city":"Ashby cum Fenby","coordinates":{"lat":"53.483333","long":"-.116667"}},{"country":"gb","city":"Ashby de la Launde","coordinates":{"lat":"53.083333","long":"-.433333"}},{"country":"gb","city":"Ashby de la Zouch","coordinates":{"lat":"52.75","long":"-1.466667"}},{"country":"gb","city":"Ashby Magna","coordinates":{"lat":"52.5","long":"-1.166667"}},{"country":"gb","city":"Ashby Parva","coordinates":{"lat":"52.483333","long":"-1.216667"}},{"country":"gb","city":"Ashby Saint Ledgers","coordinates":{"lat":"52.3","long":"-1.15"}},{"country":"gb","city":"Ashcott","coordinates":{"lat":"51.131111","long":"-2.809722"}},{"country":"gb","city":"Ashdon","coordinates":{"lat":"52.05","long":".316667"}},{"country":"gb","city":"Asheldham","coordinates":{"lat":"51.666667","long":".85"}},{"country":"gb","city":"Ashen","coordinates":{"lat":"52.05","long":".55"}},{"country":"gb","city":"Ashendon","coordinates":{"lat":"51.816667","long":"-.966667"}},{"country":"gb","city":"Ashfield","coordinates":{"lat":"52.216667","long":"1.233333"}},{"country":"gb","city":"Ashfield","coordinates":{"lat":"54.4","long":"-6.2"}},{"country":"gb","city":"Ashford","coordinates":{"lat":"53.216667","long":"-1.716667"}},{"country":"gb","city":"Ashford","coordinates":{"lat":"51.1","long":"-4.1"}},{"country":"gb","city":"Ashford","coordinates":{"lat":"51.133333","long":".883333"}},{"country":"gb","city":"Ashford","coordinates":{"lat":"51.416667","long":"-.466667"}},{"country":"gb","city":"Ashfordby","coordinates":{"lat":"52.75","long":"-.95"}},{"country":"gb","city":"Ashford Carbonel","coordinates":{"lat":"52.333333","long":"-2.7"}},{"country":"gb","city":"Ashford Carbonell","coordinates":{"lat":"52.333333","long":"-2.7"}},{"country":"gb","city":"Ashiesteel","coordinates":{"lat":"55.616667","long":"-2.916667"}},{"country":"gb","city":"Ashill","coordinates":{"lat":"52.6","long":".8"}},{"country":"gb","city":"Ashington","coordinates":{"lat":"55.163889","long":"-1.586389"}},{"country":"gb","city":"Ashington","coordinates":{"lat":"50.916667","long":"-.383333"}},{"country":"gb","city":"Ashkirk","coordinates":{"lat":"55.483333","long":"-2.833333"}},{"country":"gb","city":"Ashleworth","coordinates":{"lat":"51.933333","long":"-2.266667"}},{"country":"gb","city":"Ashley","coordinates":{"lat":"52.216667","long":".483333"}},{"country":"gb","city":"Ashley","coordinates":{"lat":"51.65","long":"-2.1"}},{"country":"gb","city":"Ashley","coordinates":{"lat":"51.066667","long":"-1.45"}},{"country":"gb","city":"Ashley","coordinates":{"lat":"52.5","long":"-.816667"}},{"country":"gb","city":"Ashley","coordinates":{"lat":"52.933333","long":"-2.366667"}},{"country":"gb","city":"Ashley","coordinates":{"lat":"53.35","long":"-2.333333"}},{"country":"gb","city":"Ashmanhaugh","coordinates":{"lat":"52.733333","long":"1.433333"}},{"country":"gb","city":"Ashmansworth","coordinates":{"lat":"51.3","long":"-1.4"}},{"country":"gb","city":"Ashmore","coordinates":{"lat":"50.95","long":"-2.133333"}},{"country":"gb","city":"Asholt","coordinates":{"lat":"51.113056","long":"-3.153889"}},{"country":"gb","city":"Ashover","coordinates":{"lat":"53.166667","long":"-1.483333"}},{"country":"gb","city":"Ashow","coordinates":{"lat":"52.316667","long":"-1.533333"}},{"country":"gb","city":"Ashperton","coordinates":{"lat":"52.066667","long":"-2.516667"}},{"country":"gb","city":"Ash Priors","coordinates":{"lat":"51.057778","long":"-3.2125"}},{"country":"gb","city":"Ashreigney","coordinates":{"lat":"50.9","long":"-3.95"}},{"country":"gb","city":"Ashsprington","coordinates":{"lat":"50.4","long":"-3.666667"}},{"country":"gb","city":"Ashtead","coordinates":{"lat":"51.3","long":"-.3"}},{"country":"gb","city":"Ashton","coordinates":{"lat":"50.65","long":"-3.616667"}},{"country":"gb","city":"Ashton","coordinates":{"lat":"52.133333","long":"-.866667"}},{"country":"gb","city":"Ashton","coordinates":{"lat":"53.5","long":"-2.1"}},{"country":"gb","city":"Ashton","coordinates":{"lat":"53.483333","long":"-2.65"}},{"country":"gb","city":"Ashton","coordinates":{"lat":"53.216667","long":"-2.733333"}},{"country":"gb","city":"Ashton in Makerfield","coordinates":{"lat":"53.483333","long":"-2.65"}},{"country":"gb","city":"Ashton Keynes","coordinates":{"lat":"51.633333","long":"-1.933333"}},{"country":"gb","city":"Ashton under Hill","coordinates":{"lat":"52.033333","long":"-2"}},{"country":"gb","city":"Ashton-under-Lyne","coordinates":{"lat":"53.5","long":"-2.1"}},{"country":"gb","city":"Ashurst","coordinates":{"lat":"50.916667","long":"-.316667"}},{"country":"gb","city":"Ash Vale","coordinates":{"lat":"51.266667","long":"-.716667"}},{"country":"gb","city":"Ashwater","coordinates":{"lat":"50.733333","long":"-4.283333"}},{"country":"gb","city":"Ashwell","coordinates":{"lat":"52.033333","long":"-.15"}},{"country":"gb","city":"Ashwell","coordinates":{"lat":"52.7","long":"-.716667"}},{"country":"gb","city":"Ashwellthorpe","coordinates":{"lat":"52.533333","long":"1.183333"}},{"country":"gb","city":"Askam","coordinates":{"lat":"54.183333","long":"-3.216667"}},{"country":"gb","city":"Askam in Furness","coordinates":{"lat":"54.183333","long":"-3.216667"}},{"country":"gb","city":"Askern","coordinates":{"lat":"53.616667","long":"-1.15"}},{"country":"gb","city":"Askerswell","coordinates":{"lat":"50.733333","long":"-2.666667"}},{"country":"gb","city":"Askham","coordinates":{"lat":"54.6","long":"-2.75"}},{"country":"gb","city":"Askham","coordinates":{"lat":"53.266667","long":"-.883333"}},{"country":"gb","city":"Askham Richard","coordinates":{"lat":"53.933333","long":"-1.183333"}},{"country":"gb","city":"Askrigg","coordinates":{"lat":"54.3","long":"-2.083333"}},{"country":"gb","city":"Aslackby","coordinates":{"lat":"52.85","long":"-.383333"}},{"country":"gb","city":"Aslacton","coordinates":{"lat":"52.466667","long":"1.166667"}},{"country":"gb","city":"Aslockton","coordinates":{"lat":"52.933333","long":"-.883333"}},{"country":"gb","city":"Aslocton","coordinates":{"lat":"52.933333","long":"-.883333"}},{"country":"gb","city":"Aspall","coordinates":{"lat":"52.233333","long":"1.166667"}},{"country":"gb","city":"Aspatria","coordinates":{"lat":"54.75","long":"-3.333333"}},{"country":"gb","city":"Aspenden","coordinates":{"lat":"51.933333","long":"-.016667"}},{"country":"gb","city":"Aspley Guise","coordinates":{"lat":"52.016667","long":"-.633333"}},{"country":"gb","city":"Assington","coordinates":{"lat":"52","long":".816667"}},{"country":"gb","city":"Astail","coordinates":{"lat":"57.883333","long":"-4.116667"}},{"country":"gb","city":"Astbury","coordinates":{"lat":"53.15","long":"-2.233333"}},{"country":"gb","city":"Astel","coordinates":{"lat":"57.883333","long":"-4.116667"}},{"country":"gb","city":"Asterley","coordinates":{"lat":"52.65","long":"-2.933333"}},{"country":"gb","city":"Asthall","coordinates":{"lat":"51.783333","long":"-1.583333"}},{"country":"gb","city":"Astle","coordinates":{"lat":"57.883333","long":"-4.116667"}},{"country":"gb","city":"Astley Abbots","coordinates":{"lat":"52.566667","long":"-2.433333"}},{"country":"gb","city":"Astley","coordinates":{"lat":"52.766667","long":"-2.7"}},{"country":"gb","city":"Astley","coordinates":{"lat":"51.483333","long":"-1.533333"}},{"country":"gb","city":"Astley","coordinates":{"lat":"53.5","long":"-2.45"}},{"country":"gb","city":"Astley","coordinates":{"lat":"52.3","long":"-2.316667"}},{"country":"gb","city":"Aston","coordinates":{"lat":"52.5","long":"-1.883333"}},{"country":"gb","city":"Aston","coordinates":{"lat":"52.35","long":"-2.8"}},{"country":"gb","city":"Aston","coordinates":{"lat":"51.883333","long":"-.15"}},{"country":"gb","city":"Aston","coordinates":{"lat":"51.716667","long":"-1.5"}},{"country":"gb","city":"Aston","coordinates":{"lat":"53.35","long":"-1.3"}},{"country":"gb","city":"Aston","coordinates":{"lat":"52.65","long":"-2.966667"}},{"country":"gb","city":"Aston Botterell","coordinates":{"lat":"52.45","long":"-2.55"}},{"country":"gb","city":"Aston Cantlow","coordinates":{"lat":"52.233333","long":"-1.8"}},{"country":"gb","city":"Aston Clinton","coordinates":{"lat":"51.8","long":"-.716667"}},{"country":"gb","city":"Aston End","coordinates":{"lat":"51.9","long":"-.15"}},{"country":"gb","city":"Aston Ingham","coordinates":{"lat":"51.916667","long":"-2.45"}},{"country":"gb","city":"Aston Pigot","coordinates":{"lat":"52.65","long":"-2.966667"}},{"country":"gb","city":"Aston Pigott","coordinates":{"lat":"52.65","long":"-2.966667"}},{"country":"gb","city":"Aston Rowant","coordinates":{"lat":"51.666667","long":"-.95"}},{"country":"gb","city":"Aston Tirroid","coordinates":{"lat":"51.566667","long":"-1.2"}},{"country":"gb","city":"Aston Trussell","coordinates":{"lat":"52.75","long":"-2.1"}},{"country":"gb","city":"Astwick","coordinates":{"lat":"52.033541","long":"-.2228"}},{"country":"gb","city":"Astwood","coordinates":{"lat":"52.1","long":"-.6"}},{"country":"gb","city":"Astwood Bank","coordinates":{"lat":"52.25","long":"-1.933333"}},{"country":"gb","city":"Aswarby","coordinates":{"lat":"52.933333","long":"-.4"}},{"country":"gb","city":"Aswardby","coordinates":{"lat":"53.2","long":".066667"}},{"country":"gb","city":"Atcham","coordinates":{"lat":"52.683333","long":"-2.666667"}},{"country":"gb","city":"Athelney","coordinates":{"lat":"51.056389","long":"-2.932222"}},{"country":"gb","city":"Atherington","coordinates":{"lat":"50.983333","long":"-4.016667"}},{"country":"gb","city":"Atherstone","coordinates":{"lat":"52.566667","long":"-1.55"}},{"country":"gb","city":"Atherton","coordinates":{"lat":"53.516667","long":"-2.5"}},{"country":"gb","city":"Athnamulloch","coordinates":{"lat":"57.25","long":"-5.1"}},{"country":"gb","city":"Atlow","coordinates":{"lat":"53.033333","long":"-1.65"}},{"country":"gb","city":"Attenborough","coordinates":{"lat":"52.883333","long":"-1.233333"}},{"country":"gb","city":"Attercliffe","coordinates":{"lat":"53.4","long":"-1.433333"}},{"country":"gb","city":"Attleborough","coordinates":{"lat":"52.516667","long":"1.016667"}},{"country":"gb","city":"Attleborough","coordinates":{"lat":"52.5","long":"-1.45"}},{"country":"gb","city":"Attlebridge","coordinates":{"lat":"52.7","long":"1.15"}},{"country":"gb","city":"Atwick","coordinates":{"lat":"53.933333","long":"-.2"}},{"country":"gb","city":"Atworth","coordinates":{"lat":"51.392778","long":"-2.195278"}},{"country":"gb","city":"Aubourn","coordinates":{"lat":"53.15","long":"-.616667"}},{"country":"gb","city":"Auchenbreck","coordinates":{"lat":"55.983333","long":"-5.166667"}},{"country":"gb","city":"Auchencairn","coordinates":{"lat":"54.833333","long":"-3.883333"}},{"country":"gb","city":"Auchendinny","coordinates":{"lat":"55.833333","long":"-3.183333"}},{"country":"gb","city":"Auchengray","coordinates":{"lat":"55.766667","long":"-3.6"}},{"country":"gb","city":"Auchgoyle","coordinates":{"lat":"56.116667","long":"-5.25"}},{"country":"gb","city":"Auchinblae","coordinates":{"lat":"56.9","long":"-2.45"}},{"country":"gb","city":"Auchinbreck","coordinates":{"lat":"55.983333","long":"-5.166667"}},{"country":"gb","city":"Auchindachy","coordinates":{"lat":"57.5","long":"-3"}},{"country":"gb","city":"Auchindinny","coordinates":{"lat":"55.833333","long":"-3.183333"}},{"country":"gb","city":"Auchindown","coordinates":{"lat":"57.433333","long":"-3.066667"}},{"country":"gb","city":"Auchingill","coordinates":{"lat":"58.566667","long":"-3.083333"}},{"country":"gb","city":"Auchinhove","coordinates":{"lat":"57.116667","long":"-2.733333"}},{"country":"gb","city":"Auchinleck","coordinates":{"lat":"55.466667","long":"-4.3"}},{"country":"gb","city":"Auchintoul","coordinates":{"lat":"58.266667","long":"-3.916667"}},{"country":"gb","city":"Auchleven","coordinates":{"lat":"57.3","long":"-2.616667"}},{"country":"gb","city":"Auchmacoy","coordinates":{"lat":"57.366667","long":"-2.016667"}},{"country":"gb","city":"Auchmantle","coordinates":{"lat":"54.916667","long":"-4.883333"}},{"country":"gb","city":"Auchmithie","coordinates":{"lat":"56.583333","long":"-2.516667"}},{"country":"gb","city":"Auchmull","coordinates":{"lat":"57.166667","long":"-2.166667"}},{"country":"gb","city":"Auchnacloich","coordinates":{"lat":"56.45","long":"-5.316667"}},{"country":"gb","city":"Auchnacraig","coordinates":{"lat":"56.4","long":"-5.666667"}},{"country":"gb","city":"Auchnafree","coordinates":{"lat":"56.466667","long":"-3.9"}},{"country":"gb","city":"Auchnagatt","coordinates":{"lat":"57.466667","long":"-2.116667"}},{"country":"gb","city":"Auchnagoul","coordinates":{"lat":"56.2","long":"-5.133333"}},{"country":"gb","city":"Auchnangaul","coordinates":{"lat":"56.2","long":"-5.133333"}},{"country":"gb","city":"Auchnangoul","coordinates":{"lat":"56.2","long":"-5.133333"}},{"country":"gb","city":"Auchness","coordinates":{"lat":"57.983333","long":"-4.583333"}},{"country":"gb","city":"Auchterarder","coordinates":{"lat":"56.3","long":"-3.7"}},{"country":"gb","city":"Auchterderran","coordinates":{"lat":"56.133333","long":"-3.266667"}},{"country":"gb","city":"Auchterhouse","coordinates":{"lat":"56.516667","long":"-3.066667"}},{"country":"gb","city":"Auchterless","coordinates":{"lat":"57.45","long":"-2.466667"}},{"country":"gb","city":"Auchtermuchty","coordinates":{"lat":"56.283333","long":"-3.216667"}},{"country":"gb","city":"Auchterneed","coordinates":{"lat":"57.6","long":"-4.533333"}},{"country":"gb","city":"Auchtertool","coordinates":{"lat":"56.1","long":"-3.25"}},{"country":"gb","city":"Auchtoo","coordinates":{"lat":"56.35","long":"-4.316667"}},{"country":"gb","city":"Auckingill","coordinates":{"lat":"58.566667","long":"-3.083333"}},{"country":"gb","city":"Auckley","coordinates":{"lat":"53.5","long":"-1.016667"}},{"country":"gb","city":"Audlem","coordinates":{"lat":"52.983333","long":"-2.516667"}},{"country":"gb","city":"Audley","coordinates":{"lat":"53.05","long":"-2.3"}},{"country":"gb","city":"Aughagallen","coordinates":{"lat":"54.5","long":"-6.3"}},{"country":"gb","city":"Aughalee","coordinates":{"lat":"54.516667","long":"-6.266667"}},{"country":"gb","city":"Aughamullan","coordinates":{"lat":"54.533333","long":"-6.616667"}},{"country":"gb","city":"Augher","coordinates":{"lat":"54.433333","long":"-7.15"}},{"country":"gb","city":"Aughmullan","coordinates":{"lat":"54.533333","long":"-6.616667"}},{"country":"gb","city":"Aughnacloy","coordinates":{"lat":"54.416667","long":"-6.966667"}},{"country":"gb","city":"Aughton","coordinates":{"lat":"53.833333","long":"-.933333"}},{"country":"gb","city":"Aughton","coordinates":{"lat":"53.533333","long":"-2.916667"}},{"country":"gb","city":"Auldearn","coordinates":{"lat":"57.566667","long":"-3.816667"}},{"country":"gb","city":"Auldgirth","coordinates":{"lat":"55.166667","long":"-3.7"}},{"country":"gb","city":"Aultbea","coordinates":{"lat":"57.833333","long":"-5.583333"}},{"country":"gb","city":"Aultgrishin","coordinates":{"lat":"57.8","long":"-5.8"}},{"country":"gb","city":"Ault Hucknall","coordinates":{"lat":"53.183333","long":"-1.3"}},{"country":"gb","city":"Aultivullin","coordinates":{"lat":"58.583333","long":"-4.033333"}},{"country":"gb","city":"Aultmore","coordinates":{"lat":"57.55","long":"-3"}},{"country":"gb","city":"Aultnaharrie","coordinates":{"lat":"57.883333","long":"-5.183333"}},{"country":"gb","city":"Aust","coordinates":{"lat":"51.596389","long":"-2.616944"}},{"country":"gb","city":"Austerfield","coordinates":{"lat":"53.433333","long":"-1"}},{"country":"gb","city":"Austrey","coordinates":{"lat":"52.65","long":"-1.566667"}},{"country":"gb","city":"Austwick","coordinates":{"lat":"54.1","long":"-2.35"}},{"country":"gb","city":"Authorpe","coordinates":{"lat":"53.3","long":".1"}},{"country":"gb","city":"Avebury","coordinates":{"lat":"51.416667","long":"-1.866667"}},{"country":"gb","city":"Aveley","coordinates":{"lat":"51.483333","long":".25"}},{"country":"gb","city":"Avening","coordinates":{"lat":"51.680833","long":"-2.172222"}},{"country":"gb","city":"Aveton Gifford","coordinates":{"lat":"50.3","long":"-3.833333"}},{"country":"gb","city":"Aviemore","coordinates":{"lat":"57.2","long":"-3.833333"}},{"country":"gb","city":"Avington","coordinates":{"lat":"51.4","long":"-1.466667"}},{"country":"gb","city":"Avoch","coordinates":{"lat":"57.566667","long":"-4.166667"}},{"country":"gb","city":"Avon","coordinates":{"lat":"51.433333","long":"-2.5"}},{"country":"gb","city":"Avonbridge","coordinates":{"lat":"55.933333","long":"-3.75"}},{"country":"gb","city":"Avon Dassett","coordinates":{"lat":"52.133333","long":"-1.4"}},{"country":"gb","city":"Avonmouth","coordinates":{"lat":"51.510556","long":"-2.693056"}},{"country":"gb","city":"Awre","coordinates":{"lat":"51.766667","long":"-2.433333"}},{"country":"gb","city":"Awsworth","coordinates":{"lat":"52.983333","long":"-1.283333"}},{"country":"gb","city":"Axbridge","coordinates":{"lat":"51.286944","long":"-2.816944"}},{"country":"gb","city":"Axford","coordinates":{"lat":"51.183333","long":"-1.116667"}},{"country":"gb","city":"Axminster","coordinates":{"lat":"50.783333","long":"-2.983333"}},{"country":"gb","city":"Axmouth","coordinates":{"lat":"50.716667","long":"-3.05"}},{"country":"gb","city":"Aycliffe","coordinates":{"lat":"54.6","long":"-1.55"}},{"country":"gb","city":"Aydon","coordinates":{"lat":"54.983333","long":"-1.983333"}},{"country":"gb","city":"Ayle","coordinates":{"lat":"54.833333","long":"-2.433333"}},{"country":"gb","city":"Aylesbeare","coordinates":{"lat":"50.716667","long":"-3.366667"}},{"country":"gb","city":"Aylesbury","coordinates":{"lat":"51.816667","long":"-.8"}},{"country":"gb","city":"Aylesbury Vale","coordinates":{"lat":"51.833333","long":"-.8"}},{"country":"gb","city":"Aylesby","coordinates":{"lat":"53.55","long":"-.183333"}},{"country":"gb","city":"Aylesford","coordinates":{"lat":"51.283333","long":".483333"}},{"country":"gb","city":"Aylestone","coordinates":{"lat":"52.6","long":"-1.15"}},{"country":"gb","city":"Aylmerton","coordinates":{"lat":"52.9","long":"1.25"}},{"country":"gb","city":"Aylsham","coordinates":{"lat":"52.783333","long":"1.25"}},{"country":"gb","city":"Aymestrey","coordinates":{"lat":"52.283333","long":"-2.833333"}},{"country":"gb","city":"Aynho","coordinates":{"lat":"51.983333","long":"-1.25"}},{"country":"gb","city":"Ayot Saint Lawrence","coordinates":{"lat":"51.833333","long":"-.25"}},{"country":"gb","city":"Ayot Saint Peter","coordinates":{"lat":"51.816667","long":"-.216667"}},{"country":"gb","city":"Ayr","coordinates":{"lat":"55.45","long":"-4.616667"}},{"country":"gb","city":"Ayr County","coordinates":{"lat":"55.5","long":"-4.5"}},{"country":"gb","city":"Ayrshire","coordinates":{"lat":"55.5","long":"-4.5"}},{"country":"gb","city":"Aysgarth","coordinates":{"lat":"54.283333","long":"-1.983333"}},{"country":"gb","city":"Ayton","coordinates":{"lat":"54.233333","long":"-.483333"}},{"country":"gb","city":"Ayton","coordinates":{"lat":"55.85","long":"-2.133333"}},{"country":"gb","city":"Azerley","coordinates":{"lat":"54.166667","long":"-1.6"}},{"country":"gb","city":"Babraham","coordinates":{"lat":"52.116667","long":".2"}},{"country":"gb","city":"Back","coordinates":{"lat":"58.266667","long":"-6.316667"}},{"country":"gb","city":"Backford","coordinates":{"lat":"53.233333","long":"-2.9"}},{"country":"gb","city":"Backie","coordinates":{"lat":"57.983333","long":"-3.966667"}},{"country":"gb","city":"Backies","coordinates":{"lat":"57.983333","long":"-3.966667"}},{"country":"gb","city":"Backmuir of New Gilston","coordinates":{"lat":"56.266667","long":"-2.916667"}},{"country":"gb","city":"Backworth","coordinates":{"lat":"55.033333","long":"-1.516667"}},{"country":"gb","city":"Baconsthorpe","coordinates":{"lat":"52.883333","long":"1.166667"}},{"country":"gb","city":"Bacton","coordinates":{"lat":"51.983333","long":"-2.916667"}},{"country":"gb","city":"Bacton","coordinates":{"lat":"52.85","long":"1.466667"}},{"country":"gb","city":"Bacton","coordinates":{"lat":"52.266667","long":"1.016667"}},{"country":"gb","city":"Bacup","coordinates":{"lat":"53.7","long":"-2.183333"}},{"country":"gb","city":"Badaneoin","coordinates":{"lat":"57.25","long":"-3.083333"}},{"country":"gb","city":"Badbea","coordinates":{"lat":"58.15","long":"-3.55"}},{"country":"gb","city":"Badby","coordinates":{"lat":"52.216667","long":"-1.183333"}},{"country":"gb","city":"Badcall","coordinates":{"lat":"58.316667","long":"-5.15"}},{"country":"gb","city":"Badcaul","coordinates":{"lat":"57.866667","long":"-5.333333"}},{"country":"gb","city":"Baddiley","coordinates":{"lat":"53.033333","long":"-2.6"}},{"country":"gb","city":"Badenscallie","coordinates":{"lat":"58","long":"-5.316667"}},{"country":"gb","city":"Badenyon","coordinates":{"lat":"57.25","long":"-3.083333"}},{"country":"gb","city":"Badger","coordinates":{"lat":"52.6","long":"-2.35"}},{"country":"gb","city":"Badgworth","coordinates":{"lat":"51.269167","long":"-2.869444"}},{"country":"gb","city":"Badingham","coordinates":{"lat":"52.25","long":"1.383333"}},{"country":"gb","city":"Badlesmere","coordinates":{"lat":"51.233333","long":".866667"}},{"country":"gb","city":"Badluachrach","coordinates":{"lat":"57.9","long":"-5.383333"}},{"country":"gb","city":"Badluchrach","coordinates":{"lat":"57.9","long":"-5.383333"}},{"country":"gb","city":"Badminton","coordinates":{"lat":"51.538333","long":"-2.284444"}},{"country":"gb","city":"Badrallach","coordinates":{"lat":"57.866667","long":"-5.283333"}},{"country":"gb","city":"Badsey","coordinates":{"lat":"52.083333","long":"-1.883333"}},{"country":"gb","city":"Badsworth","coordinates":{"lat":"53.616667","long":"-1.3"}},{"country":"gb","city":"Badwell Ash","coordinates":{"lat":"52.283333","long":".916667"}},{"country":"gb","city":"Bagborough","coordinates":{"lat":"51.093889","long":"-3.186667"}},{"country":"gb","city":"Bagby","coordinates":{"lat":"54.216667","long":"-1.283333"}},{"country":"gb","city":"Baggrow","coordinates":{"lat":"54.75","long":"-3.266667"}},{"country":"gb","city":"Bagillt","coordinates":{"lat":"53.266667","long":"-3.166667"}},{"country":"gb","city":"Bagilt","coordinates":{"lat":"53.266667","long":"-3.166667"}},{"country":"gb","city":"Baginton","coordinates":{"lat":"52.366667","long":"-1.483333"}},{"country":"gb","city":"Bagshot","coordinates":{"lat":"51.35","long":"-.616667"}},{"country":"gb","city":"Bagthorpe","coordinates":{"lat":"52.85","long":".666667"}},{"country":"gb","city":"Baguley","coordinates":{"lat":"53.383333","long":"-2.25"}},{"country":"gb","city":"Bagworth","coordinates":{"lat":"52.65","long":"-1.333333"}},{"country":"gb","city":"Baildon","coordinates":{"lat":"53.85","long":"-1.766667"}},{"country":"gb","city":"Baile Allen","coordinates":{"lat":"58.083333","long":"-6.583333"}},{"country":"gb","city":"Baile Coinlcora","coordinates":{"lat":"54.25","long":"-5.8"}},{"country":"gb","city":"Bailleston","coordinates":{"lat":"55.85","long":"-4.133333"}},{"country":"gb","city":"Baillieston","coordinates":{"lat":"55.85","long":"-4.133333"}},{"country":"gb","city":"Bailliewhir","coordinates":{"lat":"54.75","long":"-4.433333"}},{"country":"gb","city":"Bainbridge","coordinates":{"lat":"54.3","long":"-2.1"}},{"country":"gb","city":"Bainton","coordinates":{"lat":"53.95","long":"-.533333"}},{"country":"gb","city":"Bakewell","coordinates":{"lat":"53.2","long":"-1.666667"}},{"country":"gb","city":"Bala","coordinates":{"lat":"52.916667","long":"-3.6"}},{"country":"gb","city":"Baladie","coordinates":{"lat":"57.8","long":"-3.9"}},{"country":"gb","city":"Balaldie","coordinates":{"lat":"57.8","long":"-3.9"}},{"country":"gb","city":"Balallan","coordinates":{"lat":"58.083333","long":"-6.583333"}},{"country":"gb","city":"Balaruminmore","coordinates":{"lat":"56.033333","long":"-6.2"}},{"country":"gb","city":"Balavil","coordinates":{"lat":"57.1","long":"-4"}},{"country":"gb","city":"Balbeggie","coordinates":{"lat":"56.433333","long":"-3.35"}},{"country":"gb","city":"Balblair","coordinates":{"lat":"57.566667","long":"-3.883333"}},{"country":"gb","city":"Balchladich","coordinates":{"lat":"58.216667","long":"-5.35"}},{"country":"gb","city":"Balcombe","coordinates":{"lat":"51.05","long":"-.116667"}},{"country":"gb","city":"Baldersby","coordinates":{"lat":"54.2","long":"-1.45"}},{"country":"gb","city":"Balderstone","coordinates":{"lat":"53.783333","long":"-2.566667"}},{"country":"gb","city":"Balderton","coordinates":{"lat":"53.066667","long":"-.783333"}},{"country":"gb","city":"Baldock","coordinates":{"lat":"51.983333","long":"-.183333"}},{"country":"gb","city":"Baleek","coordinates":{"lat":"54.166667","long":"-6.483333"}},{"country":"gb","city":"Balemartine","coordinates":{"lat":"56.466667","long":"-6.883333"}},{"country":"gb","city":"Balephuil","coordinates":{"lat":"56.45","long":"-6.916667"}},{"country":"gb","city":"Balerno","coordinates":{"lat":"55.883333","long":"-3.333333"}},{"country":"gb","city":"Balfron","coordinates":{"lat":"56.066667","long":"-4.333333"}},{"country":"gb","city":"Balham","coordinates":{"lat":"51.443432","long":"-.146828"}},{"country":"gb","city":"Balintore","coordinates":{"lat":"56.7","long":"-3.15"}},{"country":"gb","city":"Balintore","coordinates":{"lat":"57.75","long":"-3.9"}},{"country":"gb","city":"Balkholme","coordinates":{"lat":"53.733333","long":"-.816667"}},{"country":"gb","city":"Balking","coordinates":{"lat":"51.6","long":"-1.533333"}},{"country":"gb","city":"Balkissock","coordinates":{"lat":"55.083333","long":"-4.916667"}},{"country":"gb","city":"Ballachuhsh","coordinates":{"lat":"56.666667","long":"-5.116667"}},{"country":"gb","city":"Ballachulish","coordinates":{"lat":"56.666667","long":"-5.116667"}},{"country":"gb","city":"Ballachulist","coordinates":{"lat":"56.7","long":"-5.183333"}},{"country":"gb","city":"Ballagh","coordinates":{"lat":"54.216667","long":"-7.333333"}},{"country":"gb","city":"Ballagh Cross Roads","coordinates":{"lat":"54.216667","long":"-7.333333"}},{"country":"gb","city":"Ballanamallard","coordinates":{"lat":"54.4","long":"-7.583333"}},{"country":"gb","city":"Ballantrae","coordinates":{"lat":"55.116667","long":"-5"}},{"country":"gb","city":"Ballaterach","coordinates":{"lat":"57.05","long":"-2.966667"}},{"country":"gb","city":"Ballater","coordinates":{"lat":"57.05","long":"-3.05"}},{"country":"gb","city":"Ballaterich","coordinates":{"lat":"57.05","long":"-2.966667"}},{"country":"gb","city":"Ball","coordinates":{"lat":"52.816667","long":"-3.033333"}},{"country":"gb","city":"Ballchladdich","coordinates":{"lat":"58.216667","long":"-5.35"}},{"country":"gb","city":"Ballcladdich","coordinates":{"lat":"58.216667","long":"-5.35"}},{"country":"gb","city":"Balleer","coordinates":{"lat":"54.266667","long":"-6.666667"}},{"country":"gb","city":"Ballidivity","coordinates":{"lat":"55.15","long":"-6.5"}},{"country":"gb","city":"Balligown","coordinates":{"lat":"56.5","long":"-6.166667"}},{"country":"gb","city":"Ballimore","coordinates":{"lat":"55.983333","long":"-5.333333"}},{"country":"gb","city":"Ballinamallaght","coordinates":{"lat":"54.85","long":"-7.233333"}},{"country":"gb","city":"Ballinamallard","coordinates":{"lat":"54.4","long":"-7.583333"}},{"country":"gb","city":"Ballinaskeagh","coordinates":{"lat":"54.283333","long":"-6.233333"}},{"country":"gb","city":"Ballinderry","coordinates":{"lat":"54.533333","long":"-6.266667"}},{"country":"gb","city":"Ballinderry Lower","coordinates":{"lat":"54.533333","long":"-6.266667"}},{"country":"gb","city":"Ballinderry Upper","coordinates":{"lat":"54.533333","long":"-6.216667"}},{"country":"gb","city":"Ballingry","coordinates":{"lat":"56.15","long":"-3.333333"}},{"country":"gb","city":"Ballinluig","coordinates":{"lat":"56.633333","long":"-3.65"}},{"country":"gb","city":"Ballintoy","coordinates":{"lat":"55.233333","long":"-6.35"}},{"country":"gb","city":"Ballintuim","coordinates":{"lat":"56.666667","long":"-3.45"}},{"country":"gb","city":"Balloch","coordinates":{"lat":"56","long":"-4.583333"}},{"country":"gb","city":"Ballochroy","coordinates":{"lat":"55.7","long":"-5.616667"}},{"country":"gb","city":"Ballogie","coordinates":{"lat":"57.033333","long":"-2.7"}},{"country":"gb","city":"Ballsmill","coordinates":{"lat":"54.066667","long":"-6.5"}},{"country":"gb","city":"Ballure","coordinates":{"lat":"55.85","long":"-5.633333"}},{"country":"gb","city":"Ballybogey","coordinates":{"lat":"55.116667","long":"-6.566667"}},{"country":"gb","city":"Ballybogy","coordinates":{"lat":"55.116667","long":"-6.566667"}},{"country":"gb","city":"Ballycarry","coordinates":{"lat":"54.766667","long":"-5.766667"}},{"country":"gb","city":"Ballycassidy","coordinates":{"lat":"54.4","long":"-7.65"}},{"country":"gb","city":"Ballycastle","coordinates":{"lat":"55.216667","long":"-6.233333"}},{"country":"gb","city":"Ballychatrigan","coordinates":{"lat":"55.583333","long":"-6.233333"}},{"country":"gb","city":"Ballyclare","coordinates":{"lat":"54.766667","long":"-6.016667"}},{"country":"gb","city":"Ballyclog","coordinates":{"lat":"54.6","long":"-6.65"}},{"country":"gb","city":"Ballycloghan","coordinates":{"lat":"54.916667","long":"-6.216667"}},{"country":"gb","city":"Ballyculter","coordinates":{"lat":"54.333333","long":"-5.583333"}},{"country":"gb","city":"Ballydarrog","coordinates":{"lat":"55","long":"-6.983333"}},{"country":"gb","city":"Ballydivity","coordinates":{"lat":"55.15","long":"-6.5"}},{"country":"gb","city":"Ballydonegan","coordinates":{"lat":"54.866667","long":"-7.016667"}},{"country":"gb","city":"Ballydrain","coordinates":{"lat":"54.516667","long":"-5.683333"}},{"country":"gb","city":"Ballydullaghan","coordinates":{"lat":"54.933333","long":"-6.683333"}},{"country":"gb","city":"Ballyeaston","coordinates":{"lat":"54.766667","long":"-6"}},{"country":"gb","city":"Ballyetragh","coordinates":{"lat":"54.65","long":"-7.75"}},{"country":"gb","city":"Ballygawley","coordinates":{"lat":"54.466667","long":"-7.033333"}},{"country":"gb","city":"Ballygowan","coordinates":{"lat":"54.5","long":"-5.8"}},{"country":"gb","city":"Ballygown","coordinates":{"lat":"56.5","long":"-6.166667"}},{"country":"gb","city":"Ballygrant","coordinates":{"lat":"55.816667","long":"-6.15"}},{"country":"gb","city":"Ballygront","coordinates":{"lat":"55.816667","long":"-6.15"}},{"country":"gb","city":"Ballyhackamore","coordinates":{"lat":"54.6","long":"-5.866667"}},{"country":"gb","city":"Ballyhornan","coordinates":{"lat":"54.3","long":"-5.55"}},{"country":"gb","city":"Ballykelly","coordinates":{"lat":"55.05","long":"-7.016667"}},{"country":"gb","city":"Ballykennedy","coordinates":{"lat":"54.85","long":"-6.333333"}},{"country":"gb","city":"Ballykinlær","coordinates":{"lat":"54.25","long":"-5.8"}},{"country":"gb","city":"Ballykinlar","coordinates":{"lat":"54.25","long":"-5.8"}},{"country":"gb","city":"Ballykinler","coordinates":{"lat":"54.25","long":"-5.8"}},{"country":"gb","city":"Ballylumford","coordinates":{"lat":"54.833333","long":"-5.783333"}},{"country":"gb","city":"Ballymacarret","coordinates":{"lat":"54.6","long":"-5.9"}},{"country":"gb","city":"Ballymaconnelly","coordinates":{"lat":"54.966667","long":"-6.516667"}},{"country":"gb","city":"Ballymacrevan","coordinates":{"lat":"54.566667","long":"-6.25"}},{"country":"gb","city":"Ballymagorry","coordinates":{"lat":"54.85","long":"-7.433333"}},{"country":"gb","city":"Ballymartin","coordinates":{"lat":"54.066667","long":"-5.95"}},{"country":"gb","city":"Ballymena","coordinates":{"lat":"54.833333","long":"-6.25"}},{"country":"gb","city":"Ballymena District","coordinates":{"lat":"54.833333","long":"-6.25"}},{"country":"gb","city":"Ballymoney","coordinates":{"lat":"55.083333","long":"-6.516667"}},{"country":"gb","city":"Ballymoney District","coordinates":{"lat":"55","long":"-6.416667"}},{"country":"gb","city":"Ballynacanon","coordinates":{"lat":"55.066667","long":"-6.716667"}},{"country":"gb","city":"Ballynafeigh","coordinates":{"lat":"54.566667","long":"-5.9"}},{"country":"gb","city":"Ballynagard","coordinates":{"lat":"55.033333","long":"-7.266667"}},{"country":"gb","city":"Ballynahinch","coordinates":{"lat":"54.4","long":"-5.883333"}},{"country":"gb","city":"Ballynamallaght","coordinates":{"lat":"54.85","long":"-7.233333"}},{"country":"gb","city":"Ballynameen","coordinates":{"lat":"54.983333","long":"-6.7"}},{"country":"gb","city":"Ballynaskeagh","coordinates":{"lat":"54.283333","long":"-6.233333"}},{"country":"gb","city":"Ballyneaner","coordinates":{"lat":"54.866667","long":"-7.216667"}},{"country":"gb","city":"Ballynoe","coordinates":{"lat":"54.283333","long":"-5.716667"}},{"country":"gb","city":"Ballynure","coordinates":{"lat":"54.766667","long":"-5.95"}},{"country":"gb","city":"Ballyreagh","coordinates":{"lat":"54.483333","long":"-6.983333"}},{"country":"gb","city":"Ballyreagh","coordinates":{"lat":"54.383333","long":"-7.516667"}},{"country":"gb","city":"Ballyronan","coordinates":{"lat":"54.716667","long":"-6.533333"}},{"country":"gb","city":"Ballyroney","coordinates":{"lat":"54.266667","long":"-6.133333"}},{"country":"gb","city":"Ballyvoy","coordinates":{"lat":"55.2","long":"-6.183333"}},{"country":"gb","city":"Ballywalter","coordinates":{"lat":"54.533333","long":"-5.483333"}},{"country":"gb","city":"Ballyward","coordinates":{"lat":"54.266667","long":"-6.033333"}},{"country":"gb","city":"Balmacara","coordinates":{"lat":"57.283333","long":"-5.616667"}},{"country":"gb","city":"Balmacarra","coordinates":{"lat":"57.283333","long":"-5.616667"}},{"country":"gb","city":"Balmaclellan","coordinates":{"lat":"55.083333","long":"-4.116667"}},{"country":"gb","city":"Balmaha","coordinates":{"lat":"56.083333","long":"-4.533333"}},{"country":"gb","city":"Balmakiel","coordinates":{"lat":"58.583333","long":"-4.783333"}},{"country":"gb","city":"Balmedie","coordinates":{"lat":"57.25","long":"-2.05"}},{"country":"gb","city":"Balmerino","coordinates":{"lat":"56.4","long":"-3.033333"}},{"country":"gb","city":"Balminnoch","coordinates":{"lat":"54.95","long":"-4.7"}},{"country":"gb","city":"Balmoral","coordinates":{"lat":"54.55","long":"-5.966667"}},{"country":"gb","city":"Balmore","coordinates":{"lat":"57.383333","long":"-4.383333"}},{"country":"gb","city":"Balmullo","coordinates":{"lat":"56.366667","long":"-2.916667"}},{"country":"gb","city":"Balnaboth","coordinates":{"lat":"56.783333","long":"-3.116667"}},{"country":"gb","city":"Balnacarn","coordinates":{"lat":"57.183333","long":"-4.866667"}},{"country":"gb","city":"Balnakeil","coordinates":{"lat":"58.583333","long":"-4.783333"}},{"country":"gb","city":"Balnakiel","coordinates":{"lat":"58.583333","long":"-4.783333"}},{"country":"gb","city":"Balnald","coordinates":{"lat":"56.716667","long":"-3.516667"}},{"country":"gb","city":"Balnamore","coordinates":{"lat":"55.066667","long":"-6.55"}},{"country":"gb","city":"Balquhidder","coordinates":{"lat":"56.35","long":"-4.366667"}},{"country":"gb","city":"Balranald","coordinates":{"lat":"57.6","long":"-7.516667"}},{"country":"gb","city":"Balsham","coordinates":{"lat":"52.133333","long":".316667"}},{"country":"gb","city":"Baltasound","coordinates":{"lat":"60.75","long":"-.866667"}},{"country":"gb","city":"Baltonsborough","coordinates":{"lat":"51.111667","long":"-2.654722"}},{"country":"gb","city":"Balylumford","coordinates":{"lat":"54.833333","long":"-5.783333"}},{"country":"gb","city":"Bamber Bridge","coordinates":{"lat":"53.716667","long":"-2.666667"}},{"country":"gb","city":"Bamburgh","coordinates":{"lat":"55.6","long":"-1.7"}},{"country":"gb","city":"Bamford","coordinates":{"lat":"53.35","long":"-1.683333"}},{"country":"gb","city":"Bampton","coordinates":{"lat":"54.55","long":"-2.766667"}},{"country":"gb","city":"Bampton","coordinates":{"lat":"50.983333","long":"-3.483333"}},{"country":"gb","city":"Bampton","coordinates":{"lat":"53.3","long":"-.8"}},{"country":"gb","city":"Bampton","coordinates":{"lat":"51.716667","long":"-1.533333"}},{"country":"gb","city":"Banavie","coordinates":{"lat":"56.85","long":"-5.083333"}},{"country":"gb","city":"Banbridge","coordinates":{"lat":"54.333333","long":"-6.166667"}},{"country":"gb","city":"Banbridge District","coordinates":{"lat":"54.333333","long":"-6.166667"}},{"country":"gb","city":"Banbury","coordinates":{"lat":"52.05","long":"-1.333333"}},{"country":"gb","city":"Bancffosfelen","coordinates":{"lat":"51.786667","long":"-4.193056"}},{"country":"gb","city":"Banchory","coordinates":{"lat":"57.05","long":"-2.516667"}},{"country":"gb","city":"Banchory Devenick","coordinates":{"lat":"57.1","long":"-2.15"}},{"country":"gb","city":"Banc-y-felin","coordinates":{"lat":"51.8375","long":"-4.4325"}},{"country":"gb","city":"Bancyfelin","coordinates":{"lat":"51.8375","long":"-4.4325"}},{"country":"gb","city":"Banff","coordinates":{"lat":"57.666667","long":"-2.533333"}},{"country":"gb","city":"Banff","coordinates":{"lat":"57.5","long":"-3.083333"}},{"country":"gb","city":"Banff County","coordinates":{"lat":"57.5","long":"-3.083333"}},{"country":"gb","city":"Banffshire","coordinates":{"lat":"57.5","long":"-3.083333"}},{"country":"gb","city":"Bangon","coordinates":{"lat":"53.266667","long":"-4.116667"}},{"country":"gb","city":"Bangor","coordinates":{"lat":"54.65","long":"-5.7"}},{"country":"gb","city":"Bangor","coordinates":{"lat":"53.266667","long":"-4.116667"}},{"country":"gb","city":"Bangor","coordinates":{"lat":"52.033333","long":"-4.366667"}},{"country":"gb","city":"Bangor","coordinates":{"lat":"53","long":"-2.916667"}},{"country":"gb","city":"Bangor-is-y-coed","coordinates":{"lat":"53","long":"-2.916667"}},{"country":"gb","city":"Banham","coordinates":{"lat":"52.45","long":"1.033333"}},{"country":"gb","city":"Bankend","coordinates":{"lat":"55.583333","long":"-3.916667"}},{"country":"gb","city":"Bankfoot","coordinates":{"lat":"56.5","long":"-3.5"}},{"country":"gb","city":"Bankhead","coordinates":{"lat":"57.183333","long":"-2.183333"}},{"country":"gb","city":"Bankhead","coordinates":{"lat":"54.816667","long":"-3.933333"}},{"country":"gb","city":"Banks","coordinates":{"lat":"53.683333","long":"-2.916667"}},{"country":"gb","city":"Bannfoot","coordinates":{"lat":"54.5","long":"-6.516667"}},{"country":"gb","city":"Bannockburn","coordinates":{"lat":"56.083333","long":"-3.883333"}},{"country":"gb","city":"Bannvale","coordinates":{"lat":"54.2","long":"-6.133333"}},{"country":"gb","city":"Banovallum","coordinates":{"lat":"53.2","long":"-.116667"}},{"country":"gb","city":"Banstead","coordinates":{"lat":"51.316667","long":"-.166667"}},{"country":"gb","city":"Banwell","coordinates":{"lat":"51.328611","long":"-2.863889"}},{"country":"gb","city":"Bapchild","coordinates":{"lat":"51.316667","long":".766667"}},{"country":"gb","city":"Barachie","coordinates":{"lat":"57.733333","long":"-3.95"}},{"country":"gb","city":"Baraer","coordinates":{"lat":"54.916667","long":"-4.516667"}},{"country":"gb","city":"Baranailt","coordinates":{"lat":"54.983333","long":"-7.033333"}},{"country":"gb","city":"Barassie","coordinates":{"lat":"55.55","long":"-4.65"}},{"country":"gb","city":"Barbaraville","coordinates":{"lat":"57.716667","long":"-4.1"}},{"country":"gb","city":"Barbon","coordinates":{"lat":"54.216667","long":"-2.566667"}},{"country":"gb","city":"Barby","coordinates":{"lat":"52.316667","long":"-1.2"}},{"country":"gb","city":"Barcheston","coordinates":{"lat":"52.033333","long":"-1.6"}},{"country":"gb","city":"Barcloy","coordinates":{"lat":"54.85","long":"-3.783333"}},{"country":"gb","city":"Bardney","coordinates":{"lat":"53.216667","long":"-.316667"}},{"country":"gb","city":"Bardon Mill","coordinates":{"lat":"54.966667","long":"-2.333333"}},{"country":"gb","city":"Bardsea","coordinates":{"lat":"54.15","long":"-3.066667"}},{"country":"gb","city":"Bardsey","coordinates":{"lat":"53.883333","long":"-1.433333"}},{"country":"gb","city":"Bardwell","coordinates":{"lat":"52.316667","long":".85"}},{"country":"gb","city":"Bare","coordinates":{"lat":"54.066667","long":"-2.833333"}},{"country":"gb","city":"Barevan","coordinates":{"lat":"57.5","long":"-3.933333"}},{"country":"gb","city":"Barford","coordinates":{"lat":"51.983333","long":"-1.366667"}},{"country":"gb","city":"Barford","coordinates":{"lat":"52.233333","long":"-1.6"}},{"country":"gb","city":"Barford Saint John","coordinates":{"lat":"51.983333","long":"-1.366667"}},{"country":"gb","city":"Barford Saint Martin","coordinates":{"lat":"51.066667","long":"-1.916667"}},{"country":"gb","city":"Barford Saint Michael","coordinates":{"lat":"51.966667","long":"-1.366667"}},{"country":"gb","city":"Barfreston","coordinates":{"lat":"51.183333","long":"1.266667"}},{"country":"gb","city":"Bargany","coordinates":{"lat":"55.25","long":"-4.75"}},{"country":"gb","city":"Bargoed","coordinates":{"lat":"51.683333","long":"-3.233333"}},{"country":"gb","city":"Bargrennan","coordinates":{"lat":"55.05","long":"-4.583333"}},{"country":"gb","city":"Bar Hall","coordinates":{"lat":"54.333333","long":"-5.516667"}},{"country":"gb","city":"Bar Hill","coordinates":{"lat":"52.253889","long":".022778"}},{"country":"gb","city":"Bar Hill","coordinates":{"lat":"52.988056","long":"-2.358056"}},{"country":"gb","city":"Barhill","coordinates":{"lat":"55.101389","long":"-4.764444"}},{"country":"gb","city":"Barholm","coordinates":{"lat":"52.666667","long":"-.383333"}},{"country":"gb","city":"Barkham","coordinates":{"lat":"51.383333","long":"-.883333"}},{"country":"gb","city":"Barking","coordinates":{"lat":"51.533333","long":".083333"}},{"country":"gb","city":"Barking","coordinates":{"lat":"52.133333","long":"1.033333"}},{"country":"gb","city":"Barkingside","coordinates":{"lat":"51.583333","long":".083333"}},{"country":"gb","city":"Barking Town","coordinates":{"lat":"51.533333","long":".083333"}},{"country":"gb","city":"Barkisland","coordinates":{"lat":"53.666667","long":"-1.916667"}},{"country":"gb","city":"Barkston","coordinates":{"lat":"52.95","long":"-.6"}},{"country":"gb","city":"Barkway","coordinates":{"lat":"52","long":".016667"}},{"country":"gb","city":"Barkwith","coordinates":{"lat":"53.316667","long":"-.25"}},{"country":"gb","city":"Barlaston","coordinates":{"lat":"52.95","long":"-2.166667"}},{"country":"gb","city":"Barlborough","coordinates":{"lat":"53.283333","long":"-1.283333"}},{"country":"gb","city":"Barlestone","coordinates":{"lat":"52.633333","long":"-1.366667"}},{"country":"gb","city":"Barley","coordinates":{"lat":"52.033333","long":".033333"}},{"country":"gb","city":"Barling","coordinates":{"lat":"51.566667","long":".783333"}},{"country":"gb","city":"Barlow","coordinates":{"lat":"53.266667","long":"-1.483333"}},{"country":"gb","city":"Barlow","coordinates":{"lat":"53.75","long":"-1.016667"}},{"country":"gb","city":"Barmby","coordinates":{"lat":"53.75","long":"-.95"}},{"country":"gb","city":"Barmby on the Marsh","coordinates":{"lat":"53.75","long":"-.95"}},{"country":"gb","city":"Barmby on the Moor","coordinates":{"lat":"53.933333","long":"-.816667"}},{"country":"gb","city":"Barmer","coordinates":{"lat":"52.866667","long":".7"}},{"country":"gb","city":"Barming","coordinates":{"lat":"51.25","long":".466667"}},{"country":"gb","city":"Barmouth","coordinates":{"lat":"52.75","long":"-4.066667"}},{"country":"gb","city":"Barmston","coordinates":{"lat":"54","long":"-.216667"}},{"country":"gb","city":"Barnacaryn","coordinates":{"lat":"56.333333","long":"-5.55"}},{"country":"gb","city":"Barnack","coordinates":{"lat":"52.616667","long":"-.4"}},{"country":"gb","city":"Barnard Castle","coordinates":{"lat":"54.533333","long":"-1.916667"}},{"country":"gb","city":"Barnardiston","coordinates":{"lat":"52.1","long":".5"}},{"country":"gb","city":"Barnbrough","coordinates":{"lat":"53.516667","long":"-1.266667"}},{"country":"gb","city":"Barnby","coordinates":{"lat":"53.05","long":"-.716667"}},{"country":"gb","city":"Barnby","coordinates":{"lat":"52.45","long":"1.65"}},{"country":"gb","city":"Barnby Don","coordinates":{"lat":"53.566667","long":"-1.066667"}},{"country":"gb","city":"Barnby Dun","coordinates":{"lat":"53.566667","long":"-1.066667"}},{"country":"gb","city":"Barnby in the Willows","coordinates":{"lat":"53.05","long":"-.716667"}},{"country":"gb","city":"Barnby Moor","coordinates":{"lat":"53.35","long":"-1"}},{"country":"gb","city":"Barnes","coordinates":{"lat":"51.479732","long":"-.23829"}},{"country":"gb","city":"Barnet","coordinates":{"lat":"51.65","long":"-.2"}},{"country":"gb","city":"Barnetby","coordinates":{"lat":"53.566667","long":"-.4"}},{"country":"gb","city":"Barnetby le Wold","coordinates":{"lat":"53.566667","long":"-.4"}},{"country":"gb","city":"Barnham","coordinates":{"lat":"52.366667","long":".733333"}},{"country":"gb","city":"Barnham","coordinates":{"lat":"50.816667","long":"-.633333"}},{"country":"gb","city":"Barningham","coordinates":{"lat":"54.483333","long":"-1.866667"}},{"country":"gb","city":"Barningham","coordinates":{"lat":"52.35","long":".9"}},{"country":"gb","city":"Barnoldswick","coordinates":{"lat":"53.916667","long":"-2.183333"}},{"country":"gb","city":"Barnsley","coordinates":{"lat":"53.55","long":"-1.483333"}},{"country":"gb","city":"Barnsley","coordinates":{"lat":"51.733333","long":"-1.883333"}},{"country":"gb","city":"Barnstaple","coordinates":{"lat":"51.083333","long":"-4.05"}},{"country":"gb","city":"Barnston","coordinates":{"lat":"51.85","long":".4"}},{"country":"gb","city":"Barnstone","coordinates":{"lat":"52.9","long":"-.9"}},{"country":"gb","city":"Barnt Green","coordinates":{"lat":"52.35","long":"-1.983333"}},{"country":"gb","city":"Barnwell","coordinates":{"lat":"52.45","long":"-.45"}},{"country":"gb","city":"Barraer","coordinates":{"lat":"54.916667","long":"-4.516667"}},{"country":"gb","city":"Barrasford","coordinates":{"lat":"55.05","long":"-2.116667"}},{"country":"gb","city":"Barrassie","coordinates":{"lat":"55.55","long":"-4.65"}},{"country":"gb","city":"Barraway","coordinates":{"lat":"52.35","long":".266667"}},