[{"country":"tw","city":"Achiencheng","coordinates":{"lat":"24.6333333","long":"121.8"}},{"country":"tw","city":"Achüan","coordinates":{"lat":"23.7666667","long":"120.3166667"}},{"country":"tw","city":"Achüankeng (1)","coordinates":{"lat":"24.9666667","long":"121.55"}},{"country":"tw","city":"Achüankeng (2)","coordinates":{"lat":"24.9833333","long":"121.6"}},{"country":"tw","city":"Achüankeng","coordinates":{"lat":"24.9833333","long":"121.6"}},{"country":"tw","city":"Achüankeng","coordinates":{"lat":"24.9666667","long":"121.55"}},{"country":"tw","city":"Achüantsun","coordinates":{"lat":"23.7666667","long":"120.3166667"}},{"country":"tw","city":"Afachuang","coordinates":{"lat":"23.95","long":"120.6666667"}},{"country":"tw","city":"Afochuang","coordinates":{"lat":"23.95","long":"120.6666667"}},{"country":"tw","city":"Afuli","coordinates":{"lat":"24.1","long":"120.6333333"}},{"country":"tw","city":"Ahouliao","coordinates":{"lat":"22.9833333","long":"121.1333333"}},{"country":"tw","city":"Ahsiehmeihsü","coordinates":{"lat":"22.2666667","long":"120.7333333"}},{"country":"tw","city":"Ai","coordinates":{"lat":"24.1","long":"120.55"}},{"country":"tw","city":"Aichieh","coordinates":{"lat":"24.75","long":"121.6666667"}},{"country":"tw","city":"Aikopu","coordinates":{"lat":"22.45","long":"120.9166667"}},{"country":"tw","city":"Aikopushe","coordinates":{"lat":"22.45","long":"120.9166667"}},{"country":"tw","city":"Aikoputsun","coordinates":{"lat":"22.45","long":"120.9166667"}},{"country":"tw","city":"Aikotosashe","coordinates":{"lat":"24.0666667","long":"121.5833333"}},{"country":"tw","city":"Aikou","coordinates":{"lat":"24.8","long":"121.0333333"}},{"country":"tw","city":"Aikouliao","coordinates":{"lat":"24.45","long":"120.6833333"}},{"country":"tw","city":"Aikuo","coordinates":{"lat":"23.7","long":"120.85"}},{"country":"tw","city":"Aikuotsun","coordinates":{"lat":"23.7","long":"120.85"}},{"country":"tw","city":"Ailan","coordinates":{"lat":"23.9666667","long":"120.9333333"}},{"country":"tw","city":"Aili","coordinates":{"lat":"24.1","long":"120.55"}},{"country":"tw","city":"Ailiao","coordinates":{"lat":"22.4166667","long":"120.5833333"}},{"country":"tw","city":"Ailiaochiao","coordinates":{"lat":"23.0833333","long":"120.5"}},{"country":"tw","city":"Ailiaoli","coordinates":{"lat":"24.0","long":"120.65"}},{"country":"tw","city":"Ailiaopai","coordinates":{"lat":"24.6666667","long":"120.95"}},{"country":"tw","city":"Ailiaoping","coordinates":{"lat":"24.5166667","long":"120.8333333"}},{"country":"tw","city":"Ailiaopu","coordinates":{"lat":"23.8333333","long":"120.7333333"}},{"country":"tw","city":"Ailiaoting","coordinates":{"lat":"24.6666667","long":"120.95"}},{"country":"tw","city":"Aimen","coordinates":{"lat":"23.5638889","long":"119.6294444"}},{"country":"tw","city":"Aimentsun","coordinates":{"lat":"23.5638889","long":"119.6294444"}},{"country":"tw","city":"Aipingtzu","coordinates":{"lat":"24.9","long":"121.1666667"}},{"country":"tw","city":"Aipu","coordinates":{"lat":"22.45","long":"120.9166667"}},{"country":"tw","city":"Aishan","coordinates":{"lat":"24.3333333","long":"120.7666667"}},{"country":"tw","city":"Aiting","coordinates":{"lat":"24.6166667","long":"121.8333333"}},{"country":"tw","city":"Aitingli","coordinates":{"lat":"24.6166667","long":"121.8333333"}},{"country":"tw","city":"Aitingliao","coordinates":{"lat":"22.9833333","long":"120.55"}},{"country":"tw","city":"Aitun","coordinates":{"lat":"23.9833333","long":"120.7"}},{"country":"tw","city":"Ajouyang","coordinates":{"lat":"24.9833333","long":"121.6"}},{"country":"tw","city":"Akouliao","coordinates":{"lat":"22.9833333","long":"121.1333333"}},{"country":"tw","city":"Akuntso","coordinates":{"lat":"23.7208333","long":"120.2502778"}},{"country":"tw","city":"Alancheng","coordinates":{"lat":"24.7666667","long":"121.7"}},{"country":"tw","city":"Alangwei","coordinates":{"lat":"22.3","long":"120.8833333"}},{"country":"tw","city":"Alaopanna","coordinates":{"lat":"22.7166667","long":"121.1"}},{"country":"tw","city":"Aleng","coordinates":{"lat":"24.1166667","long":"120.8833333"}},{"country":"tw","city":"Alengshe","coordinates":{"lat":"24.1166667","long":"120.8833333"}},{"country":"tw","city":"Ali","coordinates":{"lat":"22.7333333","long":"120.75"}},{"country":"tw","city":"Alian","coordinates":{"lat":"22.8808333","long":"120.3275"}},{"country":"tw","city":"Alien","coordinates":{"lat":"22.8808333","long":"120.3275"}},{"country":"tw","city":"Alienchuang","coordinates":{"lat":"22.8808333","long":"120.3275"}},{"country":"tw","city":"Alientsun","coordinates":{"lat":"22.8808333","long":"120.3275"}},{"country":"tw","city":"Alikuan","coordinates":{"lat":"23.1133333","long":"120.6058333"}},{"country":"tw","city":"Alilao","coordinates":{"lat":"25.2791667","long":"121.6038889"}},{"country":"tw","city":"Aliliang","coordinates":{"lat":"23.0333333","long":"121.2833333"}},{"country":"tw","city":"Alimei","coordinates":{"lat":"23.85","long":"120.8833333"}},{"country":"tw","city":"Alipa","coordinates":{"lat":"22.8166667","long":"121.0833333"}},{"country":"tw","city":"Alipai","coordinates":{"lat":"22.8166667","long":"121.0833333"}},{"country":"tw","city":"Alipang","coordinates":{"lat":"25.2505556","long":"121.5813889"}},{"country":"tw","city":"Alipangkengtou","coordinates":{"lat":"25.2505556","long":"121.5813889"}},{"country":"tw","city":"Alishan","coordinates":{"lat":"23.5166667","long":"120.8144444"}},{"country":"tw","city":"Alishih","coordinates":{"lat":"24.65","long":"121.6666667"}},{"country":"tw","city":"Alitsun","coordinates":{"lat":"22.7333333","long":"120.75"}},{"country":"tw","city":"Amahunshe","coordinates":{"lat":"22.6333333","long":"120.6666667"}},{"country":"tw","city":"Amatso","coordinates":{"lat":"23.9333333","long":"120.4833333"}},{"country":"tw","city":"Amawan","coordinates":{"lat":"22.6333333","long":"120.6666667"}},{"country":"tw","city":"Amawanshe","coordinates":{"lat":"22.6333333","long":"120.6666667"}},{"country":"tw","city":"Amili","coordinates":{"lat":"24.1","long":"120.6333333"}},{"country":"tw","city":"Amuping","coordinates":{"lat":"24.8166667","long":"121.3"}},{"country":"tw","city":"Anankeng","coordinates":{"lat":"24.9666667","long":"121.3666667"}},{"country":"tw","city":"Anchaili","coordinates":{"lat":"23.5833333","long":"119.6"}},{"country":"tw","city":"Anchao","coordinates":{"lat":"22.7833333","long":"120.3333333"}},{"country":"tw","city":"Anchaotsun","coordinates":{"lat":"22.7833333","long":"120.3333333"}},{"country":"tw","city":"Anchenli","coordinates":{"lat":"22.6666667","long":"120.4666667"}},{"country":"tw","city":"Anchi","coordinates":{"lat":"24.4683333","long":"118.3244444"}},{"country":"tw","city":"Anchi","coordinates":{"lat":"24.05","long":"120.5"}},{"country":"tw","city":"Anchianhsiang","coordinates":{"lat":"23.8166667","long":"120.55"}},{"country":"tw","city":"Anchiao","coordinates":{"lat":"23.35","long":"120.25"}},{"country":"tw","city":"Anchiaohsiang","coordinates":{"lat":"23.8166667","long":"120.55"}},{"country":"tw","city":"Anchien","coordinates":{"lat":"24.4172222","long":"118.3211111"}},{"country":"tw","city":"Anchiliao","coordinates":{"lat":"23.3333333","long":"120.35"}},{"country":"tw","city":"Anchingli","coordinates":{"lat":"23.7","long":"120.4166667"}},{"country":"tw","city":"Anchitso","coordinates":{"lat":"23.3563889","long":"120.2147222"}},{"country":"tw","city":"Anchitsun","coordinates":{"lat":"24.05","long":"120.5"}},{"country":"tw","city":"Anchung","coordinates":{"lat":"22.65","long":"120.3"}},{"country":"tw","city":"Anchungli","coordinates":{"lat":"22.65","long":"120.3"}},{"country":"tw","city":"Anho","coordinates":{"lat":"23.5166667","long":"120.3"}},{"country":"tw","city":"Anhotsun","coordinates":{"lat":"23.5166667","long":"120.3"}},{"country":"tw","city":"Anhsia","coordinates":{"lat":"24.4475","long":"118.245"}},{"country":"tw","city":"Anhsi","coordinates":{"lat":"23.45","long":"120.5166667"}},{"country":"tw","city":"Anhsili","coordinates":{"lat":"23.1666667","long":"120.1666667"}},{"country":"tw","city":"Anhsiliao","coordinates":{"lat":"23.65","long":"120.2166667"}},{"country":"tw","city":"Anhsintsun","coordinates":{"lat":"22.8","long":"120.35"}},{"country":"tw","city":"Anhsitso","coordinates":{"lat":"23.3563889","long":"120.2147222"}},{"country":"tw","city":"Anhsitsun","coordinates":{"lat":"24.05","long":"120.5"}},{"country":"tw","city":"Anjen","coordinates":{"lat":"23.4461111","long":"120.2955556"}},{"country":"tw","city":"Anjenli","coordinates":{"lat":"23.4461111","long":"120.2955556"}},{"country":"tw","city":"Ankeng","coordinates":{"lat":"23.7333333","long":"120.85"}},{"country":"tw","city":"Ankengli","coordinates":{"lat":"24.9333333","long":"121.4333333"}},{"country":"tw","city":"Anli","coordinates":{"lat":"24.25","long":"120.6833333"}},{"country":"tw","city":"AnLiao","coordinates":{"lat":"23.1016667","long":"120.2025"}},{"country":"tw","city":"Anlitsun","coordinates":{"lat":"24.25","long":"120.6833333"}},{"country":"tw","city":"Anlolu","coordinates":{"lat":"25.0","long":"121.5"}},{"country":"tw","city":"Annan","coordinates":{"lat":"23.7","long":"120.25"}},{"country":"tw","city":"Annantsun","coordinates":{"lat":"23.7","long":"120.25"}},{"country":"tw","city":"Annei","coordinates":{"lat":"23.3363889","long":"120.2547222"}},{"country":"tw","city":"Anneitsun","coordinates":{"lat":"23.3363889","long":"120.2547222"}},{"country":"tw","city":"Anpien","coordinates":{"lat":"24.4194444","long":"118.4338889"}},{"country":"tw","city":"Anping","coordinates":{"lat":"23.0019444","long":"120.1627778"}},{"country":"tw","city":"Anpingtsun","coordinates":{"lat":"24.6333333","long":"121.7666667"}},{"country":"tw","city":"Anpo","coordinates":{"lat":"22.8","long":"120.6333333"}},{"country":"tw","city":"Anpotsun","coordinates":{"lat":"22.8166667","long":"120.6333333"}},{"country":"tw","city":"Anpu","coordinates":{"lat":"24.6666667","long":"121.2666667"}},{"country":"tw","city":"Anshanli","coordinates":{"lat":"23.55","long":"119.5666667"}},{"country":"tw","city":"AnShe","coordinates":{"lat":"23.1622222","long":"120.2452778"}},{"country":"tw","city":"Anshin","coordinates":{"lat":"22.8","long":"120.35"}},{"country":"tw","city":"Anshun","coordinates":{"lat":"23.0333333","long":"120.2"}},{"country":"tw","city":"Anshuo","coordinates":{"lat":"22.3","long":"120.8666667"}},{"country":"tw","city":"Anshuotsun","coordinates":{"lat":"22.3","long":"120.8666667"}},{"country":"tw","city":"Antan","coordinates":{"lat":"24.7666667","long":"121.1833333"}},{"country":"tw","city":"Anting","coordinates":{"lat":"24.4438889","long":"118.2455556"}},{"country":"tw","city":"Anting","coordinates":{"lat":"22.9702778","long":"120.1888889"}},{"country":"tw","city":"Antingli","coordinates":{"lat":"23.8","long":"120.4333333"}},{"country":"tw","city":"Antingtsun","coordinates":{"lat":"23.8","long":"120.4333333"}},{"country":"tw","city":"Antso","coordinates":{"lat":"22.75","long":"120.2666667"}},{"country":"tw","city":"Antsotsun","coordinates":{"lat":"22.75","long":"120.2666667"}},{"country":"tw","city":"Antung","coordinates":{"lat":"23.3","long":"121.3333333"}},{"country":"tw","city":"Antungli","coordinates":{"lat":"24.6833333","long":"121.7666667"}},{"country":"tw","city":"Antungliao","coordinates":{"lat":"23.8666667","long":"120.3166667"}},{"country":"tw","city":"Antungtsun","coordinates":{"lat":"24.05","long":"120.5"}},{"country":"tw","city":"Antzunei","coordinates":{"lat":"25.2166667","long":"121.4833333"}},{"country":"tw","city":"Anwannashe","coordinates":{"lat":"23.2047222","long":"120.6775"}},{"country":"tw","city":"Anyeh","coordinates":{"lat":"23.1622222","long":"120.2452778"}},{"country":"tw","city":"Anying","coordinates":{"lat":"24.5166667","long":"120.8833333"}},{"country":"tw","city":"Aohua","coordinates":{"lat":"24.3333333","long":"121.7333333"}},{"country":"tw","city":"Aohuatsun","coordinates":{"lat":"24.3333333","long":"121.7333333"}},{"country":"tw","city":"Aoku","coordinates":{"lat":"23.495","long":"120.1713889"}},{"country":"tw","city":"Aokutsun","coordinates":{"lat":"23.495","long":"120.1713889"}},{"country":"tw","city":"Aoshenshui","coordinates":{"lat":"22.7833333","long":"120.4"}},{"country":"tw","city":"Aoti","coordinates":{"lat":"25.0513889","long":"121.9225"}},{"country":"tw","city":"Apachüan","coordinates":{"lat":"22.8166667","long":"120.6"}},{"country":"tw","city":"ASangkeng","coordinates":{"lat":"24.9833333","long":"121.6"}},{"country":"tw","city":"AsnChiehTsun","coordinates":{"lat":"24.7166667","long":"121.8"}},{"country":"tw","city":"Assutu","coordinates":{"lat":"24.8833333","long":"121.75"}},{"country":"tw","city":"Atachieh","coordinates":{"lat":"23.6333333","long":"121.3833333"}},{"country":"tw","city":"Atan","coordinates":{"lat":"23.65","long":"120.5"}},{"country":"tw","city":"Atomo","coordinates":{"lat":"23.6666667","long":"121.4666667"}},{"country":"tw","city":"Awutsun","coordinates":{"lat":"22.8333333","long":"120.6333333"}},{"country":"tw","city":"Ayehmeihsü","coordinates":{"lat":"22.2666667","long":"120.7333333"}},{"country":"tw","city":"Chacha","coordinates":{"lat":"24.8","long":"121.7833333"}},{"country":"tw","city":"Chaicheng","coordinates":{"lat":"23.9333333","long":"120.75"}},{"country":"tw","city":"Chaichengli","coordinates":{"lat":"24.9833333","long":"121.5166667"}},{"country":"tw","city":"Chaichiaohsü","coordinates":{"lat":"23.5833333","long":"119.6"}},{"country":"tw","city":"Chaichiaokeng","coordinates":{"lat":"25.0333333","long":"121.7333333"}},{"country":"tw","city":"Chaichiaoli","coordinates":{"lat":"24.7666667","long":"120.95"}},{"country":"tw","city":"Chaichiaotou","coordinates":{"lat":"23.8333333","long":"120.7833333"}},{"country":"tw","city":"Chaichiaoyü","coordinates":{"lat":"23.5833333","long":"119.6"}},{"country":"tw","city":"Chaikang","coordinates":{"lat":"23.2661111","long":"120.1908333"}},{"country":"tw","city":"Chaikangtsun","coordinates":{"lat":"23.2661111","long":"120.1908333"}},{"country":"tw","city":"Chaikengtzu","coordinates":{"lat":"24.1","long":"120.5666667"}},{"country":"tw","city":"Chaikou","coordinates":{"lat":"22.6833333","long":"121.4666667"}},{"country":"tw","city":"Chailiaotzu","coordinates":{"lat":"25.0833333","long":"121.8"}},{"country":"tw","city":"Chaili","coordinates":{"lat":"23.6666667","long":"120.5166667"}},{"country":"tw","city":"Chailin","coordinates":{"lat":"23.6","long":"120.3666667"}},{"country":"tw","city":"Chailinchiao","coordinates":{"lat":"23.6","long":"120.3666667"}},{"country":"tw","city":"Chailintsun","coordinates":{"lat":"23.6","long":"120.3666667"}},{"country":"tw","city":"Chainei","coordinates":{"lat":"23.9833333","long":"120.7"}},{"country":"tw","city":"Chaineitzu","coordinates":{"lat":"22.85","long":"120.3833333"}},{"country":"tw","city":"Chaingchien","coordinates":{"lat":"25.0833333","long":"121.5666667"}},{"country":"tw","city":"Chaiotaiwei","coordinates":{"lat":"23.2","long":"120.1333333"}},{"country":"tw","city":"Chaishushan","coordinates":{"lat":"24.8","long":"121.0166667"}},{"country":"tw","city":"Chaitienli","coordinates":{"lat":"24.9833333","long":"121.5166667"}},{"country":"tw","city":"Chaitouchiang","coordinates":{"lat":"23.4833333","long":"120.4"}},{"country":"tw","city":"Chaitoukang","coordinates":{"lat":"23.4833333","long":"120.4"}},{"country":"tw","city":"Chaitutikung","coordinates":{"lat":"23.6333333","long":"120.6333333"}},{"country":"tw","city":"Chaitzuchiang","coordinates":{"lat":"23.2661111","long":"120.1908333"}},{"country":"tw","city":"Chaitzuchiao","coordinates":{"lat":"22.95","long":"120.5166667"}},{"country":"tw","city":"Chaitzukang","coordinates":{"lat":"23.2661111","long":"120.1908333"}},{"country":"tw","city":"Chaitzunei","coordinates":{"lat":"23.0833333","long":"120.2666667"}},{"country":"tw","city":"Chaiwei","coordinates":{"lat":"24.8","long":"121.75"}},{"country":"tw","city":"Chajentsun","coordinates":{"lat":"24.2166667","long":"120.7"}},{"country":"tw","city":"Chalami","coordinates":{"lat":"22.5","long":"120.95"}},{"country":"tw","city":"Chaliao","coordinates":{"lat":"24.1333333","long":"120.7333333"}},{"country":"tw","city":"Chamoutan","coordinates":{"lat":"24.0833333","long":"120.45"}},{"country":"tw","city":"Chanchuliao","coordinates":{"lat":"23.6166667","long":"120.6"}},{"country":"tw","city":"Chanchuling","coordinates":{"lat":"23.6166667","long":"120.6"}},{"country":"tw","city":"Changan","coordinates":{"lat":"23.3333333","long":"120.35"}},{"country":"tw","city":"Changanli","coordinates":{"lat":"22.6666667","long":"120.4666667"}},{"country":"tw","city":"Changantsun","coordinates":{"lat":"23.3333333","long":"120.35"}},{"country":"tw","city":"Changchangpa","coordinates":{"lat":"23.1333333","long":"121.2333333"}},{"country":"tw","city":"Changchangpu","coordinates":{"lat":"23.1333333","long":"121.2333333"}},{"country":"tw","city":"Changchiachuang","coordinates":{"lat":"22.55","long":"120.3"}},{"country":"tw","city":"Changchiao","coordinates":{"lat":"24.9833333","long":"121.55"}},{"country":"tw","city":"Changchiao","coordinates":{"lat":"23.7166667","long":"121.4166667"}},{"country":"tw","city":"Changchiaoli","coordinates":{"lat":"23.7166667","long":"121.4166667"}},{"country":"tw","city":"Changchiaotsun","coordinates":{"lat":"24.9833333","long":"121.55"}},{"country":"tw","city":"Changchi","coordinates":{"lat":"23.8666667","long":"120.5666667"}},{"country":"tw","city":"Changchih","coordinates":{"lat":"22.6833333","long":"120.5333333"}},{"country":"tw","city":"Changchuang","coordinates":{"lat":"23.6666667","long":"120.3833333"}},{"country":"tw","city":"Changchun","coordinates":{"lat":"24.95","long":"121.4"}},{"country":"tw","city":"Changchuntsun","coordinates":{"lat":"24.0166667","long":"120.5666667"}},{"country":"tw","city":"Changfuchiao","coordinates":{"lat":"23.4666667","long":"120.3666667"}},{"country":"tw","city":"Changfuli","coordinates":{"lat":"24.4852778","long":"118.4019444"}},{"country":"tw","city":"Changho","coordinates":{"lat":"23.8","long":"120.6333333"}},{"country":"tw","city":"Changholi","coordinates":{"lat":"23.9166667","long":"120.6666667"}},{"country":"tw","city":"Changhotsun","coordinates":{"lat":"23.8","long":"120.6333333"}},{"country":"tw","city":"Changhsing","coordinates":{"lat":"22.6833333","long":"120.5"}},{"country":"tw","city":"Changhsingchuang","coordinates":{"lat":"22.6833333","long":"120.5"}},{"country":"tw","city":"Changhsingli","coordinates":{"lat":"22.6833333","long":"120.5"}},{"country":"tw","city":"Changhsingtsun","coordinates":{"lat":"22.6833333","long":"120.5"}},{"country":"tw","city":"Changhua","coordinates":{"lat":"24.08","long":"120.5425"}},{"country":"tw","city":"Changhuahsien","coordinates":{"lat":"24.08","long":"120.5425"}},{"country":"tw","city":"Changhua nanpu","coordinates":{"lat":"24.08","long":"120.5425"}},{"country":"tw","city":"Changhua North","coordinates":{"lat":"24.08","long":"120.5425"}},{"country":"tw","city":"Changhua peipu","coordinates":{"lat":"24.08","long":"120.5425"}},{"country":"tw","city":"Changhuashih","coordinates":{"lat":"24.08","long":"120.5425"}},{"country":"tw","city":"Changhuasouth","coordinates":{"lat":"24.08","long":"120.5425"}},{"country":"tw","city":"Changhu","coordinates":{"lat":"24.9666667","long":"121.5666667"}},{"country":"tw","city":"Changhu","coordinates":{"lat":"23.5833333","long":"120.6"}},{"country":"tw","city":"Chang Hwa","coordinates":{"lat":"24.08","long":"120.5425"}},{"country":"tw","city":"Changjenli","coordinates":{"lat":"25.1166667","long":"121.85"}},{"country":"tw","city":"Changjung","coordinates":{"lat":"22.8166667","long":"120.5833333"}},{"country":"tw","city":"Changjungtsun","coordinates":{"lat":"22.8166667","long":"120.5833333"}},{"country":"tw","city":"Changkanchiao","coordinates":{"lat":"24.9166667","long":"121.2833333"}},{"country":"tw","city":"Changkangling","coordinates":{"lat":"24.9","long":"121.0666667"}},{"country":"tw","city":"Changkeng","coordinates":{"lat":"24.4333333","long":"120.7833333"}},{"country":"tw","city":"Changkengtsun","coordinates":{"lat":"25.1333333","long":"121.3833333"}},{"country":"tw","city":"Changkuang","coordinates":{"lat":"23.3333333","long":"121.45"}},{"country":"tw","city":"Changkung","coordinates":{"lat":"23.9666667","long":"120.6166667"}},{"country":"tw","city":"Changkunghu","coordinates":{"lat":"25.1327778","long":"121.6430556"}},{"country":"tw","city":"Changkungtzu (1)","coordinates":{"lat":"24.9666667","long":"121.6666667"}},{"country":"tw","city":"Changkungtzu (2)","coordinates":{"lat":"24.9666667","long":"121.7166667"}},{"country":"tw","city":"Changkungtzu","coordinates":{"lat":"24.9666667","long":"121.6666667"}},{"country":"tw","city":"Changkungwei","coordinates":{"lat":"24.6666667","long":"121.7"}},{"country":"tw","city":"Changle","coordinates":{"lat":"24.45","long":"118.4166667"}},{"country":"tw","city":"Changliang","coordinates":{"lat":"23.2833333","long":"121.2833333"}},{"country":"tw","city":"Changliangtsun","coordinates":{"lat":"23.2833333","long":"121.2833333"}},{"country":"tw","city":"Changliao","coordinates":{"lat":"23.9","long":"120.95"}},{"country":"tw","city":"Changliaotou","coordinates":{"lat":"23.8833333","long":"120.95"}},{"country":"tw","city":"Changlieh","coordinates":{"lat":"24.1166667","long":"120.75"}},{"country":"tw","city":"Changlo","coordinates":{"lat":"24.45","long":"118.4166667"}},{"country":"tw","city":"Changlotsun","coordinates":{"lat":"22.0766667","long":"120.8286111"}},{"country":"tw","city":"Changlung","coordinates":{"lat":"22.4475","long":"120.5608333"}},{"country":"tw","city":"Changlungtsun","coordinates":{"lat":"22.4475","long":"120.5608333"}},{"country":"tw","city":"Changnan","coordinates":{"lat":"23.7","long":"120.25"}},{"country":"tw","city":"Changnaoliao","coordinates":{"lat":"23.5333333","long":"120.6"}},{"country":"tw","city":"Changpan","coordinates":{"lat":"22.7666667","long":"120.5333333"}},{"country":"tw","city":"Changpantsun","coordinates":{"lat":"22.7666667","long":"120.5333333"}},{"country":"tw","city":"Changpatou","coordinates":{"lat":"23.9","long":"120.4"}},{"country":"tw","city":"Changpeili","coordinates":{"lat":"24.9666667","long":"121.5333333"}},{"country":"tw","city":"Changpin","coordinates":{"lat":"23.3166667","long":"121.45"}},{"country":"tw","city":"Changping","coordinates":{"lat":"23.2","long":"120.15"}},{"country":"tw","city":"Changpingli","coordinates":{"lat":"23.7","long":"120.5"}},{"country":"tw","city":"Changpintsun","coordinates":{"lat":"23.3333333","long":"121.45"}},{"country":"tw","city":"Changpukeng","coordinates":{"lat":"24.9833333","long":"121.3333333"}},{"country":"tw","city":"Changpuliao","coordinates":{"lat":"23.55","long":"120.5833333"}},{"country":"tw","city":"Changsha","coordinates":{"lat":"24.0333333","long":"120.5333333"}},{"country":"tw","city":"Changshan","coordinates":{"lat":"23.2672222","long":"120.8255556"}},{"country":"tw","city":"Changshantsun","coordinates":{"lat":"23.2672222","long":"120.8255556"}},{"country":"tw","city":"Changshatsun","coordinates":{"lat":"24.0333333","long":"120.5333333"}},{"country":"tw","city":"Changshe","coordinates":{"lat":"22.4258333","long":"120.6008333"}},{"country":"tw","city":"Changshihkou","coordinates":{"lat":"23.9463889","long":"120.8725"}},{"country":"tw","city":"Changshu","coordinates":{"lat":"23.4166667","long":"120.7"}},{"country":"tw","city":"Changshulin","coordinates":{"lat":"24.4666667","long":"120.7833333"}},{"country":"tw","city":"Changshuntsun","coordinates":{"lat":"24.7833333","long":"121.3166667"}},{"country":"tw","city":"Changshutsun","coordinates":{"lat":"24.4666667","long":"120.7833333"}},{"country":"tw","city":"Changshuwan","coordinates":{"lat":"25.0711111","long":"121.6311111"}},{"country":"tw","city":"Changtai","coordinates":{"lat":"25.0666667","long":"121.4833333"}},{"country":"tw","city":"Changtan","coordinates":{"lat":"22.9166667","long":"120.4166667"}},{"country":"tw","city":"Changtankeng","coordinates":{"lat":"24.4333333","long":"120.7666667"}},{"country":"tw","city":"Changtanli","coordinates":{"lat":"25.1333333","long":"121.8"}},{"country":"tw","city":"Changtantsun","coordinates":{"lat":"23.4244444","long":"120.1527778"}},{"country":"tw","city":"Changtanwo","coordinates":{"lat":"26.1516667","long":"119.9477778"}},{"country":"tw","city":"Changtanwu","coordinates":{"lat":"26.1516667","long":"119.9477778"}},{"country":"tw","city":"Changtaokeng","coordinates":{"lat":"25.1166667","long":"121.3833333"}},{"country":"tw","city":"Changtaokengkou","coordinates":{"lat":"25.1333333","long":"121.3833333"}},{"country":"tw","city":"Changton","coordinates":{"lat":"25.0166667","long":"121.8833333"}},{"country":"tw","city":"Changtou","coordinates":{"lat":"24.1833333","long":"120.6833333"}},{"country":"tw","city":"Changtse","coordinates":{"lat":"23.4244444","long":"120.1527778"}},{"country":"tw","city":"Changtsetsun","coordinates":{"lat":"23.4244444","long":"120.1527778"}},{"country":"tw","city":"Changtso","coordinates":{"lat":"23.8152778","long":"120.5175"}},{"country":"tw","city":"Changtsotsun","coordinates":{"lat":"23.9","long":"120.5666667"}},{"country":"tw","city":"Changtsun","coordinates":{"lat":"24.9666667","long":"121.7166667"}},{"country":"tw","city":"Changtuanshu","coordinates":{"lat":"23.3666667","long":"120.3166667"}},{"country":"tw","city":"Changwutsun","coordinates":{"lat":"22.35","long":"120.8833333"}},{"country":"tw","city":"Changya","coordinates":{"lat":"23.75","long":"120.75"}},{"country":"tw","city":"Changyatsun","coordinates":{"lat":"23.75","long":"120.75"}},{"country":"tw","city":"Changyüan","coordinates":{"lat":"23.4166667","long":"121.4833333"}},{"country":"tw","city":"Changyüantsun","coordinates":{"lat":"23.4166667","long":"121.4833333"}},{"country":"tw","city":"Changyü","coordinates":{"lat":"22.6833333","long":"120.5"}},{"country":"tw","city":"Changyüli","coordinates":{"lat":"22.6833333","long":"120.5"}},{"country":"tw","city":"Chanliao","coordinates":{"lat":"23.2333333","long":"120.1333333"}},{"country":"tw","city":"Chantso","coordinates":{"lat":"24.0833333","long":"120.6666667"}},{"country":"tw","city":"Chantsotso","coordinates":{"lat":"23.4833333","long":"120.25"}},{"country":"tw","city":"Chantsotzu","coordinates":{"lat":"23.9333333","long":"120.4333333"}},{"country":"tw","city":"Chantsoyüan","coordinates":{"lat":"24.0833333","long":"120.6666667"}},{"country":"tw","city":"Chaoan","coordinates":{"lat":"23.3941667","long":"120.4111111"}},{"country":"tw","city":"Chaoanliao","coordinates":{"lat":"23.55","long":"120.5666667"}},{"country":"tw","city":"Chaoanli","coordinates":{"lat":"23.3941667","long":"120.4111111"}},{"country":"tw","city":"Chaoantso","coordinates":{"lat":"23.3941667","long":"120.4111111"}},{"country":"tw","city":"Chaochia","coordinates":{"lat":"23.9333333","long":"120.3833333"}},{"country":"tw","city":"Chaochiali","coordinates":{"lat":"23.9333333","long":"120.3833333"}},{"country":"tw","city":"Chaoching","coordinates":{"lat":"24.8666667","long":"121.1"}},{"country":"tw","city":"Chaochouchang","coordinates":{"lat":"22.55","long":"120.5388889"}},{"country":"tw","city":"Chaochou","coordinates":{"lat":"22.55","long":"120.5388889"}},{"country":"tw","city":"Chaochouliao","coordinates":{"lat":"22.5666667","long":"120.4166667"}},{"country":"tw","city":"Chaochoutsun","coordinates":{"lat":"22.7666667","long":"120.4666667"}},{"country":"tw","city":"Chaofeng","coordinates":{"lat":"23.7333333","long":"120.6833333"}},{"country":"tw","city":"ChaoFengShih","coordinates":{"lat":"22.85","long":"120.3333333"}},{"country":"tw","city":"Chaofengssu","coordinates":{"lat":"22.85","long":"120.3333333"}},{"country":"tw","city":"Chaohsing","coordinates":{"lat":"23.9","long":"120.6"}},{"country":"tw","city":"Chaohsingtsun","coordinates":{"lat":"23.9","long":"120.6"}},{"country":"tw","city":"Chaojih","coordinates":{"lat":"24.55","long":"121.2166667"}},{"country":"tw","city":"Chaolanchi","coordinates":{"lat":"24.3","long":"120.7833333"}},{"country":"tw","city":"Chaoliaotsun","coordinates":{"lat":"22.5666667","long":"120.4166667"}},{"country":"tw","city":"Chaoli","coordinates":{"lat":"22.8833333","long":"120.3666667"}},{"country":"tw","city":"Chaomen","coordinates":{"lat":"22.55","long":"120.4"}},{"country":"tw","city":"Chaomentsun","coordinates":{"lat":"22.55","long":"120.4"}},{"country":"tw","city":"Chaoming","coordinates":{"lat":"22.55","long":"120.4166667"}},{"country":"tw","city":"Chaomingtsun","coordinates":{"lat":"22.55","long":"120.4166667"}},{"country":"tw","city":"Chaoping","coordinates":{"lat":"23.5166667","long":"120.8144444"}},{"country":"tw","city":"Chaopuwei","coordinates":{"lat":"25.2225","long":"121.4861111"}},{"country":"tw","city":"Chaotso","coordinates":{"lat":"22.9833333","long":"120.2666667"}},{"country":"tw","city":"Chaotsotsun","coordinates":{"lat":"22.7666667","long":"120.4666667"}},{"country":"tw","city":"Chaoyang","coordinates":{"lat":"22.5833333","long":"120.3166667"}},{"country":"tw","city":"Chaoyang","coordinates":{"lat":"23.5833333","long":"119.5666667"}},{"country":"tw","city":"Chaoyangkou","coordinates":{"lat":"24.5166667","long":"120.7666667"}},{"country":"tw","city":"Chaoyangli","coordinates":{"lat":"22.5833333","long":"120.3166667"}},{"country":"tw","city":"Chaoyangli","coordinates":{"lat":"23.5833333","long":"119.5666667"}},{"country":"tw","city":"Chaoyangtso","coordinates":{"lat":"23.7166667","long":"120.3333333"}},{"country":"tw","city":"Chaoyangtsochuweitzu","coordinates":{"lat":"23.8166667","long":"120.5"}},{"country":"tw","city":"Chaoyangtsun","coordinates":{"lat":"23.8152778","long":"120.5175"}},{"country":"tw","city":"Chaoyin","coordinates":{"lat":"25.0752778","long":"121.1688889"}},{"country":"tw","city":"Chaoyüanssu","coordinates":{"lat":"22.9333333","long":"120.5833333"}},{"country":"tw","city":"Chashan","coordinates":{"lat":"22.0","long":"120.8333333"}},{"country":"tw","city":"Chatso","coordinates":{"lat":"23.0333333","long":"120.35"}},{"country":"tw","city":"Chayüanping","coordinates":{"lat":"24.5333333","long":"120.9666667"}},{"country":"tw","city":"Chcha","coordinates":{"lat":"22.9833333","long":"120.45"}},{"country":"tw","city":"Checheng","coordinates":{"lat":"22.0725","long":"120.7127778"}},{"country":"tw","city":"Chechengchuang","coordinates":{"lat":"22.0725","long":"120.7127778"}},{"country":"tw","city":"Chechuang","coordinates":{"lat":"22.5","long":"120.4833333"}},{"country":"tw","city":"Chechuanliao","coordinates":{"lat":"24.3666667","long":"120.7833333"}},{"country":"tw","city":"Chehang","coordinates":{"lat":"23.05","long":"120.2666667"}},{"country":"tw","city":"Chehangtsun","coordinates":{"lat":"23.05","long":"120.2666667"}},{"country":"tw","city":"Chehsiangkou","coordinates":{"lat":"23.6166667","long":"120.25"}},{"country":"tw","city":"Chehsingtsun","coordinates":{"lat":"23.05","long":"120.2666667"}},{"country":"tw","city":"Chekangtsun","coordinates":{"lat":"23.6166667","long":"120.25"}},{"country":"tw","city":"Chekualin","coordinates":{"lat":"22.8","long":"120.3833333"}},{"country":"tw","city":"Chekuangchai","coordinates":{"lat":"23.75","long":"120.7666667"}},{"country":"tw","city":"Chekuangliao","coordinates":{"lat":"23.75","long":"120.7666667"}},{"country":"tw","city":"Chekuanliao","coordinates":{"lat":"23.2833333","long":"120.4666667"}},{"country":"tw","city":"Cheluchien","coordinates":{"lat":"22.4666667","long":"120.5"}},{"country":"tw","city":"Chelungpu","coordinates":{"lat":"24.1166667","long":"120.7166667"}},{"country":"tw","city":"Chelutou","coordinates":{"lat":"24.8","long":"121.8"}},{"country":"tw","city":"Chenantsun","coordinates":{"lat":"22.4666667","long":"120.5"}},{"country":"tw","city":"Chenchiao","coordinates":{"lat":"24.1","long":"120.4666667"}},{"country":"tw","city":"Chenchingliao","coordinates":{"lat":"23.6166667","long":"120.4"}},{"country":"tw","city":"Chenchutsun","coordinates":{"lat":"24.65","long":"121.7833333"}},{"country":"tw","city":"Chenchutzuchiao","coordinates":{"lat":"23.4236111","long":"120.2455556"}},{"country":"tw","city":"CheNengLi","coordinates":{"lat":"22.7333333","long":"120.4833333"}},{"country":"tw","city":"Chengchenghsintsun","coordinates":{"lat":"22.35","long":"120.3666667"}},{"country":"tw","city":"Chengchien","coordinates":{"lat":"23.6333333","long":"119.5833333"}},{"country":"tw","city":"Chengchienshe","coordinates":{"lat":"23.6333333","long":"119.5833333"}},{"country":"tw","city":"Chengchientsun","coordinates":{"lat":"23.6333333","long":"119.5833333"}},{"country":"tw","city":"Chengchou","coordinates":{"lat":"25.1","long":"121.4333333"}},{"country":"tw","city":"Chengchoutsun","coordinates":{"lat":"25.1","long":"121.4333333"}},{"country":"tw","city":"Chengchung","coordinates":{"lat":"25.05","long":"121.5"}},{"country":"tw","city":"Chengchungli","coordinates":{"lat":"23.6833333","long":"120.3833333"}},{"country":"tw","city":"Chengfu","coordinates":{"lat":"24.9333333","long":"121.4166667"}},{"country":"tw","city":"Chengfuli","coordinates":{"lat":"24.9333333","long":"121.4166667"}},{"country":"tw","city":"Chenghai","coordinates":{"lat":"23.6833333","long":"120.2166667"}},{"country":"tw","city":"Chenghaitso","coordinates":{"lat":"23.6833333","long":"120.2166667"}},{"country":"tw","city":"Chenghaitsun","coordinates":{"lat":"23.6833333","long":"120.2166667"}},{"country":"tw","city":"Chenghsiang","coordinates":{"lat":"22.8","long":"120.3"}},{"country":"tw","city":"Chenghsing","coordinates":{"lat":"24.65","long":"121.8166667"}},{"country":"tw","city":"ChengHsingTsun","coordinates":{"lat":"22.7333333","long":"120.6"}},{"country":"tw","city":"Chengi","coordinates":{"lat":"25.1","long":"121.45"}},{"country":"tw","city":"Chengitsun","coordinates":{"lat":"23.4833333","long":"120.25"}},{"country":"tw","city":"Chengkuai","coordinates":{"lat":"23.1166667","long":"120.2333333"}},{"country":"tw","city":"Chengkuangao","coordinates":{"lat":"23.1666667","long":"121.4"}},{"country":"tw","city":"Chengkungchen","coordinates":{"lat":"22.9833333","long":"121.3"}},{"country":"tw","city":"Chengkung","coordinates":{"lat":"24.435","long":"118.3908333"}},{"country":"tw","city":"Chengkung","coordinates":{"lat":"24.2","long":"120.8333333"}},{"country":"tw","city":"Chengkunghsintsun","coordinates":{"lat":"22.65","long":"120.35"}},{"country":"tw","city":"Chengkungli","coordinates":{"lat":"23.0166667","long":"120.2"}},{"country":"tw","city":"Chengkungling","coordinates":{"lat":"24.1166667","long":"120.6"}},{"country":"tw","city":"Chengkungtsun","coordinates":{"lat":"22.7833333","long":"120.3"}},{"country":"tw","city":"Chenglung","coordinates":{"lat":"23.55","long":"120.1666667"}},{"country":"tw","city":"Chenglungtsun","coordinates":{"lat":"23.55","long":"120.1666667"}},{"country":"tw","city":"Chengnan","coordinates":{"lat":"23.0638889","long":"120.1297222"}},{"country":"tw","city":"Chengnanli","coordinates":{"lat":"23.0638889","long":"120.1297222"}},{"country":"tw","city":"Chengnei","coordinates":{"lat":"23.1833333","long":"120.1333333"}},{"country":"tw","city":"Chengpeitsun","coordinates":{"lat":"23.5666667","long":"119.6166667"}},{"country":"tw","city":"Chengshan","coordinates":{"lat":"23.2666667","long":"121.4166667"}},{"country":"tw","city":"Chengtetsun","coordinates":{"lat":"22.6166667","long":"120.6"}},{"country":"tw","city":"Chengtso","coordinates":{"lat":"24.15","long":"120.5"}},{"country":"tw","city":"Chengtzu","coordinates":{"lat":"24.8333333","long":"121.2666667"}},{"country":"tw","city":"Chengtzuliao","coordinates":{"lat":"23.0166667","long":"120.2"}},{"country":"tw","city":"Chengtzunei","coordinates":{"lat":"23.1833333","long":"120.1333333"}},{"country":"tw","city":"Chengtzupu","coordinates":{"lat":"23.3333333","long":"121.45"}},{"country":"tw","city":"Chenhai","coordinates":{"lat":"23.6333333","long":"119.5833333"}},{"country":"tw","city":"Chenhaichiang","coordinates":{"lat":"23.6333333","long":"119.5833333"}},{"country":"tw","city":"Chenhaitsun","coordinates":{"lat":"23.6333333","long":"119.5833333"}},{"country":"tw","city":"Chenhsiangtsun","coordinates":{"lat":"24.7166667","long":"121.7"}},{"country":"tw","city":"Chenhsi","coordinates":{"lat":"24.45","long":"118.3333333"}},{"country":"tw","city":"Chenhsili","coordinates":{"lat":"22.6333333","long":"120.3333333"}},{"country":"tw","city":"Chenhsing","coordinates":{"lat":"22.7333333","long":"120.6"}},{"country":"tw","city":"Chenhsingli","coordinates":{"lat":"23.7833333","long":"120.4666667"}},{"country":"tw","city":"Chenhsingtsun","coordinates":{"lat":"22.7333333","long":"120.6"}},{"country":"tw","city":"Chenhsipao","coordinates":{"lat":"24.5666667","long":"121.3"}},{"country":"tw","city":"Chenienkeng","coordinates":{"lat":"24.4333333","long":"120.7333333"}},{"country":"tw","city":"Chening","coordinates":{"lat":"22.7333333","long":"120.4833333"}},{"country":"tw","city":"Cheningli","coordinates":{"lat":"22.7333333","long":"120.4833333"}},{"country":"tw","city":"Cheningtsun","coordinates":{"lat":"22.7333333","long":"120.4833333"}},{"country":"tw","city":"Chenliao","coordinates":{"lat":"23.3833333","long":"120.1666667"}},{"country":"tw","city":"Chenliaoli","coordinates":{"lat":"23.3833333","long":"120.1666667"}},{"country":"tw","city":"Chennan","coordinates":{"lat":"22.6","long":"120.3166667"}},{"country":"tw","city":"Chennan","coordinates":{"lat":"23.7","long":"120.5333333"}},{"country":"tw","city":"Chennankung","coordinates":{"lat":"22.0","long":"120.75"}},{"country":"tw","city":"Chennanli","coordinates":{"lat":"22.6","long":"120.3166667"}},{"country":"tw","city":"Chennanli","coordinates":{"lat":"23.7","long":"120.5333333"}},{"country":"tw","city":"Chenpeili","coordinates":{"lat":"22.6333333","long":"120.3666667"}},{"country":"tw","city":"Chenping","coordinates":{"lat":"23.35","long":"121.45"}},{"country":"tw","city":"Chenpingchuang","coordinates":{"lat":"24.3","long":"120.55"}},{"country":"tw","city":"Chenpingli","coordinates":{"lat":"24.0833333","long":"120.5"}},{"country":"tw","city":"Chenshan","coordinates":{"lat":"24.7666667","long":"121.7166667"}},{"country":"tw","city":"Chenshantsun","coordinates":{"lat":"24.7666667","long":"121.7166667"}},{"country":"tw","city":"Chentoushan","coordinates":{"lat":"23.8833333","long":"120.9333333"}},{"country":"tw","city":"Chentoushanchiao","coordinates":{"lat":"24.8","long":"120.9666667"}},{"country":"tw","city":"Chentso","coordinates":{"lat":"22.5833333","long":"120.3666667"}},{"country":"tw","city":"Chentsokeng","coordinates":{"lat":"25.0480556","long":"121.3377778"}},{"country":"tw","city":"Chentsoliao","coordinates":{"lat":"23.55","long":"120.4666667"}},{"country":"tw","city":"Chentsotzu","coordinates":{"lat":"23.5166667","long":"120.6"}},{"country":"tw","city":"Chentung","coordinates":{"lat":"22.6333333","long":"120.3666667"}},{"country":"tw","city":"Chentungli","coordinates":{"lat":"22.6333333","long":"120.3666667"}},{"country":"tw","city":"Chentzumanli","coordinates":{"lat":"24.7333333","long":"121.7333333"}},{"country":"tw","city":"Chenya","coordinates":{"lat":"22.5333333","long":"120.6833333"}},{"country":"tw","city":"Chenyashe","coordinates":{"lat":"22.5333333","long":"120.6833333"}},{"country":"tw","city":"Chepeikeng","coordinates":{"lat":"24.4333333","long":"120.7333333"}},{"country":"tw","city":"Cheping","coordinates":{"lat":"24.55","long":"120.85"}},{"country":"tw","city":"Chepingliao","coordinates":{"lat":"25.1166667","long":"121.6"}},{"country":"tw","city":"Chepinglun","coordinates":{"lat":"23.8847222","long":"120.8733333"}},{"country":"tw","city":"Chepu","coordinates":{"lat":"24.1666667","long":"120.5666667"}},{"country":"tw","city":"Chetien","coordinates":{"lat":"23.4","long":"120.4333333"}},{"country":"tw","city":"Chetientzu","coordinates":{"lat":"23.7333333","long":"120.6666667"}},{"country":"tw","city":"Chetou","coordinates":{"lat":"24.4166667","long":"120.7666667"}},{"country":"tw","city":"Chetzulu","coordinates":{"lat":"24.95","long":"121.5"}},{"country":"tw","city":"CheugkungLi","coordinates":{"lat":"24.2","long":"120.8333333"}},{"country":"tw","city":"Chewanliao","coordinates":{"lat":"23.75","long":"120.7666667"}},{"country":"tw","city":"Chiaai","coordinates":{"lat":"24.8166667","long":"121.3833333"}},{"country":"tw","city":"Chiaaoshe","coordinates":{"lat":"22.5666667","long":"120.65"}},{"country":"tw","city":"Chiachaho","coordinates":{"lat":"24.5333333","long":"120.8333333"}},{"country":"tw","city":"Chiachengtsun","coordinates":{"lat":"22.75","long":"120.3833333"}},{"country":"tw","city":"Chiachih","coordinates":{"lat":"24.8333333","long":"121.3833333"}},{"country":"tw","city":"Chiachihlai","coordinates":{"lat":"23.0666667","long":"121.3333333"}},{"country":"tw","city":"Chiachihlaishe","coordinates":{"lat":"22.3166667","long":"120.75"}},{"country":"tw","city":"Chiachinglin","coordinates":{"lat":"22.4166667","long":"120.9166667"}},{"country":"tw","city":"Chiachinglinshe","coordinates":{"lat":"22.4166667","long":"120.9166667"}},{"country":"tw","city":"Chiachinlin","coordinates":{"lat":"22.4166667","long":"120.9166667"}},{"country":"tw","city":"Chiachinlintsun","coordinates":{"lat":"22.4166667","long":"120.9166667"}},{"country":"tw","city":"Chiachitzukeng","coordinates":{"lat":"25.1166667","long":"121.3333333"}},{"country":"tw","city":"Chiachiuliao","coordinates":{"lat":"24.8833333","long":"121.5333333"}},{"country":"tw","city":"Chiachouli","coordinates":{"lat":"25.0333333","long":"121.3"}},{"country":"tw","city":"Chiachoutsun","coordinates":{"lat":"25.0333333","long":"121.3"}},{"country":"tw","city":"ChiaChoWan","coordinates":{"lat":"23.3166667","long":"121.45"}},{"country":"tw","city":"Chiachung","coordinates":{"lat":"23.2511111","long":"120.2713889"}},{"country":"tw","city":"Chiachungtsun","coordinates":{"lat":"23.2511111","long":"120.2713889"}},{"country":"tw","city":"Chiafang","coordinates":{"lat":"23.3","long":"120.2833333"}},{"country":"tw","city":"Chiafanli","coordinates":{"lat":"23.3","long":"120.2833333"}},{"country":"tw","city":"Chiafeiyüan","coordinates":{"lat":"23.0166667","long":"121.2833333"}},{"country":"tw","city":"Chiafengli","coordinates":{"lat":"22.8333333","long":"120.3"}},{"country":"tw","city":"Chiafengtsun","coordinates":{"lat":"22.8666667","long":"121.1166667"}},{"country":"tw","city":"Chiaho","coordinates":{"lat":"22.5833333","long":"120.5833333"}},{"country":"tw","city":"Chiahotsun","coordinates":{"lat":"22.3227778","long":"120.6286111"}},{"country":"tw","city":"Chiahsi","coordinates":{"lat":"23.9833333","long":"120.5166667"}},{"country":"tw","city":"Chiahsien","coordinates":{"lat":"23.0825","long":"120.5902778"}},{"country":"tw","city":"Chiahsienpu","coordinates":{"lat":"23.0825","long":"120.5902778"}},{"country":"tw","city":"Chiahsin","coordinates":{"lat":"22.2","long":"120.7333333"}},{"country":"tw","city":"Chiahsing","coordinates":{"lat":"22.8166667","long":"120.3"}},{"country":"tw","city":"Chiahsingli","coordinates":{"lat":"22.8166667","long":"120.3"}},{"country":"tw","city":"Chiahsingtsun","coordinates":{"lat":"22.5666667","long":"120.65"}},{"country":"tw","city":"Chiahsinlushe","coordinates":{"lat":"22.2","long":"120.7333333"}},{"country":"tw","city":"Chiahsitsun","coordinates":{"lat":"23.9833333","long":"120.5166667"}},{"country":"tw","city":"Chiahsitzukeng","coordinates":{"lat":"25.1166667","long":"121.3333333"}},{"country":"tw","city":"Chiahsiu","coordinates":{"lat":"23.0333333","long":"120.25"}},{"country":"tw","city":"Chiahsiyakeng","coordinates":{"lat":"25.1166667","long":"121.3333333"}},{"country":"tw","city":"Chiahu","coordinates":{"lat":"22.0333333","long":"120.7166667"}},{"country":"tw","city":"Chiahui","coordinates":{"lat":"23.45","long":"120.3166667"}},{"country":"tw","city":"Chiahuli","coordinates":{"lat":"22.0333333","long":"120.7166667"}},{"country":"tw","city":"Chiai","coordinates":{"lat":"23.4805556","long":"120.4494444"}},{"country":"tw","city":"Chiaihsien","coordinates":{"lat":"23.4805556","long":"120.4494444"}},{"country":"tw","city":"Chiailan","coordinates":{"lat":"24.7333333","long":"121.3333333"}},{"country":"tw","city":"Chiaishih","coordinates":{"lat":"23.4805556","long":"120.4494444"}},{"country":"tw","city":"Chiaitsun","coordinates":{"lat":"22.65","long":"120.6333333"}},{"country":"tw","city":"Chiajen","coordinates":{"lat":"24.2166667","long":"120.7"}},{"country":"tw","city":"Chiajenshan","coordinates":{"lat":"23.5333333","long":"120.55"}},{"country":"tw","city":"Chiajentsun","coordinates":{"lat":"24.2166667","long":"120.7"}},{"country":"tw","city":"Chiajuichi","coordinates":{"lat":"22.75","long":"120.3833333"}},{"country":"tw","city":"Chiajuipu","coordinates":{"lat":"22.7833333","long":"120.6"}},{"country":"tw","city":"Chiajung","coordinates":{"lat":"23.1","long":"120.2333333"}},{"country":"tw","city":"Chiajungtsun","coordinates":{"lat":"23.1","long":"120.2333333"}},{"country":"tw","city":"Chiakang","coordinates":{"lat":"23.25","long":"120.15"}},{"country":"tw","city":"Chiakuopushe","coordinates":{"lat":"22.45","long":"120.9"}},{"country":"tw","city":"Chiakuoputsun","coordinates":{"lat":"22.45","long":"120.9"}},{"country":"tw","city":"Chiakutzu","coordinates":{"lat":"25.0666667","long":"121.3666667"}},{"country":"tw","city":"Chiala","coordinates":{"lat":"24.7","long":"121.4"}},{"country":"tw","city":"Chialafan","coordinates":{"lat":"22.3666667","long":"120.8666667"}},{"country":"tw","city":"Chialaiwan","coordinates":{"lat":"23.6","long":"121.4"}},{"country":"tw","city":"Chialan","coordinates":{"lat":"22.5947222","long":"120.9605556"}},{"country":"tw","city":"Chialantsun","coordinates":{"lat":"22.5947222","long":"120.9605556"}},{"country":"tw","city":"Chialanwan","coordinates":{"lat":"24.55","long":"121.4666667"}},{"country":"tw","city":"ChiaLaoTsun","coordinates":{"lat":"24.0166667","long":"120.6333333"}},{"country":"tw","city":"Chialapan","coordinates":{"lat":"22.3666667","long":"120.8666667"}},{"country":"tw","city":"Chiale","coordinates":{"lat":"23.0","long":"121.1166667"}},{"country":"tw","city":"Chialeshe","coordinates":{"lat":"24.7333333","long":"121.2166667"}},{"country":"tw","city":"Chialiao","coordinates":{"lat":"23.9166667","long":"120.7666667"}},{"country":"tw","city":"Chiali","coordinates":{"lat":"23.16","long":"120.1777778"}},{"country":"tw","city":"Chialichuang","coordinates":{"lat":"23.16","long":"120.1777778"}},{"country":"tw","city":"Chialien","coordinates":{"lat":"22.4666667","long":"120.4333333"}},{"country":"tw","city":"Chialienli","coordinates":{"lat":"22.4666667","long":"120.4333333"}},{"country":"tw","city":"Chialihsing","coordinates":{"lat":"23.1919444","long":"120.1875"}},{"country":"tw","city":"Chialilan","coordinates":{"lat":"22.6166667","long":"120.4666667"}},{"country":"tw","city":"Chialili","coordinates":{"lat":"24.1","long":"120.5"}},{"country":"tw","city":"Chialimenghsia","coordinates":{"lat":"22.9333333","long":"121.2666667"}},{"country":"tw","city":"Chialitsun","coordinates":{"lat":"24.0166667","long":"121.6"}},{"country":"tw","city":"Chialitung","coordinates":{"lat":"23.7","long":"121.4833333"}},{"country":"tw","city":"Chialiu","coordinates":{"lat":"23.7166667","long":"120.5"}},{"country":"tw","city":"Chialiukuai","coordinates":{"lat":"23.7166667","long":"120.5"}},{"country":"tw","city":"Chialiupi","coordinates":{"lat":"23.7166667","long":"120.5"}},{"country":"tw","city":"Chialiwan","coordinates":{"lat":"24.0166667","long":"121.6"}},{"country":"tw","city":"Chialo","coordinates":{"lat":"24.7333333","long":"121.2166667"}},{"country":"tw","city":"Chialolo","coordinates":{"lat":"23.4666667","long":"121.35"}},{"country":"tw","city":"Chialoshan","coordinates":{"lat":"24.5166667","long":"121.5"}},{"country":"tw","city":"Chialoshui","coordinates":{"lat":"21.9913889","long":"120.8558333"}},{"country":"tw","city":"Chialotsun","coordinates":{"lat":"24.7333333","long":"121.2166667"}},{"country":"tw","city":"Chialotsuun","coordinates":{"lat":"24.7333333","long":"121.2166667"}},{"country":"tw","city":"Chialu","coordinates":{"lat":"22.3316667","long":"120.6188889"}},{"country":"tw","city":"Chialulan","coordinates":{"lat":"22.8166667","long":"121.1833333"}},{"country":"tw","city":"Chialulanfanshe","coordinates":{"lat":"22.8166667","long":"121.1833333"}},{"country":"tw","city":"Chialulantsun","coordinates":{"lat":"22.8166667","long":"121.1833333"}},{"country":"tw","city":"Chialung","coordinates":{"lat":"23.6666667","long":"120.25"}},{"country":"tw","city":"Chialungtsun","coordinates":{"lat":"23.6666667","long":"120.25"}},{"country":"tw","city":"Chialushe","coordinates":{"lat":"23.4166667","long":"121.4666667"}},{"country":"tw","city":"Chialutang","coordinates":{"lat":"22.3316667","long":"120.6188889"}},{"country":"tw","city":"Chialütsun","coordinates":{"lat":"22.3316667","long":"120.6188889"}},{"country":"tw","city":"Chiamin","coordinates":{"lat":"23.3833333","long":"120.3666667"}},{"country":"tw","city":"Chiamintsun","coordinates":{"lat":"23.3833333","long":"120.3666667"}},{"country":"tw","city":"Chiamu","coordinates":{"lat":"22.7666667","long":"120.7166667"}},{"country":"tw","city":"Chiamutsun","coordinates":{"lat":"22.7666667","long":"120.7166667"}},{"country":"tw","city":"Chiana","coordinates":{"lat":"23.0","long":"121.1166667"}},{"country":"tw","city":"Chianachi","coordinates":{"lat":"22.75","long":"120.3833333"}},{"country":"tw","city":"Chianaimei","coordinates":{"lat":"22.4333333","long":"120.9166667"}},{"country":"tw","city":"Chianaimeishe","coordinates":{"lat":"22.4333333","long":"120.9166667"}},{"country":"tw","city":"Chianakang","coordinates":{"lat":"24.25","long":"121.7166667"}},{"country":"tw","city":"Chianalushe","coordinates":{"lat":"23.0","long":"121.1166667"}},{"country":"tw","city":"Chianamuchihshe","coordinates":{"lat":"24.7833333","long":"121.5"}},{"country":"tw","city":"Chianan","coordinates":{"lat":"22.8666667","long":"120.2666667"}},{"country":"tw","city":"Chianantsun","coordinates":{"lat":"22.8666667","long":"120.2666667"}},{"country":"tw","city":"Chianapu","coordinates":{"lat":"22.7833333","long":"120.6"}},{"country":"tw","city":"Chianatienshe","coordinates":{"lat":"23.0","long":"121.1166667"}},{"country":"tw","city":"Chianatsun","coordinates":{"lat":"23.0","long":"121.1166667"}},{"country":"tw","city":"Chian","coordinates":{"lat":"23.9833333","long":"121.55"}},{"country":"tw","city":"Chianei","coordinates":{"lat":"23.0166667","long":"120.25"}},{"country":"tw","city":"ChiaNeiPu","coordinates":{"lat":"22.7833333","long":"120.6"}},{"country":"tw","city":"Chiangao","coordinates":{"lat":"24.8833333","long":"121.8333333"}},{"country":"tw","city":"Chiangchangcheng","coordinates":{"lat":"24.2","long":"120.7666667"}},{"country":"tw","city":"Chiangchien","coordinates":{"lat":"24.9833333","long":"121.55"}},{"country":"tw","city":"Chiangchien","coordinates":{"lat":"22.5333333","long":"120.45"}},{"country":"tw","city":"Chiangchienliaotzu","coordinates":{"lat":"23.2333333","long":"120.2666667"}},{"country":"tw","city":"Chiangchienlu","coordinates":{"lat":"21.9833333","long":"120.8333333"}},{"country":"tw","city":"Chiangchientso","coordinates":{"lat":"23.4833333","long":"120.1666667"}},{"country":"tw","city":"Chiangchientsun","coordinates":{"lat":"25.0833333","long":"121.5666667"}},{"country":"tw","city":"Chiangchientsun","coordinates":{"lat":"22.5333333","long":"120.45"}},{"country":"tw","city":"Chiangchientzu","coordinates":{"lat":"23.1333333","long":"120.15"}},{"country":"tw","city":"Chiangchünao","coordinates":{"lat":"23.3666667","long":"119.5166667"}},{"country":"tw","city":"Chiangchunaoshe","coordinates":{"lat":"23.3666667","long":"119.5166667"}},{"country":"tw","city":"Chiangchünaotsun","coordinates":{"lat":"23.3666667","long":"119.5166667"}},{"country":"tw","city":"Chiangchün","coordinates":{"lat":"23.2","long":"120.15"}},{"country":"tw","city":"Chiangchünli","coordinates":{"lat":"23.6666667","long":"120.4833333"}},{"country":"tw","city":"Chiangchünlun","coordinates":{"lat":"23.6666667","long":"120.4833333"}},{"country":"tw","city":"Chiangchünyen","coordinates":{"lat":"22.6833333","long":"121.5"}},{"country":"tw","city":"Chiangfu","coordinates":{"lat":"23.2177778","long":"120.1369444"}},{"country":"tw","city":"Chiangfutsun","coordinates":{"lat":"23.2177778","long":"120.1369444"}},{"country":"tw","city":"Chianghou","coordinates":{"lat":"22.8833333","long":"120.3"}},{"country":"tw","city":"Chianghoutsun","coordinates":{"lat":"22.8833333","long":"120.3"}},{"country":"tw","city":"Chianghsi","coordinates":{"lat":"22.5166667","long":"120.45"}},{"country":"tw","city":"Chianghsilin","coordinates":{"lat":"23.7666667","long":"120.6833333"}},{"country":"tw","city":"Chianghsishanlin","coordinates":{"lat":"23.7666667","long":"120.6833333"}},{"country":"tw","city":"Chianghsitien","coordinates":{"lat":"23.8833333","long":"120.4333333"}},{"country":"tw","city":"Chianghsitsun","coordinates":{"lat":"22.5166667","long":"120.45"}},{"country":"tw","city":"Chianghuangkeng","coordinates":{"lat":"23.0833333","long":"120.5333333"}},{"country":"tw","city":"Chianghuangpu","coordinates":{"lat":"23.1","long":"120.6"}},{"country":"tw","city":"Chiangjung","coordinates":{"lat":"23.2333333","long":"120.1333333"}},{"country":"tw","city":"Chiangkan","coordinates":{"lat":"23.4625","long":"120.2111111"}},{"country":"tw","city":"Chiangkanglu","coordinates":{"lat":"22.5166667","long":"120.45"}},{"country":"tw","city":"Chiangkangtsun","coordinates":{"lat":"22.5166667","long":"120.45"}},{"country":"tw","city":"ChiangKanTsun","coordinates":{"lat":"23.4625","long":"120.2111111"}},{"country":"tw","city":"Chiangkou","coordinates":{"lat":"21.9922222","long":"120.8236111"}},{"country":"tw","city":"Chiangkoulu","coordinates":{"lat":"21.9833333","long":"120.8166667"}},{"country":"tw","city":"Chiangkoutsun","coordinates":{"lat":"23.4833333","long":"121.5"}},{"country":"tw","city":"Chiangkueicheng","coordinates":{"lat":"24.2","long":"120.7666667"}},{"country":"tw","city":"Chiangkuei","coordinates":{"lat":"23.2","long":"120.1333333"}},{"country":"tw","city":"Chiangkun","coordinates":{"lat":"23.2177778","long":"120.1369444"}},{"country":"tw","city":"Chiangliaoli","coordinates":{"lat":"25.0080556","long":"121.4125"}},{"country":"tw","city":"Chianglingli","coordinates":{"lat":"24.9833333","long":"121.5333333"}},{"country":"tw","city":"Chiangmayüan","coordinates":{"lat":"24.3833333","long":"120.8166667"}},{"country":"tw","city":"Chiangmei","coordinates":{"lat":"23.6333333","long":"119.5833333"}},{"country":"tw","city":"Chiangmeitsun","coordinates":{"lat":"23.6333333","long":"119.5833333"}},{"country":"tw","city":"Chiangmukeng","coordinates":{"lat":"24.5833333","long":"120.7833333"}},{"country":"tw","city":"Chiangnanli","coordinates":{"lat":"24.8286111","long":"120.9272222"}},{"country":"tw","city":"Chiangpei","coordinates":{"lat":"23.2719444","long":"120.1222222"}},{"country":"tw","city":"Chiangpien","coordinates":{"lat":"24.6166667","long":"121.85"}},{"country":"tw","city":"Chiangpienli","coordinates":{"lat":"24.6166667","long":"121.85"}},{"country":"tw","city":"Chiangping","coordinates":{"lat":"23.4833333","long":"120.4"}},{"country":"tw","city":"Chiangpingli","coordinates":{"lat":"23.4833333","long":"120.4"}},{"country":"tw","city":"Chiangpu","coordinates":{"lat":"22.5","long":"120.3666667"}},{"country":"tw","city":"Chiangputsun","coordinates":{"lat":"22.5","long":"120.3666667"}},{"country":"tw","city":"Chiangshan","coordinates":{"lat":"22.6333333","long":"120.4"}},{"country":"tw","city":"Chiangshanli","coordinates":{"lat":"23.3833333","long":"120.2"}},{"country":"tw","city":"Chiangshantsun","coordinates":{"lat":"22.6333333","long":"120.4"}},{"country":"tw","city":"Chiangti","coordinates":{"lat":"23.5833333","long":"119.6166667"}},{"country":"tw","city":"Chiangtishe","coordinates":{"lat":"23.5833333","long":"119.6166667"}},{"country":"tw","city":"Chiangtso","coordinates":{"lat":"23.8","long":"120.2833333"}},{"country":"tw","city":"Chiangtsotien","coordinates":{"lat":"23.5272222","long":"120.4144444"}},{"country":"tw","city":"Chiangtsotzu","coordinates":{"lat":"23.5272222","long":"120.4144444"}},{"country":"tw","city":"Chiangtsui","coordinates":{"lat":"22.5","long":"120.3666667"}},{"country":"tw","city":"Chiangtsuili","coordinates":{"lat":"25.0166667","long":"121.4833333"}},{"country":"tw","city":"Chiangtsuili","coordinates":{"lat":"25.0333333","long":"121.4666667"}},{"country":"tw","city":"Chiangtsuitsun","coordinates":{"lat":"22.5","long":"120.3666667"}},{"country":"tw","city":"Chiangtung","coordinates":{"lat":"22.5","long":"120.4666667"}},{"country":"tw","city":"Chiangtzu","coordinates":{"lat":"22.1333333","long":"120.8666667"}},{"country":"tw","city":"Chiangtzuchien","coordinates":{"lat":"23.0833333","long":"120.3"}},{"country":"tw","city":"Chiangtzuko","coordinates":{"lat":"23.5166667","long":"120.5333333"}},{"country":"tw","city":"Chiangtzuliao","coordinates":{"lat":"22.8333333","long":"120.4333333"}},{"country":"tw","city":"Chiangtzuping","coordinates":{"lat":"23.4833333","long":"120.4"}},{"country":"tw","city":"Chiangtzupu","coordinates":{"lat":"22.5","long":"120.3666667"}},{"country":"tw","city":"Chiangtzushe","coordinates":{"lat":"23.65","long":"119.5833333"}},{"country":"tw","city":"Chiangtzutou","coordinates":{"lat":"23.25","long":"120.3166667"}},{"country":"tw","city":"Chiangtzutsui","coordinates":{"lat":"25.0166667","long":"121.4833333"}},{"country":"tw","city":"Chiangtzutsui","coordinates":{"lat":"25.0333333","long":"121.4666667"}},{"country":"tw","city":"Chiangtzutsun","coordinates":{"lat":"23.65","long":"119.5833333"}},{"country":"tw","city":"Chiangtzutun","coordinates":{"lat":"23.0833333","long":"120.2833333"}},{"country":"tw","city":"Chiangtzuwei","coordinates":{"lat":"23.1","long":"120.2333333"}},{"country":"tw","city":"Chiangtzuyüan","coordinates":{"lat":"23.85","long":"120.6166667"}},{"country":"tw","city":"Chiangwei","coordinates":{"lat":"22.5","long":"120.5166667"}},{"country":"tw","city":"Chiangweikou","coordinates":{"lat":"22.9333333","long":"120.25"}},{"country":"tw","city":"Chiangweiliao","coordinates":{"lat":"23.5325","long":"120.2875"}},{"country":"tw","city":"Chiangweishe","coordinates":{"lat":"23.6333333","long":"119.5833333"}},{"country":"tw","city":"Chiangweitsun","coordinates":{"lat":"23.5325","long":"120.2875"}},{"country":"tw","city":"Chiangyüan","coordinates":{"lat":"22.4333333","long":"120.5166667"}},{"country":"tw","city":"Chiangyüantsun","coordinates":{"lat":"22.4333333","long":"120.5166667"}},{"country":"tw","city":"Chiantsun","coordinates":{"lat":"23.9833333","long":"121.55"}},{"country":"tw","city":"Chiaochai","coordinates":{"lat":"23.3833333","long":"120.45"}},{"country":"tw","city":"Chiaochiapu","coordinates":{"lat":"24.8666667","long":"121.2666667"}},{"country":"tw","city":"Chiaochi","coordinates":{"lat":"24.6166667","long":"120.8166667"}},{"country":"tw","city":"Chiaochitsun","coordinates":{"lat":"24.85","long":"121.7666667"}},{"country":"tw","city":"Chiaochitzu","coordinates":{"lat":"25.0333333","long":"121.8666667"}},{"country":"tw","city":"Chiaohsi","coordinates":{"lat":"24.8166667","long":"121.7666667"}},{"country":"tw","city":"Chiaohsing","coordinates":{"lat":"22.9166667","long":"120.45"}},{"country":"tw","city":"Chiaohsitsun","coordinates":{"lat":"24.85","long":"121.7666667"}},{"country":"tw","city":"Chiaohsitzu","coordinates":{"lat":"25.0333333","long":"121.8666667"}},{"country":"tw","city":"Chiaohsiu","coordinates":{"lat":"23.0333333","long":"120.25"}},{"country":"tw","city":"Chiaoi","coordinates":{"lat":"24.6166667","long":"120.8166667"}},{"country":"tw","city":"Chiaoili","coordinates":{"lat":"24.6166667","long":"120.8166667"}},{"country":"tw","city":"Chiaoipei","coordinates":{"lat":"24.6166667","long":"120.8166667"}},{"country":"tw","city":"Chiaokang","coordinates":{"lat":"24.4333333","long":"120.85"}},{"country":"tw","city":"Chiaokengtzu","coordinates":{"lat":"22.9833333","long":"120.3666667"}},{"country":"tw","city":"Chiaoliao","coordinates":{"lat":"23.4666667","long":"120.45"}},{"country":"tw","city":"Chiaolilin","coordinates":{"lat":"23.15","long":"120.3666667"}},{"country":"tw","city":"Chiaolin","coordinates":{"lat":"24.3666667","long":"120.8333333"}},{"country":"tw","city":"Chiaolinli","coordinates":{"lat":"25.0166667","long":"121.4333333"}},{"country":"tw","city":"Chiaolintsun","coordinates":{"lat":"24.3666667","long":"120.8333333"}},{"country":"tw","city":"Chiaoliping","coordinates":{"lat":"23.5333333","long":"120.6333333"}},{"country":"tw","city":"Chiaolipu","coordinates":{"lat":"24.2833333","long":"120.8"}},{"country":"tw","city":"Chiaopaitsun","coordinates":{"lat":"24.7833333","long":"121.75"}},{"country":"tw","city":"Chiaopan","coordinates":{"lat":"24.8166667","long":"121.35"}},{"country":"tw","city":"Chiaopanhu","coordinates":{"lat":"24.9333333","long":"121.8666667"}},{"country":"tw","city":"Chiaopanshan","coordinates":{"lat":"24.8333333","long":"121.35"}},{"country":"tw","city":"Chiaopanshanshe","coordinates":{"lat":"24.8333333","long":"121.35"}},{"country":"tw","city":"Chiaopanshe","coordinates":{"lat":"24.8333333","long":"121.35"}},{"country":"tw","city":"Chiaopoliao","coordinates":{"lat":"22.8833333","long":"120.4166667"}},{"country":"tw","city":"Chiaopu","coordinates":{"lat":"24.4166667","long":"120.7166667"}},{"country":"tw","city":"Chiaopuli","coordinates":{"lat":"24.4166667","long":"120.7"}},{"country":"tw","city":"Chiaosu","coordinates":{"lat":"22.7666667","long":"120.35"}},{"country":"tw","city":"Chiaosulin","coordinates":{"lat":"24.3666667","long":"120.8333333"}},{"country":"tw","city":"Chiaosutsun","coordinates":{"lat":"22.7666667","long":"120.35"}},{"country":"tw","city":"Chiaotaiwei","coordinates":{"lat":"23.2","long":"120.1333333"}},{"country":"tw","city":"Chiaoting","coordinates":{"lat":"25.1166667","long":"121.7666667"}},{"country":"tw","city":"Chiaotou","coordinates":{"lat":"22.7561111","long":"120.3102778"}},{"country":"tw","city":"Chiaotouhsiang","coordinates":{"lat":"22.7561111","long":"120.3102778"}},{"country":"tw","city":"Chiaotouliao","coordinates":{"lat":"24.2666667","long":"120.6"}},{"country":"tw","city":"Chiaotoutsun","coordinates":{"lat":"23.8","long":"120.2666667"}},{"country":"tw","city":"Chiaotoutzu","coordinates":{"lat":"23.2333333","long":"120.2833333"}},{"country":"tw","city":"Chiaotsun","coordinates":{"lat":"26.25","long":"120.0"}},{"country":"tw","city":"Chiaotung","coordinates":{"lat":"25.0833333","long":"121.6666667"}},{"country":"tw","city":"Chiaotungli","coordinates":{"lat":"25.0833333","long":"121.6666667"}},{"country":"tw","city":"Chiaotzu","coordinates":{"lat":"26.2325","long":"119.9941667"}},{"country":"tw","city":"Chiaotzuchien","coordinates":{"lat":"22.55","long":"120.55"}},{"country":"tw","city":"Chiaotzutou","coordinates":{"lat":"22.7561111","long":"120.3102778"}},{"country":"tw","city":"Chiaotzutsun","coordinates":{"lat":"26.2325","long":"119.9941667"}},{"country":"tw","city":"Chiaowei","coordinates":{"lat":"23.2833333","long":"120.25"}},{"country":"tw","city":"ChiaPa","coordinates":{"lat":"23.14","long":"120.325"}},{"country":"tw","city":"Chiapao","coordinates":{"lat":"24.1333333","long":"120.5"}},{"country":"tw","city":"Chiapaolang","coordinates":{"lat":"22.5666667","long":"120.6"}},{"country":"tw","city":"Chiapaoli","coordinates":{"lat":"24.1333333","long":"120.5"}},{"country":"tw","city":"Chiapaotai","coordinates":{"lat":"24.1833333","long":"121.0"}},{"country":"tw","city":"Chiapaotan","coordinates":{"lat":"24.1333333","long":"120.5"}},{"country":"tw","city":"Chiapaotsun","coordinates":{"lat":"25.1072222","long":"121.34"}},{"country":"tw","city":"Chiaping","coordinates":{"lat":"22.6","long":"120.6833333"}},{"country":"tw","city":"Chiapingtsun","coordinates":{"lat":"22.6","long":"120.6166667"}},{"country":"tw","city":"Chiasenaoshe","coordinates":{"lat":"24.8","long":"121.2666667"}},{"country":"tw","city":"Chiashan","coordinates":{"lat":"24.0333333","long":"121.5833333"}},{"country":"tw","city":"Chiasheng","coordinates":{"lat":"24.5833333","long":"120.8166667"}},{"country":"tw","city":"Chiashengli","coordinates":{"lat":"24.5833333","long":"120.8166667"}},{"country":"tw","city":"Chiashui","coordinates":{"lat":"24.5333333","long":"120.7166667"}},{"country":"tw","city":"Chiatien","coordinates":{"lat":"24.9166667","long":"121.3666667"}},{"country":"tw","city":"Chiatienli","coordinates":{"lat":"24.9166667","long":"121.3666667"}},{"country":"tw","city":"ChiaTienTsun","coordinates":{"lat":"22.7333333","long":"120.25"}},{"country":"tw","city":"Chiatientsun","coordinates":{"lat":"23.3833333","long":"120.3833333"}},{"country":"tw","city":"Chiatoupu","coordinates":{"lat":"23.9","long":"120.7"}},{"country":"tw","city":"Chiatso","coordinates":{"lat":"22.5722222","long":"120.5972222"}},{"country":"tw","city":"Chiatsou","coordinates":{"lat":"23.6666667","long":"120.6666667"}},{"country":"tw","city":"Chiatsouliao","coordinates":{"lat":"23.6666667","long":"120.6666667"}},{"country":"tw","city":"Chiatsouwan","coordinates":{"lat":"23.3166667","long":"121.45"}},{"country":"tw","city":"Chiatsouwanwei","coordinates":{"lat":"23.3166667","long":"121.45"}},{"country":"tw","city":"Chiatsun","coordinates":{"lat":"24.15","long":"120.4833333"}},{"country":"tw","city":"Chiatungchiao","coordinates":{"lat":"22.7833333","long":"120.5"}},{"country":"tw","city":"Chiatung","coordinates":{"lat":"22.4177778","long":"120.5491667"}},{"country":"tw","city":"Chiatungchuang","coordinates":{"lat":"22.4177778","long":"120.5491667"}},{"country":"tw","city":"ChiaTungTsun","coordinates":{"lat":"22.7666667","long":"120.5"}},{"country":"tw","city":"Chiatungwo","coordinates":{"lat":"24.4833333","long":"120.7166667"}},{"country":"tw","city":"Chiatzuchiao","coordinates":{"lat":"22.3333333","long":"120.6333333"}},{"country":"tw","city":"Chiatzutou","coordinates":{"lat":"23.75","long":"120.2833333"}},{"country":"tw","city":"Chiawan","coordinates":{"lat":"24.0833333","long":"121.6"}},{"country":"tw","city":"Chiawanshe","coordinates":{"lat":"24.0833333","long":"121.6"}},{"country":"tw","city":"Chiawei","coordinates":{"lat":"22.75","long":"120.2833333"}},{"country":"tw","city":"Chiaweili","coordinates":{"lat":"22.75","long":"120.2833333"}},{"country":"tw","city":"Chiawu","coordinates":{"lat":"23.0333333","long":"121.1666667"}},{"country":"tw","city":"Chiawuwanshe","coordinates":{"lat":"24.0833333","long":"121.6"}},{"country":"tw","city":"Chiayang","coordinates":{"lat":"23.9833333","long":"120.5166667"}},{"country":"tw","city":"Chiayintsun","coordinates":{"lat":"24.0833333","long":"120.6833333"}},{"country":"tw","city":"Chiayülanshe","coordinates":{"lat":"24.7","long":"121.35"}},{"country":"tw","city":"Chichang","coordinates":{"lat":"24.7666667","long":"121.7666667"}},{"country":"tw","city":"Chichangli","coordinates":{"lat":"23.85","long":"120.5666667"}},{"country":"tw","city":"Chichangtsun","coordinates":{"lat":"24.7666667","long":"121.7666667"}},{"country":"tw","city":"Chichia","coordinates":{"lat":"22.45","long":"120.7"}},{"country":"tw","city":"Chichiao","coordinates":{"lat":"22.9666667","long":"120.3666667"}},{"country":"tw","city":"Chichiaotou","coordinates":{"lat":"23.2813889","long":"120.4672222"}},{"country":"tw","city":"Chichiatsun","coordinates":{"lat":"22.45","long":"120.6333333"}},{"country":"tw","city":"Chichiawei (1)","coordinates":{"lat":"25.2","long":"121.6666667"}},{"country":"tw","city":"Chichiawei (2)","coordinates":{"lat":"25.1833333","long":"121.65"}},{"country":"tw","city":"Chichiawei","coordinates":{"lat":"25.1833333","long":"121.65"}},{"country":"tw","city":"Chichiayang","coordinates":{"lat":"24.4166667","long":"121.5666667"}},{"country":"tw","city":"Chichiayangshe","coordinates":{"lat":"24.4166667","long":"121.5666667"}},{"country":"tw","city":"Chichi","coordinates":{"lat":"23.8275","long":"120.7902778"}},{"country":"tw","city":"Chichieh","coordinates":{"lat":"24.75","long":"121.7333333"}},{"country":"tw","city":"Chichien","coordinates":{"lat":"23.4","long":"120.2166667"}},{"country":"tw","city":"Chichienliao","coordinates":{"lat":"23.2333333","long":"120.1333333"}},{"country":"tw","city":"Chichientso","coordinates":{"lat":"23.4333333","long":"120.5166667"}},{"country":"tw","city":"Chichiko","coordinates":{"lat":"23.4041667","long":"120.4263889"}},{"country":"tw","city":"Chichin","coordinates":{"lat":"22.6127778","long":"120.2680556"}},{"country":"tw","city":"Chiching","coordinates":{"lat":"22.6127778","long":"120.2680556"}},{"country":"tw","city":"Chichou","coordinates":{"lat":"25.0","long":"121.5333333"}},{"country":"tw","city":"Chichou","coordinates":{"lat":"22.4833333","long":"120.5"}},{"country":"tw","city":"Chichouliao","coordinates":{"lat":"23.35","long":"120.2666667"}},{"country":"tw","city":"Chichouli","coordinates":{"lat":"23.4180556","long":"120.3902778"}},{"country":"tw","city":"Chichouti","coordinates":{"lat":"25.1","long":"121.4833333"}},{"country":"tw","city":"Chichoutsun","coordinates":{"lat":"22.5166667","long":"120.4"}},{"country":"tw","city":"Chichoutzu","coordinates":{"lat":"23.4166667","long":"120.4166667"}},{"country":"tw","city":"Chichoutzuliao","coordinates":{"lat":"23.2911111","long":"120.2019444"}},{"country":"tw","city":"Chichoutzuwei","coordinates":{"lat":"24.0","long":"120.6333333"}},{"country":"tw","city":"Chichuantzu","coordinates":{"lat":"23.8166667","long":"120.75"}},{"country":"tw","city":"Chiehchihchiao","coordinates":{"lat":"24.2166667","long":"120.7"}},{"country":"tw","city":"Chiehchih","coordinates":{"lat":"24.8166667","long":"121.0166667"}},{"country":"tw","city":"Chiehchihlu","coordinates":{"lat":"22.1333333","long":"120.7833333"}},{"country":"tw","city":"Chiehholi","coordinates":{"lat":"23.9","long":"120.6833333"}},{"country":"tw","city":"Chiehhou","coordinates":{"lat":"25.0719444","long":"121.6541667"}},{"country":"tw","city":"Chiehhsiaotsun","coordinates":{"lat":"24.35","long":"121.3"}},{"country":"tw","city":"Chiehlao","coordinates":{"lat":"24.0166667","long":"120.6333333"}},{"country":"tw","city":"Chiehlaotsun","coordinates":{"lat":"24.0166667","long":"120.6333333"}},{"country":"tw","city":"Chiehnan","coordinates":{"lat":"24.1","long":"120.5333333"}},{"country":"tw","city":"Chiehnanli","coordinates":{"lat":"24.1","long":"120.5333333"}},{"country":"tw","city":"Chiehpa","coordinates":{"lat":"23.14","long":"120.325"}},{"country":"tw","city":"ChiehPinLi","coordinates":{"lat":"22.8","long":"120.2666667"}},{"country":"tw","city":"Chiehpitsun","coordinates":{"lat":"22.6066667","long":"120.9952778"}},{"country":"tw","city":"Chiehshouting","coordinates":{"lat":"24.0333333","long":"121.1333333"}},{"country":"tw","city":"Chiehshoutsun","coordinates":{"lat":"26.15","long":"119.95"}},{"country":"tw","city":"Chiehtatsun","coordinates":{"lat":"22.5833333","long":"120.8666667"}},{"country":"tw","city":"Chiehtien","coordinates":{"lat":"22.7333333","long":"120.25"}},{"country":"tw","city":"Chiehtientsun","coordinates":{"lat":"22.7333333","long":"120.25"}},{"country":"tw","city":"Chiehting","coordinates":{"lat":"22.9","long":"120.1833333"}},{"country":"tw","city":"Chiehtungchiao","coordinates":{"lat":"22.7833333","long":"120.5"}},{"country":"tw","city":"Chiehtung","coordinates":{"lat":"22.7333333","long":"120.25"}},{"country":"tw","city":"Chiehtung","coordinates":{"lat":"22.7666667","long":"120.5"}},{"country":"tw","city":"Chiehtunghu","coordinates":{"lat":"23.0166667","long":"120.5333333"}},{"country":"tw","city":"Chiehtungkeng","coordinates":{"lat":"22.7333333","long":"120.25"}},{"country":"tw","city":"Chiehtungkeng","coordinates":{"lat":"23.0333333","long":"120.35"}},{"country":"tw","city":"Chiehtungkengtienpao","coordinates":{"lat":"22.7333333","long":"120.25"}},{"country":"tw","city":"Chiehtungli","coordinates":{"lat":"24.1","long":"120.5333333"}},{"country":"tw","city":"Chiehtunglin","coordinates":{"lat":"24.0166667","long":"120.5333333"}},{"country":"tw","city":"Chiehtungtsun","coordinates":{"lat":"22.7666667","long":"120.5"}},{"country":"tw","city":"Chiehtungtzu","coordinates":{"lat":"22.7333333","long":"120.5166667"}},{"country":"tw","city":"Chiehtzu","coordinates":{"lat":"23.85","long":"120.2833333"}},{"country":"tw","city":"Chiehweilun","coordinates":{"lat":"22.7833333","long":"120.3"}},{"country":"tw","city":"Chiehyükeng","coordinates":{"lat":"25.1166667","long":"121.7833333"}},{"country":"tw","city":"Chiekuei","coordinates":{"lat":"23.7666667","long":"120.5166667"}},{"country":"tw","city":"Chienchachan","coordinates":{"lat":"23.6666667","long":"120.8666667"}},{"country":"tw","city":"Chienchashao","coordinates":{"lat":"23.9333333","long":"121.0166667"}},{"country":"tw","city":"Chienchen","coordinates":{"lat":"22.5833333","long":"120.3"}},{"country":"tw","city":"Chiencheng","coordinates":{"lat":"25.05","long":"121.5166667"}},{"country":"tw","city":"Chienchia","coordinates":{"lat":"22.9833333","long":"120.2333333"}},{"country":"tw","city":"Chienchiali","coordinates":{"lat":"22.9833333","long":"120.2333333"}},{"country":"tw","city":"Chienchiang","coordinates":{"lat":"23.4625","long":"120.2111111"}},{"country":"tw","city":"Chienchiaokeng","coordinates":{"lat":"25.0","long":"121.6"}},{"country":"tw","city":"Chienchicheng","coordinates":{"lat":"22.8666667","long":"120.3666667"}},{"country":"tw","city":"Chienchi","coordinates":{"lat":"24.0333333","long":"120.8"}},{"country":"tw","city":"Chienchilu","coordinates":{"lat":"23.9666667","long":"121.0"}},{"country":"tw","city":"Chienching","coordinates":{"lat":"23.7833333","long":"121.4333333"}},{"country":"tw","city":"Chienchingliao","coordinates":{"lat":"23.3833333","long":"120.3333333"}},{"country":"tw","city":"Chienchingli","coordinates":{"lat":"23.7833333","long":"121.4333333"}},{"country":"tw","city":"Chienchingtsun","coordinates":{"lat":"23.7833333","long":"121.4333333"}},{"country":"tw","city":"Chienchinli","coordinates":{"lat":"22.65","long":"120.45"}},{"country":"tw","city":"ChienChiTzu","coordinates":{"lat":"25.0869444","long":"121.7413889"}},{"country":"tw","city":"Chienchiuliao","coordinates":{"lat":"22.8","long":"120.4"}},{"country":"tw","city":"Chienchiutou","coordinates":{"lat":"23.9","long":"120.7"}},{"country":"tw","city":"Chienchoutzu","coordinates":{"lat":"25.2166667","long":"121.4333333"}},{"country":"tw","city":"Chienchowan","coordinates":{"lat":"23.9333333","long":"121.0666667"}},{"country":"tw","city":"Chienchuang","coordinates":{"lat":"22.6166667","long":"120.3833333"}},{"country":"tw","city":"Chienchuangtsun","coordinates":{"lat":"22.6166667","long":"120.3833333"}},{"country":"tw","city":"Chienchuwo","coordinates":{"lat":"24.85","long":"121.0833333"}},{"country":"tw","city":"Chienfan","coordinates":{"lat":"23.8333333","long":"121.35"}},{"country":"tw","city":"Chienfeng","coordinates":{"lat":"22.8","long":"120.2833333"}},{"country":"tw","city":"Chienfengli","coordinates":{"lat":"22.8","long":"120.2833333"}},{"country":"tw","city":"Chienfengtieh","coordinates":{"lat":"24.5333333","long":"120.8666667"}},{"country":"tw","city":"Chienfengtu","coordinates":{"lat":"24.5333333","long":"120.8666667"}},{"country":"tw","city":"Chienfengtzu","coordinates":{"lat":"22.8333333","long":"120.3"}},{"country":"tw","city":"Chienfengwei","coordinates":{"lat":"22.6666667","long":"120.2833333"}},{"country":"tw","city":"Chienho","coordinates":{"lat":"22.7166667","long":"121.05"}},{"country":"tw","city":"Chienhotsun","coordinates":{"lat":"22.7333333","long":"121.05"}},{"country":"tw","city":"Chienhsiali","coordinates":{"lat":"24.6483333","long":"120.885"}},{"country":"tw","city":"Chienhsi","coordinates":{"lat":"24.0333333","long":"120.8"}},{"country":"tw","city":"Chienhsilu","coordinates":{"lat":"23.9666667","long":"121.0"}},{"country":"tw","city":"Chienhsing","coordinates":{"lat":"22.8333333","long":"120.6"}},{"country":"tw","city":"Chienhsingli","coordinates":{"lat":"24.4166667","long":"120.6166667"}},{"country":"tw","city":"Chienhsingtsun","coordinates":{"lat":"22.65","long":"120.55"}},{"country":"tw","city":"Chienhua","coordinates":{"lat":"25.2858333","long":"121.5822222"}},{"country":"tw","city":"Chienhuatsun","coordinates":{"lat":"25.2858333","long":"121.5822222"}},{"country":"tw","city":"Chienkeng","coordinates":{"lat":"24.4","long":"120.8"}},{"country":"tw","city":"Chienkou","coordinates":{"lat":"24.0166667","long":"120.8"}},{"country":"tw","city":"Chienkoutzu","coordinates":{"lat":"24.1666667","long":"120.6666667"}},{"country":"tw","city":"Chienkuei","coordinates":{"lat":"23.7666667","long":"120.5166667"}},{"country":"tw","city":"Chienkung","coordinates":{"lat":"22.4833333","long":"120.55"}},{"country":"tw","city":"Chienkungkuan","coordinates":{"lat":"24.6833333","long":"121.1166667"}},{"country":"tw","city":"Chienkungtsun","coordinates":{"lat":"22.4833333","long":"120.55"}},{"country":"tw","city":"Chienkuoerhhsintsun","coordinates":{"lat":"23.7166667","long":"120.4"}},{"country":"tw","city":"Chienkuoihsintsun","coordinates":{"lat":"23.7166667","long":"120.4166667"}},{"country":"tw","city":"Chienkuosanhsintsun","coordinates":{"lat":"23.7166667","long":"120.3833333"}},{"country":"tw","city":"Chienliao","coordinates":{"lat":"22.7666667","long":"120.2833333"}},{"country":"tw","city":"Chienliaoli","coordinates":{"lat":"23.555","long":"119.5788889"}},{"country":"tw","city":"Chienliaoshe","coordinates":{"lat":"23.55","long":"119.5833333"}},{"country":"tw","city":"Chienlutsun","coordinates":{"lat":"25.2833333","long":"121.5833333"}},{"country":"tw","city":"Chienmin","coordinates":{"lat":"24.0833333","long":"120.7166667"}},{"country":"tw","city":"Chienmintsun","coordinates":{"lat":"24.0833333","long":"120.7166667"}},{"country":"tw","city":"Chienmuping","coordinates":{"lat":"24.5666667","long":"121.4833333"}},{"country":"tw","city":"Chiennan","coordinates":{"lat":"22.7","long":"121.0333333"}},{"country":"tw","city":"Chienniao","coordinates":{"lat":"23.2","long":"120.4833333"}},{"country":"tw","city":"Chienpan","coordinates":{"lat":"23.1666667","long":"120.2333333"}},{"country":"tw","city":"Chienpanchih","coordinates":{"lat":"23.7833333","long":"120.55"}},{"country":"tw","city":"Chienpaokou","coordinates":{"lat":"23.0666667","long":"120.4166667"}},{"country":"tw","city":"Chienpengshan","coordinates":{"lat":"23.5","long":"120.2333333"}},{"country":"tw","city":"Chienping","coordinates":{"lat":"23.9666667","long":"120.3666667"}},{"country":"tw","city":"Chienpingtsun","coordinates":{"lat":"23.9666667","long":"120.3833333"}},{"country":"tw","city":"Chienpiwo","coordinates":{"lat":"24.6833333","long":"121.1166667"}},{"country":"tw","city":"Chienpu","coordinates":{"lat":"24.4325","long":"118.2325"}},{"country":"tw","city":"Chienpu","coordinates":{"lat":"22.05","long":"120.7"}},{"country":"tw","city":"Chienpuliao","coordinates":{"lat":"23.4833333","long":"120.2666667"}},{"country":"tw","city":"Chienputso","coordinates":{"lat":"22.7166667","long":"120.3833333"}},{"country":"tw","city":"Chiensan","coordinates":{"lat":"22.4666667","long":"120.5666667"}},{"country":"tw","city":"Chienshanchiao","coordinates":{"lat":"23.5333333","long":"120.2166667"}},{"country":"tw","city":"Chienshan","coordinates":{"lat":"24.6636111","long":"120.8808333"}},{"country":"tw","city":"Chienshanhsia","coordinates":{"lat":"24.6636111","long":"120.8808333"}},{"country":"tw","city":"Chienshanhu","coordinates":{"lat":"24.9166667","long":"121.75"}},{"country":"tw","city":"Chienshanmen","coordinates":{"lat":"24.4408333","long":"118.3627778"}},{"country":"tw","city":"Chienshanshe","coordinates":{"lat":"23.5666667","long":"119.65"}},{"country":"tw","city":"ChienshanShia","coordinates":{"lat":"24.6636111","long":"120.8808333"}},{"country":"tw","city":"Chienshantsun","coordinates":{"lat":"22.8166667","long":"120.35"}},{"country":"tw","city":"Chienshantzu","coordinates":{"lat":"25.25","long":"121.6166667"}},{"country":"tw","city":"Chienshanwei","coordinates":{"lat":"25.0166667","long":"121.4"}},{"country":"tw","city":"Chienshih","coordinates":{"lat":"24.7","long":"121.2"}},{"country":"tw","city":"Chienshuiliao","coordinates":{"lat":"22.9666667","long":"120.4833333"}},{"country":"tw","city":"Chientan","coordinates":{"lat":"23.1833333","long":"120.2"}},{"country":"tw","city":"Chientanli","coordinates":{"lat":"23.45","long":"120.2833333"}},{"country":"tw","city":"Chientapu","coordinates":{"lat":"23.2663889","long":"120.4447222"}},{"country":"tw","city":"Chienting","coordinates":{"lat":"23.6333333","long":"120.55"}},{"country":"tw","city":"Chientingtsun","coordinates":{"lat":"22.5166667","long":"120.5"}},{"country":"tw","city":"Chientou","coordinates":{"lat":"25.0333333","long":"121.5833333"}},{"country":"tw","city":"Chientoutso","coordinates":{"lat":"23.7166667","long":"120.2833333"}},{"country":"tw","city":"Chientoutzu","coordinates":{"lat":"25.0333333","long":"121.1166667"}},{"country":"tw","city":"Chientso","coordinates":{"lat":"24.4425","long":"118.3316667"}},{"country":"tw","city":"Chientso","coordinates":{"lat":"24.05","long":"120.4333333"}},{"country":"tw","city":"Chientsokeng","coordinates":{"lat":"25.05","long":"121.4"}},{"country":"tw","city":"Chientungchiang","coordinates":{"lat":"23.3833333","long":"120.1833333"}},{"country":"tw","city":"Chientungkang","coordinates":{"lat":"23.3833333","long":"120.1833333"}},{"country":"tw","city":"Chientzuchiang","coordinates":{"lat":"23.4333333","long":"120.25"}},{"country":"tw","city":"Chientzuchiao","coordinates":{"lat":"23.7333333","long":"120.4666667"}},{"country":"tw","city":"Chientzuhsi","coordinates":{"lat":"23.0166667","long":"120.1833333"}},{"country":"tw","city":"Chientzulu","coordinates":{"lat":"25.2833333","long":"121.5833333"}},{"country":"tw","city":"Chientzupu","coordinates":{"lat":"22.85","long":"120.3666667"}},{"country":"tw","city":"Chientzuting","coordinates":{"lat":"24.1666667","long":"120.5166667"}},{"country":"tw","city":"Chienwangssu","coordinates":{"lat":"22.5666667","long":"120.3333333"}},{"country":"tw","city":"Chienweilun","coordinates":{"lat":"25.2166667","long":"121.5166667"}},{"country":"tw","city":"Chienwo","coordinates":{"lat":"24.5","long":"120.7666667"}},{"country":"tw","city":"Chienyao","coordinates":{"lat":"23.1333333","long":"120.2833333"}},{"country":"tw","city":"Chienyehli","coordinates":{"lat":"24.7333333","long":"121.75"}},{"country":"tw","city":"Chienyüku","coordinates":{"lat":"24.9333333","long":"121.7"}},{"country":"tw","city":"Chifankeng","coordinates":{"lat":"25.1166667","long":"121.8333333"}},{"country":"tw","city":"Chifen","coordinates":{"lat":"22.7333333","long":"120.5166667"}},{"country":"tw","city":"Chifeng","coordinates":{"lat":"22.4333333","long":"120.4833333"}},{"country":"tw","city":"Chifengtsun","coordinates":{"lat":"22.4333333","long":"120.4833333"}},{"country":"tw","city":"Chifenliao","coordinates":{"lat":"25.1333333","long":"121.6333333"}},{"country":"tw","city":"Chifentsun","coordinates":{"lat":"22.7333333","long":"120.5166667"}},{"country":"tw","city":"Chifentzu","coordinates":{"lat":"22.7333333","long":"120.5166667"}},{"country":"tw","city":"Chifulayang","coordinates":{"lat":"23.05","long":"121.2833333"}},{"country":"tw","city":"Chifutsun","coordinates":{"lat":"25.1","long":"121.4333333"}},{"country":"tw","city":"Chihaitsun","coordinates":{"lat":"23.9833333","long":"121.1"}},{"country":"tw","city":"Chihanala","coordinates":{"lat":"22.95","long":"121.2333333"}},{"country":"tw","city":"Chihanalatsun","coordinates":{"lat":"22.95","long":"121.2333333"}},{"country":"tw","city":"Chihanlou","coordinates":{"lat":"23.0","long":"120.2"}},{"country":"tw","city":"Chihao","coordinates":{"lat":"23.9","long":"120.4833333"}},{"country":"tw","city":"Chihchia","coordinates":{"lat":"22.2166667","long":"120.7666667"}},{"country":"tw","city":"Chihchialai","coordinates":{"lat":"22.3166667","long":"120.75"}},{"country":"tw","city":"Chihchi","coordinates":{"lat":"24.8166667","long":"121.3666667"}},{"country":"tw","city":"Chihchien","coordinates":{"lat":"22.7302778","long":"120.2497222"}},{"country":"tw","city":"Chihchien","coordinates":{"lat":"22.55","long":"120.4"}},{"country":"tw","city":"Chihchihyashe","coordinates":{"lat":"23.4063889","long":"120.6508333"}},{"country":"tw","city":"Chihchishe","coordinates":{"lat":"24.8333333","long":"121.3833333"}},{"country":"tw","city":"Chihchitzu","coordinates":{"lat":"24.6166667","long":"120.8833333"}},{"country":"tw","city":"Chihchuang","coordinates":{"lat":"23.7666667","long":"120.6"}},{"country":"tw","city":"Chihchuchi","coordinates":{"lat":"22.9","long":"120.4166667"}},{"country":"tw","city":"Chihchu","coordinates":{"lat":"23.5833333","long":"120.2833333"}},{"country":"tw","city":"Chihchumu","coordinates":{"lat":"22.9","long":"120.4166667"}},{"country":"tw","city":"ChihHsiaoTsun","coordinates":{"lat":"23.9","long":"121.55"}},{"country":"tw","city":"Chihhsi","coordinates":{"lat":"23.0919444","long":"120.2605556"}},{"country":"tw","city":"Chihhsitsun","coordinates":{"lat":"23.6","long":"119.5"}},{"country":"tw","city":"Chihhsüeh","coordinates":{"lat":"23.9","long":"121.55"}},{"country":"tw","city":"Chihhsüehtsun","coordinates":{"lat":"23.9","long":"121.55"}},{"country":"tw","city":"Chihhu","coordinates":{"lat":"24.5833333","long":"120.8833333"}},{"country":"tw","city":"Chihi","coordinates":{"lat":"23.0277778","long":"120.3066667"}},{"country":"tw","city":"Chihili","coordinates":{"lat":"23.0277778","long":"120.3066667"}},{"country":"tw","city":"Chihkan","coordinates":{"lat":"22.7302778","long":"120.2497222"}},{"country":"tw","city":"Chihkan","coordinates":{"lat":"21.9833333","long":"120.7333333"}},{"country":"tw","city":"Chihkanlou","coordinates":{"lat":"23.0","long":"120.2"}},{"country":"tw","city":"Chihkanshe","coordinates":{"lat":"23.6666667","long":"119.5833333"}},{"country":"tw","city":"Chihkantou","coordinates":{"lat":"23.65","long":"119.55"}},{"country":"tw","city":"Chihkantsun","coordinates":{"lat":"23.6666667","long":"119.5833333"}},{"country":"tw","city":"Chihkao","coordinates":{"lat":"24.1536111","long":"120.6158333"}},{"country":"tw","city":"Chihkaoliao","coordinates":{"lat":"22.75","long":"120.2333333"}},{"country":"tw","city":"Chihkeng","coordinates":{"lat":"24.4333333","long":"120.7333333"}},{"country":"tw","city":"Chihkoliao","coordinates":{"lat":"24.7833333","long":"121.1"}},{"country":"tw","city":"Chihkoping","coordinates":{"lat":"24.7","long":"121.0"}},{"country":"tw","city":"ChihkoShan","coordinates":{"lat":"24.7666667","long":"121.2"}},{"country":"tw","city":"Chihlachialanshe","coordinates":{"lat":"22.2166667","long":"120.7666667"}},{"country":"tw","city":"Chihlai","coordinates":{"lat":"23.0666667","long":"121.3333333"}},{"country":"tw","city":"Chihlang","coordinates":{"lat":"24.7833333","long":"121.3166667"}},{"country":"tw","city":"Chihlanhu","coordinates":{"lat":"24.0333333","long":"120.7333333"}},{"country":"tw","city":"Chihlankeng","coordinates":{"lat":"23.0","long":"120.3833333"}},{"country":"tw","city":"Chihlanpu","coordinates":{"lat":"23.45","long":"120.5"}},{"country":"tw","city":"Chihliangchieh","coordinates":{"lat":"24.35","long":"121.3"}},{"country":"tw","city":"Chihliaohsia","coordinates":{"lat":"24.6166667","long":"120.9666667"}},{"country":"tw","city":"Chihlo","coordinates":{"lat":"23.45","long":"121.3833333"}},{"country":"tw","city":"Chihlukuko","coordinates":{"lat":"23.1166667","long":"121.3833333"}},{"country":"tw","city":"Chihmatsun","coordinates":{"lat":"23.5833333","long":"119.5"}},{"country":"tw","city":"Chihmui","coordinates":{"lat":"23.0277778","long":"120.3066667"}},{"country":"tw","city":"Chihmuli","coordinates":{"lat":"23.0277778","long":"120.3066667"}},{"country":"tw","city":"Chihnan","coordinates":{"lat":"23.9166667","long":"121.5"}},{"country":"tw","city":"Chihnanshanchuang","coordinates":{"lat":"24.9833333","long":"121.5666667"}},{"country":"tw","city":"Chihnantsun","coordinates":{"lat":"24.9666667","long":"121.5833333"}},{"country":"tw","city":"Chihnantsun","coordinates":{"lat":"23.9166667","long":"121.5"}},{"country":"tw","city":"Chihnao","coordinates":{"lat":"24.6","long":"121.5166667"}},{"country":"tw","city":"Chihniulan","coordinates":{"lat":"24.9833333","long":"121.05"}},{"country":"tw","city":"Chiholi","coordinates":{"lat":"22.85","long":"120.5166667"}},{"country":"tw","city":"Chihou","coordinates":{"lat":"22.6127778","long":"120.2680556"}},{"country":"tw","city":"Chihouting","coordinates":{"lat":"22.6127778","long":"120.2680556"}},{"country":"tw","city":"Chihpao","coordinates":{"lat":"24.9833333","long":"121.2"}},{"country":"tw","city":"Chihpaoli","coordinates":{"lat":"24.9833333","long":"121.2"}},{"country":"tw","city":"Chihpen","coordinates":{"lat":"22.7","long":"121.0333333"}},{"country":"tw","city":"Chihpenhsintsun","coordinates":{"lat":"22.7166667","long":"121.0833333"}},{"country":"tw","city":"Chihpentsun","coordinates":{"lat":"22.7166667","long":"121.05"}},{"country":"tw","city":"Chihpihu","coordinates":{"lat":"25.1388889","long":"121.6505556"}},{"country":"tw","city":"Chihpilun","coordinates":{"lat":"25.0166667","long":"121.7833333"}},{"country":"tw","city":"Chihping","coordinates":{"lat":"25.9666667","long":"119.9666667"}},{"country":"tw","city":"Chihping","coordinates":{"lat":"24.7","long":"121.0"}},{"country":"tw","city":"Chihpokeng","coordinates":{"lat":"24.1","long":"120.8"}},{"country":"tw","city":"Chihshan","coordinates":{"lat":"22.5833333","long":"120.6"}},{"country":"tw","city":"Chihshang","coordinates":{"lat":"23.1166667","long":"121.2"}},{"country":"tw","city":"Chihshanghsiang","coordinates":{"lat":"23.1166667","long":"121.2"}},{"country":"tw","city":"Chihshanhu","coordinates":{"lat":"22.6833333","long":"120.3666667"}},{"country":"tw","city":"Chihshanli","coordinates":{"lat":"25.1","long":"121.5333333"}},{"country":"tw","city":"Chihshanlu","coordinates":{"lat":"22.5166667","long":"120.6166667"}},{"country":"tw","city":"Chihshanmiao","coordinates":{"lat":"23.2166667","long":"120.35"}},{"country":"tw","city":"Chihshantsun","coordinates":{"lat":"22.5833333","long":"120.6"}},{"country":"tw","city":"Chihshantzu","coordinates":{"lat":"22.6833333","long":"120.3333333"}},{"country":"tw","city":"Chihshanyen","coordinates":{"lat":"25.1","long":"121.5166667"}},{"country":"tw","city":"Chihshui","coordinates":{"lat":"23.8666667","long":"120.6166667"}},{"country":"tw","city":"Chihsia","coordinates":{"lat":"23.9666667","long":"120.95"}},{"country":"tw","city":"Chihsiang","coordinates":{"lat":"22.85","long":"120.5333333"}},{"country":"tw","city":"Chihsienli","coordinates":{"lat":"24.7166667","long":"121.7333333"}},{"country":"tw","city":"Chihsientsun","coordinates":{"lat":"24.7166667","long":"121.7166667"}},{"country":"tw","city":"Chihsiku","coordinates":{"lat":"25.1","long":"121.7333333"}},{"country":"tw","city":"ChiHsin","coordinates":{"lat":"23.5","long":"120.5166667"}},{"country":"tw","city":"Chihsing","coordinates":{"lat":"22.8","long":"121.1833333"}},{"country":"tw","city":"Chihsingi","coordinates":{"lat":"23.85","long":"120.5166667"}},{"country":"tw","city":"Chihsingli","coordinates":{"lat":"23.85","long":"120.5166667"}},{"country":"tw","city":"Chihsingtan","coordinates":{"lat":"24.0333333","long":"121.6166667"}},{"country":"tw","city":"Chihsinliao","coordinates":{"lat":"23.0666667","long":"120.1833333"}},{"country":"tw","city":"Chihsinpa","coordinates":{"lat":"24.0833333","long":"120.6333333"}},{"country":"tw","city":"Chihtan (1)","coordinates":{"lat":"24.95","long":"121.5166667"}},{"country":"tw","city":"Chihtan (2)","coordinates":{"lat":"24.9333333","long":"121.65"}},{"country":"tw","city":"Chihtan","coordinates":{"lat":"24.9333333","long":"121.65"}},{"country":"tw","city":"Chihteng","coordinates":{"lat":"24.4333333","long":"120.7333333"}},{"country":"tw","city":"Chihtien","coordinates":{"lat":"23.1166667","long":"121.3833333"}},{"country":"tw","city":"Chihtoutzu","coordinates":{"lat":"23.5833333","long":"120.2833333"}},{"country":"tw","city":"Chihtuan","coordinates":{"lat":"24.65","long":"121.4666667"}},{"country":"tw","city":"Chihtuchi","coordinates":{"lat":"24.0333333","long":"120.5333333"}},{"country":"tw","city":"Chihtungchih","coordinates":{"lat":"23.6","long":"119.5"}},{"country":"tw","city":"Chihtung","coordinates":{"lat":"22.7302778","long":"120.2497222"}},{"country":"tw","city":"Chihtung","coordinates":{"lat":"23.0833333","long":"120.4166667"}},{"country":"tw","city":"Chihtungtsun","coordinates":{"lat":"22.7302778","long":"120.2497222"}},{"country":"tw","city":"Chihtungtsun","coordinates":{"lat":"23.6","long":"119.5"}},{"country":"tw","city":"Chihtushan","coordinates":{"lat":"23.4833333","long":"121.5"}},{"country":"tw","city":"Chihtzutou","coordinates":{"lat":"24.9833333","long":"121.6333333"}},{"country":"tw","city":"Chihu","coordinates":{"lat":"23.9605556","long":"120.48"}},{"country":"tw","city":"Chihuchuang","coordinates":{"lat":"23.9605556","long":"120.48"}},{"country":"tw","city":"Chihui","coordinates":{"lat":"23.1166667","long":"121.3833333"}},{"country":"tw","city":"Chihutsun","coordinates":{"lat":"22.4666667","long":"120.5833333"}},{"country":"tw","city":"Chihutzu","coordinates":{"lat":"23.8833333","long":"120.4333333"}},{"country":"tw","city":"Chihya","coordinates":{"lat":"23.4063889","long":"120.6508333"}},{"country":"tw","city":"Chijui","coordinates":{"lat":"23.7833333","long":"120.7"}},{"country":"tw","city":"Chikan","coordinates":{"lat":"22.95","long":"120.25"}},{"country":"tw","city":"Chikantou","coordinates":{"lat":"23.2","long":"120.5"}},{"country":"tw","city":"Chikantso","coordinates":{"lat":"22.5166667","long":"120.5333333"}},{"country":"tw","city":"Chikeng","coordinates":{"lat":"25.1","long":"121.7833333"}},{"country":"tw","city":"Chikokunshe","coordinates":{"lat":"22.45","long":"120.7"}},{"country":"tw","city":"Chikotangshan","coordinates":{"lat":"22.45","long":"120.7"}},{"country":"tw","city":"Chikou","coordinates":{"lat":"22.4666667","long":"120.5"}},{"country":"tw","city":"Chikouli","coordinates":{"lat":"23.4833333","long":"120.2666667"}},{"country":"tw","city":"Chikoupinan","coordinates":{"lat":"23.0333333","long":"121.2833333"}},{"country":"tw","city":"Chikoutsun","coordinates":{"lat":"22.4666667","long":"120.5"}},{"country":"tw","city":"Chikoutzu","coordinates":{"lat":"24.05","long":"120.4666667"}},{"country":"tw","city":"Chikuaitso","coordinates":{"lat":"22.4833333","long":"120.4833333"}},{"country":"tw","city":"Chikuanliao","coordinates":{"lat":"24.0833333","long":"120.4666667"}},{"country":"tw","city":"Chiku","coordinates":{"lat":"25.1833333","long":"121.5666667"}},{"country":"tw","city":"Chiku","coordinates":{"lat":"23.1352778","long":"120.1308333"}},{"country":"tw","city":"Chikueikeng","coordinates":{"lat":"24.35","long":"120.7666667"}},{"country":"tw","city":"Chikulin","coordinates":{"lat":"24.45","long":"120.8833333"}},{"country":"tw","city":"Chikutsun","coordinates":{"lat":"23.1352778","long":"120.1308333"}},{"country":"tw","city":"Chilan","coordinates":{"lat":"23.05","long":"121.2833333"}},{"country":"tw","city":"Chilao","coordinates":{"lat":"22.7666667","long":"120.4833333"}},{"country":"tw","city":"Chilaoli","coordinates":{"lat":"22.7666667","long":"120.4833333"}},{"country":"tw","city":"Chilaotsun","coordinates":{"lat":"22.7666667","long":"120.4833333"}},{"country":"tw","city":"Chilaoyeh","coordinates":{"lat":"22.6166667","long":"120.3333333"}},{"country":"tw","city":"Chilaoyen","coordinates":{"lat":"22.6166667","long":"120.3333333"}},{"country":"tw","city":"Chilian","coordinates":{"lat":"25.11","long":"121.5027778"}},{"country":"tw","city":"Chiliao","coordinates":{"lat":"22.5166667","long":"120.5666667"}},{"country":"tw","city":"Chiliaotsun","coordinates":{"lat":"22.6333333","long":"120.4166667"}},{"country":"tw","city":"Chili","coordinates":{"lat":"25.1333333","long":"121.5"}},{"country":"tw","city":"Chilin","coordinates":{"lat":"23.1","long":"121.35"}},{"country":"tw","city":"Chiling","coordinates":{"lat":"23.0666667","long":"120.4666667"}},{"country":"tw","city":"Chilinkeng","coordinates":{"lat":"23.9666667","long":"120.6166667"}},{"country":"tw","city":"Chilintsun","coordinates":{"lat":"25.0166667","long":"121.8666667"}},{"country":"tw","city":"Chilinwei","coordinates":{"lat":"22.8166667","long":"120.4"}},{"country":"tw","city":"Chiliu","coordinates":{"lat":"22.8","long":"120.3666667"}},{"country":"tw","city":"Chiliwa","coordinates":{"lat":"23.1166667","long":"120.4166667"}},{"country":"tw","city":"Chilo","coordinates":{"lat":"22.8786111","long":"120.1911111"}},{"country":"tw","city":"Chilou","coordinates":{"lat":"22.8786111","long":"120.1911111"}},{"country":"tw","city":"Chilung","coordinates":{"lat":"24.6833333","long":"121.1166667"}},{"country":"tw","city":"Chilungkang","coordinates":{"lat":"24.85","long":"121.1666667"}},{"country":"tw","city":"Chilungkeng","coordinates":{"lat":"24.85","long":"121.1666667"}},{"country":"tw","city":"Chilungshan","coordinates":{"lat":"23.85","long":"120.7666667"}},{"country":"tw","city":"Chilungshih","coordinates":{"lat":"25.1313889","long":"121.7375"}},{"country":"tw","city":"Chimawan","coordinates":{"lat":"23.5833333","long":"119.5"}},{"country":"tw","city":"Chimei","coordinates":{"lat":"22.5666667","long":"120.6166667"}},{"country":"tw","city":"Chimeili","coordinates":{"lat":"23.1558333","long":"120.2847222"}},{"country":"tw","city":"Chimeitsun","coordinates":{"lat":"23.5","long":"121.4333333"}},{"country":"tw","city":"Chimi","coordinates":{"lat":"23.5","long":"121.4333333"}},{"country":"tw","city":"Chimuling","coordinates":{"lat":"25.0833333","long":"121.8833333"}},{"country":"tw","city":"Chimuwu","coordinates":{"lat":"23.5333333","long":"119.5833333"}},{"country":"tw","city":"China","coordinates":{"lat":"23.0333333","long":"121.2833333"}},{"country":"tw","city":"Chinaitsun","coordinates":{"lat":"23.9833333","long":"121.0833333"}},{"country":"tw","city":"Chinalayang","coordinates":{"lat":"23.05","long":"121.2833333"}},{"country":"tw","city":"Chinan","coordinates":{"lat":"23.1333333","long":"120.1166667"}},{"country":"tw","city":"Chinanliao","coordinates":{"lat":"23.0833333","long":"120.1333333"}},{"country":"tw","city":"Chinantsun","coordinates":{"lat":"23.1333333","long":"120.1166667"}},{"country":"tw","city":"Chinanwo","coordinates":{"lat":"24.8666667","long":"121.05"}},{"country":"tw","city":"Chinapeinan","coordinates":{"lat":"23.0333333","long":"121.2833333"}},{"country":"tw","city":"Chincheng","coordinates":{"lat":"24.4366667","long":"118.3183333"}},{"country":"tw","city":"Chinchiang","coordinates":{"lat":"24.2166667","long":"120.5833333"}},{"country":"tw","city":"Chinchiangli","coordinates":{"lat":"24.2166667","long":"120.5833333"}},{"country":"tw","city":"Chinchiaochai","coordinates":{"lat":"23.3833333","long":"120.45"}},{"country":"tw","city":"Chinchiaochaishan","coordinates":{"lat":"23.3833333","long":"120.45"}},{"country":"tw","city":"Chinchiaowan","coordinates":{"lat":"21.9166667","long":"120.8333333"}},{"country":"tw","city":"Chinchihu","coordinates":{"lat":"24.9","long":"121.2166667"}},{"country":"tw","city":"Chinchinglin","coordinates":{"lat":"23.4166667","long":"120.1833333"}},{"country":"tw","city":"Chinchüanyang","coordinates":{"lat":"24.0166667","long":"120.5166667"}},{"country":"tw","city":"Chinchünyang","coordinates":{"lat":"24.0166667","long":"120.5166667"}},{"country":"tw","city":"Chinei","coordinates":{"lat":"23.3833333","long":"120.4666667"}},{"country":"tw","city":"Chineili","coordinates":{"lat":"23.3833333","long":"120.4666667"}},{"country":"tw","city":"Chineipo","coordinates":{"lat":"24.3166667","long":"121.7333333"}},{"country":"tw","city":"Chineiposhe","coordinates":{"lat":"24.3166667","long":"121.7333333"}},{"country":"tw","city":"Chineishe","coordinates":{"lat":"24.7833333","long":"121.3666667"}},{"country":"tw","city":"Chinfeng","coordinates":{"lat":"22.5947222","long":"120.9605556"}},{"country":"tw","city":"Chinfentsun","coordinates":{"lat":"24.0","long":"120.6166667"}},{"country":"tw","city":"Chingan","coordinates":{"lat":"23.9333333","long":"120.5166667"}},{"country":"tw","city":"Chinganli","coordinates":{"lat":"23.5166667","long":"119.5666667"}},{"country":"tw","city":"Chingantsun","coordinates":{"lat":"24.4166667","long":"120.9333333"}},