[{"country":"cu","city":"2 da Palma","coordinates":{"lat":"22.2166667","long":"-80.2666667"}},{"country":"cu","city":"Abajo","coordinates":{"lat":"22.9666667","long":"-82.65"}},{"country":"cu","city":"Abajo","coordinates":{"lat":"20.1616667","long":"-75.49"}},{"country":"cu","city":"Abascal","coordinates":{"lat":"23.05","long":"-81.8666667"}},{"country":"cu","city":"Abelardo","coordinates":{"lat":"21.4333333","long":"-77.0166667"}},{"country":"cu","city":"Abel Santa María","coordinates":{"lat":"23.0169444","long":"-82.4013889"}},{"country":"cu","city":"Abel Santamaría","coordinates":{"lat":"22.6","long":"-79.85"}},{"country":"cu","city":"Abra de Caiguanab","coordinates":{"lat":"22.6666667","long":"-83.4833333"}},{"country":"cu","city":"Abra de Caiguanabo","coordinates":{"lat":"22.6666667","long":"-83.4833333"}},{"country":"cu","city":"Abra de Castellon","coordinates":{"lat":"22.2","long":"-80.15"}},{"country":"cu","city":"Abraham Lincoln","coordinates":{"lat":"22.7997222","long":"-82.7966667"}},{"country":"cu","city":"Abreu","coordinates":{"lat":"22.5333333","long":"-80.9833333"}},{"country":"cu","city":"Abreu","coordinates":{"lat":"22.2775","long":"-80.5675"}},{"country":"cu","city":"Abreu","coordinates":{"lat":"22.75","long":"-82.5833333"}},{"country":"cu","city":"Abreus","coordinates":{"lat":"22.2775","long":"-80.5675"}},{"country":"cu","city":"Abundancia","coordinates":{"lat":"20.2441667","long":"-75.7322222"}},{"country":"cu","city":"Acana","coordinates":{"lat":"22.9008333","long":"-81.5402778"}},{"country":"cu","city":"Achotal","coordinates":{"lat":"20.3833333","long":"-75.3333333"}},{"country":"cu","city":"Achuris","coordinates":{"lat":"22.7736111","long":"-81.1913889"}},{"country":"cu","city":"Acosta","coordinates":{"lat":"21.9","long":"-78.2333333"}},{"country":"cu","city":"Acosta","coordinates":{"lat":"22.9666667","long":"-82.2666667"}},{"country":"cu","city":"Acosta","coordinates":{"lat":"20.95","long":"-77.1333333"}},{"country":"cu","city":"Acuario","coordinates":{"lat":"22.9311111","long":"-81.0605556"}},{"country":"cu","city":"Acueducto","coordinates":{"lat":"22.7166667","long":"-82.3"}},{"country":"cu","city":"Aculadero","coordinates":{"lat":"22.3833333","long":"-80.9166667"}},{"country":"cu","city":"Aculadero","coordinates":{"lat":"22.3666667","long":"-80.9"}},{"country":"cu","city":"Adam","coordinates":{"lat":"21.1813889","long":"-77.02"}},{"country":"cu","city":"Adela","coordinates":{"lat":"21.785","long":"-78.2766667"}},{"country":"cu","city":"Adela","coordinates":{"lat":"20.9166667","long":"-77.2333333"}},{"country":"cu","city":"Adela","coordinates":{"lat":"22.3833333","long":"-79.5"}},{"country":"cu","city":"Adelaida","coordinates":{"lat":"23.0","long":"-82.3833333"}},{"country":"cu","city":"Adelaida","coordinates":{"lat":"22.3333333","long":"-80.3333333"}},{"country":"cu","city":"Adelaida","coordinates":{"lat":"20.1636111","long":"-75.6625"}},{"country":"cu","city":"Adelaida","coordinates":{"lat":"22.5166667","long":"-79.55"}},{"country":"cu","city":"Adelita","coordinates":{"lat":"21.9913889","long":"-78.9786111"}},{"country":"cu","city":"Administración","coordinates":{"lat":"22.25","long":"-78.8666667"}},{"country":"cu","city":"Admiración","coordinates":{"lat":"22.9044444","long":"-81.0622222"}},{"country":"cu","city":"Adrián Martínez","coordinates":{"lat":"22.4","long":"-80.5833333"}},{"country":"cu","city":"Aflige","coordinates":{"lat":"20.6333333","long":"-75.2333333"}},{"country":"cu","city":"Aflije","coordinates":{"lat":"20.6333333","long":"-75.2333333"}},{"country":"cu","city":"Aflijes","coordinates":{"lat":"20.6333333","long":"-75.2333333"}},{"country":"cu","city":"Africana","coordinates":{"lat":"20.0","long":"-75.5833333"}},{"country":"cu","city":"Agabama","coordinates":{"lat":"22.1277778","long":"-79.7513889"}},{"country":"cu","city":"Agapito","coordinates":{"lat":"20.2333333","long":"-75.4166667"}},{"country":"cu","city":"Agramonte","coordinates":{"lat":"22.6761111","long":"-81.1163889"}},{"country":"cu","city":"Agramonte","coordinates":{"lat":"20.9","long":"-77.9166667"}},{"country":"cu","city":"Agraria","coordinates":{"lat":"22.7166667","long":"-82.3666667"}},{"country":"cu","city":"Agromar","coordinates":{"lat":"23.1444444","long":"-82.1666667"}},{"country":"cu","city":"Agua","coordinates":{"lat":"21.7","long":"-77.5333333"}},{"country":"cu","city":"Agua","coordinates":{"lat":"21.75","long":"-79.6611111"}},{"country":"cu","city":"Aguacate","coordinates":{"lat":"22.4333333","long":"-83.5333333"}},{"country":"cu","city":"Aguacate","coordinates":{"lat":"22.6333333","long":"-81.0166667"}},{"country":"cu","city":"Aguacate","coordinates":{"lat":"21.1","long":"-77.5"}},{"country":"cu","city":"Aguacate","coordinates":{"lat":"22.0333333","long":"-78.6666667"}},{"country":"cu","city":"Aguacate","coordinates":{"lat":"21.9186111","long":"-80.0763889"}},{"country":"cu","city":"Aguacate","coordinates":{"lat":"22.75","long":"-82.85"}},{"country":"cu","city":"Aguacate","coordinates":{"lat":"20.125","long":"-75.6325"}},{"country":"cu","city":"Aguacate","coordinates":{"lat":"22.64","long":"-80.105"}},{"country":"cu","city":"Aguacatico","coordinates":{"lat":"21.8833333","long":"-78.15"}},{"country":"cu","city":"Aguada","coordinates":{"lat":"22.385","long":"-80.8508333"}},{"country":"cu","city":"Aguada","coordinates":{"lat":"22.2627778","long":"-79.1091667"}},{"country":"cu","city":"Aguada","coordinates":{"lat":"22.7025","long":"-79.6941667"}},{"country":"cu","city":"Aguada de Bueyes","coordinates":{"lat":"20.0813889","long":"-75.2294444"}},{"country":"cu","city":"Aguada de Carillo","coordinates":{"lat":"22.3333333","long":"-79.4333333"}},{"country":"cu","city":"Aguada de Carrillo","coordinates":{"lat":"22.2261111","long":"-79.1627778"}},{"country":"cu","city":"Aguada de los Bueyes","coordinates":{"lat":"20.0813889","long":"-75.2294444"}},{"country":"cu","city":"Aguada de Mayo","coordinates":{"lat":"22.5544444","long":"-79.7230556"}},{"country":"cu","city":"Aguada de Moya","coordinates":{"lat":"22.5544444","long":"-79.7230556"}},{"country":"cu","city":"Aguada de Pasajeros","coordinates":{"lat":"22.385","long":"-80.8508333"}},{"country":"cu","city":"Aguada de Pasajeros","coordinates":{"lat":"22.2547222","long":"-79.1125"}},{"country":"cu","city":"Aguada de Piedra","coordinates":{"lat":"21.1","long":"-75.85"}},{"country":"cu","city":"Aguadita","coordinates":{"lat":"21.91","long":"-78.7897222"}},{"country":"cu","city":"Aguadita","coordinates":{"lat":"22.4","long":"-80.2"}},{"country":"cu","city":"Agua Dulce","coordinates":{"lat":"22.7833333","long":"-83.5166667"}},{"country":"cu","city":"Aguakate","coordinates":{"lat":"21.9186111","long":"-80.0763889"}},{"country":"cu","city":"Aguanta","coordinates":{"lat":"20.2833333","long":"-74.45"}},{"country":"cu","city":"Agua Santa","coordinates":{"lat":"22.22","long":"-79.0777778"}},{"country":"cu","city":"Aguas Azules","coordinates":{"lat":"22.4166667","long":"-79.6"}},{"country":"cu","city":"Aguas Blancas","coordinates":{"lat":"20.9333333","long":"-77.1166667"}},{"country":"cu","city":"Aguas Claras","coordinates":{"lat":"22.2216667","long":"-83.3897222"}},{"country":"cu","city":"Aguas Claras","coordinates":{"lat":"20.9611111","long":"-76.27"}},{"country":"cu","city":"Aguas Dulces","coordinates":{"lat":"22.3166667","long":"-80.8333333"}},{"country":"cu","city":"Aguas Gordas","coordinates":{"lat":"21.0827778","long":"-75.7161111"}},{"country":"cu","city":"Aguas Nuevas","coordinates":{"lat":"22.8269444","long":"-81.1647222"}},{"country":"cu","city":"Aguedita","coordinates":{"lat":"22.6855556","long":"-80.7586111"}},{"country":"cu","city":"Aguedita","coordinates":{"lat":"22.0166667","long":"-78.7333333"}},{"country":"cu","city":"Aguiar","coordinates":{"lat":"22.65","long":"-80.75"}},{"country":"cu","city":"Agüica","coordinates":{"lat":"22.6861111","long":"-80.8191667"}},{"country":"cu","city":"Agüica Nueva","coordinates":{"lat":"22.6861111","long":"-80.8191667"}},{"country":"cu","city":"Aguijón","coordinates":{"lat":"22.4833333","long":"-79.7833333"}},{"country":"cu","city":"Águila","coordinates":{"lat":"23.0333333","long":"-82.2666667"}},{"country":"cu","city":"Águila","coordinates":{"lat":"20.0833333","long":"-77.25"}},{"country":"cu","city":"Aguilar","coordinates":{"lat":"22.785","long":"-81.2283333"}},{"country":"cu","city":"Aguilar","coordinates":{"lat":"21.0241667","long":"-78.0719444"}},{"country":"cu","city":"Aguilar","coordinates":{"lat":"21.2272222","long":"-77.0505556"}},{"country":"cu","city":"Aguilera","coordinates":{"lat":"20.3","long":"-76.7833333"}},{"country":"cu","city":"Aguillita","coordinates":{"lat":"22.4333333","long":"-83.5333333"}},{"country":"cu","city":"Ahocinado","coordinates":{"lat":"22.85","long":"-83.3166667"}},{"country":"cu","city":"Ahocinado","coordinates":{"lat":"22.4333333","long":"-79.95"}},{"country":"cu","city":"Aida","coordinates":{"lat":"22.3333333","long":"-83.6833333"}},{"country":"cu","city":"Aida","coordinates":{"lat":"21.6833333","long":"-77.5166667"}},{"country":"cu","city":"Aimanitas","coordinates":{"lat":"23.09","long":"-82.4827778"}},{"country":"cu","city":"Aita","coordinates":{"lat":"21.2833333","long":"-76.9833333"}},{"country":"cu","city":"Aizcorbe","coordinates":{"lat":"22.7333333","long":"-82.95"}},{"country":"cu","city":"Ajiconal","coordinates":{"lat":"22.4666667","long":"-83.6"}},{"country":"cu","city":"Ajuria","coordinates":{"lat":"22.4833333","long":"-80.3"}},{"country":"cu","city":"Alacranes","coordinates":{"lat":"22.7675","long":"-81.5675"}},{"country":"cu","city":"Alamar","coordinates":{"lat":"23.1583333","long":"-82.2769444"}},{"country":"cu","city":"Alambique","coordinates":{"lat":"22.8333333","long":"-81.4666667"}},{"country":"cu","city":"Alambique","coordinates":{"lat":"21.4","long":"-77.8833333"}},{"country":"cu","city":"Alambre","coordinates":{"lat":"20.2391667","long":"-75.9519444"}},{"country":"cu","city":"Alameda del Siboney","coordinates":{"lat":"23.0752778","long":"-82.4794444"}},{"country":"cu","city":"Alamero","coordinates":{"lat":"22.9833333","long":"-80.95"}},{"country":"cu","city":"Álara","coordinates":{"lat":"22.3333333","long":"-80.6833333"}},{"country":"cu","city":"Alazán","coordinates":{"lat":"21.0986111","long":"-78.3108333"}},{"country":"cu","city":"Alba","coordinates":{"lat":"21.7166667","long":"-78.7166667"}},{"country":"cu","city":"Albaisa","coordinates":{"lat":"21.4333333","long":"-77.85"}},{"country":"cu","city":"Albertina","coordinates":{"lat":"21.7880556","long":"-78.855"}},{"country":"cu","city":"Alcalá","coordinates":{"lat":"20.8444444","long":"-76.0166667"}},{"country":"cu","city":"Alcalá","coordinates":{"lat":"21.0166667","long":"-76.8"}},{"country":"cu","city":"Alcancía","coordinates":{"lat":"22.8397222","long":"-81.5580556"}},{"country":"cu","city":"Alcantarilla","coordinates":{"lat":"22.25","long":"-79.7833333"}},{"country":"cu","city":"Alcantarrilla","coordinates":{"lat":"22.25","long":"-79.7833333"}},{"country":"cu","city":"Alcranes","coordinates":{"lat":"22.7675","long":"-81.5675"}},{"country":"cu","city":"Aldabó","coordinates":{"lat":"23.0594444","long":"-82.3797222"}},{"country":"cu","city":"Alday","coordinates":{"lat":"23.05","long":"-82.3833333"}},{"country":"cu","city":"Aldaz","coordinates":{"lat":"22.8166667","long":"-79.9666667"}},{"country":"cu","city":"Aldecoa","coordinates":{"lat":"23.1166667","long":"-82.4"}},{"country":"cu","city":"Alegría","coordinates":{"lat":"22.6333333","long":"-79.8833333"}},{"country":"cu","city":"Alegría del Pío","coordinates":{"lat":"19.9","long":"-77.5166667"}},{"country":"cu","city":"Alegría de Pío","coordinates":{"lat":"19.9","long":"-77.5166667"}},{"country":"cu","city":"Alegrías","coordinates":{"lat":"22.0333333","long":"-78.6"}},{"country":"cu","city":"Aleida","coordinates":{"lat":"22.8391667","long":"-81.8177778"}},{"country":"cu","city":"Alejandrina","coordinates":{"lat":"22.4166667","long":"-80.8"}},{"country":"cu","city":"Alejandrina Lamas","coordinates":{"lat":"22.4166667","long":"-80.8"}},{"country":"cu","city":"Alemania","coordinates":{"lat":"22.1333333","long":"-80.6166667"}},{"country":"cu","city":"Alexis","coordinates":{"lat":"22.3","long":"-83.7666667"}},{"country":"cu","city":"Alfaro","coordinates":{"lat":"22.75","long":"-82.4333333"}},{"country":"cu","city":"Alfonsito","coordinates":{"lat":"21.0483333","long":"-76.3997222"}},{"country":"cu","city":"Alfonso XII","coordinates":{"lat":"22.7675","long":"-81.5675"}},{"country":"cu","city":"Algaba","coordinates":{"lat":"21.8666667","long":"-79.8333333"}},{"country":"cu","city":"Algarroba","coordinates":{"lat":"21.4730556","long":"-78.0769444"}},{"country":"cu","city":"Algarrobo","coordinates":{"lat":"22.35","long":"-83.8166667"}},{"country":"cu","city":"Algarrobo","coordinates":{"lat":"22.4666667","long":"-81.15"}},{"country":"cu","city":"Algarrobo","coordinates":{"lat":"21.4730556","long":"-78.0769444"}},{"country":"cu","city":"Algarrobo","coordinates":{"lat":"22.8166667","long":"-82.5166667"}},{"country":"cu","city":"Algarrobo","coordinates":{"lat":"21.9736111","long":"-79.8805556"}},{"country":"cu","city":"Algodonal","coordinates":{"lat":"20.35","long":"-77.0333333"}},{"country":"cu","city":"Algodones","coordinates":{"lat":"22.2425","long":"-80.6277778"}},{"country":"cu","city":"Algorta","coordinates":{"lat":"22.8672222","long":"-81.0263889"}},{"country":"cu","city":"Alicante","coordinates":{"lat":"21.9833333","long":"-79.4"}},{"country":"cu","city":"Alicia","coordinates":{"lat":"21.7333333","long":"-78.75"}},{"country":"cu","city":"Alito","coordinates":{"lat":"21.6247222","long":"-78.2619444"}},{"country":"cu","city":"Almacén","coordinates":{"lat":"22.3833333","long":"-83.2833333"}},{"country":"cu","city":"Almácigos","coordinates":{"lat":"22.3833333","long":"-83.5"}},{"country":"cu","city":"Almagro","coordinates":{"lat":"22.7916667","long":"-81.2113889"}},{"country":"cu","city":"Almanza","coordinates":{"lat":"23.0666667","long":"-81.4166667"}},{"country":"cu","city":"Almeida","coordinates":{"lat":"22.7333333","long":"-82.4"}},{"country":"cu","city":"Almendares","coordinates":{"lat":"23.1144444","long":"-82.4116667"}},{"country":"cu","city":"Almendares","coordinates":{"lat":"21.2041667","long":"-77.0291667"}},{"country":"cu","city":"Almendrina","coordinates":{"lat":"22.1683333","long":"-80.6777778"}},{"country":"cu","city":"Almendrita","coordinates":{"lat":"22.1683333","long":"-80.6777778"}},{"country":"cu","city":"Almendro","coordinates":{"lat":"22.9191667","long":"-81.5416667"}},{"country":"cu","city":"Almengo","coordinates":{"lat":"20.85","long":"-76.5666667"}},{"country":"cu","city":"Almiquí","coordinates":{"lat":"22.2833333","long":"-80.85"}},{"country":"cu","city":"Almiquí","coordinates":{"lat":"20.8","long":"-77.5833333"}},{"country":"cu","city":"Almiquí","coordinates":{"lat":"22.3538889","long":"-79.1794444"}},{"country":"cu","city":"Almirante","coordinates":{"lat":"20.9430556","long":"-76.1886111"}},{"country":"cu","city":"Alonso","coordinates":{"lat":"22.9833333","long":"-80.9"}},{"country":"cu","city":"Alonso","coordinates":{"lat":"21.7333333","long":"-78.3666667"}},{"country":"cu","city":"Alonso","coordinates":{"lat":"22.0280556","long":"-79.7536111"}},{"country":"cu","city":"Alonso de Rojas","coordinates":{"lat":"22.3233333","long":"-83.4255556"}},{"country":"cu","city":"Alonso Rojas","coordinates":{"lat":"22.3233333","long":"-83.4255556"}},{"country":"cu","city":"Alonzo","coordinates":{"lat":"21.7166667","long":"-78.35"}},{"country":"cu","city":"Alquízar","coordinates":{"lat":"22.8058333","long":"-82.5841667"}},{"country":"cu","city":"Altagracia","coordinates":{"lat":"21.45","long":"-77.75"}},{"country":"cu","city":"Altagracia","coordinates":{"lat":"22.0666667","long":"-79.7666667"}},{"country":"cu","city":"Altagracia","coordinates":{"lat":"19.9677778","long":"-75.5391667"}},{"country":"cu","city":"Alta Habana","coordinates":{"lat":"23.0625","long":"-82.3952778"}},{"country":"cu","city":"Altamira","coordinates":{"lat":"21.2388889","long":"-78.3672222"}},{"country":"cu","city":"Altamira","coordinates":{"lat":"21.9477778","long":"-78.9741667"}},{"country":"cu","city":"Altamisal","coordinates":{"lat":"22.8166667","long":"-80.9833333"}},{"country":"cu","city":"Alto Cedro","coordinates":{"lat":"20.5166667","long":"-75.9666667"}},{"country":"cu","city":"Alto Cedro","coordinates":{"lat":"22.0333333","long":"-79.0333333"}},{"country":"cu","city":"Alto de Chiquero","coordinates":{"lat":"20.4616667","long":"-76.9075"}},{"country":"cu","city":"Alto de Jó","coordinates":{"lat":"20.1166667","long":"-77.2833333"}},{"country":"cu","city":"Alto del Ciego","coordinates":{"lat":"20.85","long":"-77.35"}},{"country":"cu","city":"Alto del Mango","coordinates":{"lat":"20.3166667","long":"-75.1333333"}},{"country":"cu","city":"Alto del Villalón","coordinates":{"lat":"20.0666667","long":"-75.7"}},{"country":"cu","city":"Alto de Villalón","coordinates":{"lat":"20.0666667","long":"-75.7"}},{"country":"cu","city":"Alto Songo","coordinates":{"lat":"20.1702778","long":"-75.7052778"}},{"country":"cu","city":"Alto Songo","coordinates":{"lat":"22.5269444","long":"-79.9130556"}},{"country":"cu","city":"Alto Ubero","coordinates":{"lat":"22.8166667","long":"-79.9333333"}},{"country":"cu","city":"Altuna","coordinates":{"lat":"20.9833333","long":"-75.9166667"}},{"country":"cu","city":"Alturas Arroyo Apolo","coordinates":{"lat":"23.0738889","long":"-82.3541667"}},{"country":"cu","city":"Alturas de Belén","coordinates":{"lat":"23.0927778","long":"-82.4130556"}},{"country":"cu","city":"Alturas de Bellavista","coordinates":{"lat":"23.0166667","long":"-82.35"}},{"country":"cu","city":"Alturas de Cubanacán","coordinates":{"lat":"23.0833333","long":"-82.4666667"}},{"country":"cu","city":"Alturas de la Coronela","coordinates":{"lat":"23.0666667","long":"-82.4666667"}},{"country":"cu","city":"Alturas de la Habana","coordinates":{"lat":"23.05","long":"-82.4"}},{"country":"cu","city":"Alturas de la Víbora","coordinates":{"lat":"23.0583333","long":"-82.3752778"}},{"country":"cu","city":"Alturas del San Juan","coordinates":{"lat":"21.5","long":"-78.2"}},{"country":"cu","city":"Alturas del Vedado","coordinates":{"lat":"23.1119444","long":"-82.4005556"}},{"country":"cu","city":"Alturas de Marbella","coordinates":{"lat":"23.1555556","long":"-82.1652778"}},{"country":"cu","city":"Alturas de Miramar","coordinates":{"lat":"23.1166667","long":"-82.4166667"}},{"country":"cu","city":"Alturas de Villa María","coordinates":{"lat":"23.0930556","long":"-82.2844444"}},{"country":"cu","city":"Alturas Vibora","coordinates":{"lat":"23.0583333","long":"-82.3752778"}},{"country":"cu","city":"Aluja","coordinates":{"lat":"22.5813889","long":"-80.5925"}},{"country":"cu","city":"Álvarez","coordinates":{"lat":"20.2166667","long":"-75.4666667"}},{"country":"cu","city":"Álvarez","coordinates":{"lat":"22.8152778","long":"-81.8894444"}},{"country":"cu","city":"Álvarez","coordinates":{"lat":"21.15","long":"-76.9166667"}},{"country":"cu","city":"Álvarez","coordinates":{"lat":"22.6166667","long":"-80.2"}},{"country":"cu","city":"Alvaro Reinoso","coordinates":{"lat":"21.3955556","long":"-77.1711111"}},{"country":"cu","city":"Alvisia","coordinates":{"lat":"21.4333333","long":"-77.85"}},{"country":"cu","city":"Amador","coordinates":{"lat":"22.6","long":"-80.7666667"}},{"country":"cu","city":"Amalia","coordinates":{"lat":"22.3833333","long":"-80.3833333"}},{"country":"cu","city":"Amancio","coordinates":{"lat":"20.8225","long":"-77.5786111"}},{"country":"cu","city":"Amancio Rodríguez","coordinates":{"lat":"20.8225","long":"-77.5786111"}},{"country":"cu","city":"Amansa Guapos","coordinates":{"lat":"21.2833333","long":"-78.2166667"}},{"country":"cu","city":"Amarillas","coordinates":{"lat":"22.4772222","long":"-80.9138889"}},{"country":"cu","city":"Amarillo","coordinates":{"lat":"22.0666667","long":"-78.4666667"}},{"country":"cu","city":"Amarito","coordinates":{"lat":"20.1333333","long":"-76.1833333"}},{"country":"cu","city":"Amaro","coordinates":{"lat":"22.8166667","long":"-82.4833333"}},{"country":"cu","city":"Amaro","coordinates":{"lat":"22.6794444","long":"-80.1447222"}},{"country":"cu","city":"Amazonas","coordinates":{"lat":"21.6833333","long":"-79.4394444"}},{"country":"cu","city":"Amelia","coordinates":{"lat":"21.3816667","long":"-78.2238889"}},{"country":"cu","city":"Amelia","coordinates":{"lat":"21.0177778","long":"-75.6694444"}},{"country":"cu","city":"Amelia","coordinates":{"lat":"20.3833333","long":"-75.6666667"}},{"country":"cu","city":"Amelia del Retiro","coordinates":{"lat":"22.2333333","long":"-83.7666667"}},{"country":"cu","city":"América","coordinates":{"lat":"22.5894444","long":"-83.4147222"}},{"country":"cu","city":"América","coordinates":{"lat":"23.0166667","long":"-82.3666667"}},{"country":"cu","city":"América","coordinates":{"lat":"22.75","long":"-81.0"}},{"country":"cu","city":"América","coordinates":{"lat":"21.7166667","long":"-78.55"}},{"country":"cu","city":"América","coordinates":{"lat":"19.9375","long":"-75.5922222"}},{"country":"cu","city":"América","coordinates":{"lat":"22.1833333","long":"-79.65"}},{"country":"cu","city":"América Libre","coordinates":{"lat":"20.2902778","long":"-76.2291667"}},{"country":"cu","city":"Amigos","coordinates":{"lat":"20.7469444","long":"-76.42"}},{"country":"cu","city":"Amistad","coordinates":{"lat":"22.9502778","long":"-81.0163889"}},{"country":"cu","city":"Amistad","coordinates":{"lat":"22.8227778","long":"-82.5775"}},{"country":"cu","city":"Amparo","coordinates":{"lat":"22.8188889","long":"-81.0338889"}},{"country":"cu","city":"Amparo","coordinates":{"lat":"20.95","long":"-76.25"}},{"country":"cu","city":"Amparo Caridad","coordinates":{"lat":"21.7427778","long":"-78.8594444"}},{"country":"cu","city":"Amparo y Caridad","coordinates":{"lat":"21.7427778","long":"-78.8594444"}},{"country":"cu","city":"Ampliacion Almendares","coordinates":{"lat":"23.1","long":"-82.4333333"}},{"country":"cu","city":"Ampliación de Almendares","coordinates":{"lat":"23.1","long":"-82.4333333"}},{"country":"cu","city":"Ampliación de Arroyo","coordinates":{"lat":"23.0469444","long":"-82.4672222"}},{"country":"cu","city":"Ampliación de Cruz Verde","coordinates":{"lat":"23.05","long":"-82.2666667"}},{"country":"cu","city":"Ampliación de Mulgoba","coordinates":{"lat":"22.9833333","long":"-82.3666667"}},{"country":"cu","city":"Ampliación Rosario","coordinates":{"lat":"23.0475","long":"-82.3586111"}},{"country":"cu","city":"Anafe","coordinates":{"lat":"22.9572222","long":"-82.5694444"}},{"country":"cu","city":"Añana","coordinates":{"lat":"22.35","long":"-80.7666667"}},{"country":"cu","city":"Anaya","coordinates":{"lat":"22.35","long":"-80.5"}},{"country":"cu","city":"Ancón","coordinates":{"lat":"22.15","long":"-80.7833333"}},{"country":"cu","city":"Ancora","coordinates":{"lat":"22.4166667","long":"-79.9833333"}},{"country":"cu","city":"Andrea","coordinates":{"lat":"22.8","long":"-81.3333333"}},{"country":"cu","city":"Andreíta","coordinates":{"lat":"22.2166667","long":"-78.8"}},{"country":"cu","city":"Andreíta","coordinates":{"lat":"22.3166667","long":"-80.2666667"}},{"country":"cu","city":"Andrés","coordinates":{"lat":"22.8333333","long":"-82.5333333"}},{"country":"cu","city":"Andresia","coordinates":{"lat":"22.65","long":"-83.25"}},{"country":"cu","city":"Andresillo","coordinates":{"lat":"22.1166667","long":"-84.2166667"}},{"country":"cu","city":"Andrés Vaillant","coordinates":{"lat":"20.3","long":"-75.9666667"}},{"country":"cu","city":"Angeles","coordinates":{"lat":"20.8680556","long":"-76.9769444"}},{"country":"cu","city":"Angélica","coordinates":{"lat":"21.9061111","long":"-78.9241667"}},{"country":"cu","city":"Angelida","coordinates":{"lat":"21.9061111","long":"-78.9241667"}},{"country":"cu","city":"Angelita","coordinates":{"lat":"22.4166667","long":"-80.8833333"}},{"country":"cu","city":"Angelita","coordinates":{"lat":"21.6666667","long":"-78.55"}},{"country":"cu","city":"Angelita","coordinates":{"lat":"22.8738889","long":"-81.9286111"}},{"country":"cu","city":"Angelita","coordinates":{"lat":"21.1566667","long":"-76.3538889"}},{"country":"cu","city":"Angelita","coordinates":{"lat":"22.35","long":"-80.2166667"}},{"country":"cu","city":"Angosta","coordinates":{"lat":"22.9847222","long":"-82.795"}},{"country":"cu","city":"Angostura","coordinates":{"lat":"22.65","long":"-80.8833333"}},{"country":"cu","city":"Angostura","coordinates":{"lat":"20.2333333","long":"-76.7833333"}},{"country":"cu","city":"Angostura","coordinates":{"lat":"22.7333333","long":"-82.5833333"}},{"country":"cu","city":"Anguila","coordinates":{"lat":"21.65","long":"-77.5666667"}},{"country":"cu","city":"Anguila","coordinates":{"lat":"21.0652778","long":"-76.6180556"}},{"country":"cu","city":"Anguillero","coordinates":{"lat":"22.1983333","long":"-78.8175"}},{"country":"cu","city":"Angustia","coordinates":{"lat":"22.6166667","long":"-83.2833333"}},{"country":"cu","city":"Aniceto","coordinates":{"lat":"22.3166667","long":"-83.8333333"}},{"country":"cu","city":"Anita","coordinates":{"lat":"22.3666667","long":"-80.95"}},{"country":"cu","city":"Anita","coordinates":{"lat":"22.8666667","long":"-82.6666667"}},{"country":"cu","city":"Anita","coordinates":{"lat":"22.45","long":"-79.9666667"}},{"country":"cu","city":"Anoncillo","coordinates":{"lat":"21.0333333","long":"-77.35"}},{"country":"cu","city":"Anoncillo","coordinates":{"lat":"21.0805556","long":"-76.3375"}},{"country":"cu","city":"Anseimo","coordinates":{"lat":"23.05","long":"-82.1166667"}},{"country":"cu","city":"Ansorandia","coordinates":{"lat":"21.6733333","long":"-78.3380556"}},{"country":"cu","city":"Antigua","coordinates":{"lat":"21.1775","long":"-78.2666667"}},{"country":"cu","city":"Antigua Saratoga","coordinates":{"lat":"22.8575","long":"-81.4247222"}},{"country":"cu","city":"Antiguo Berrocal","coordinates":{"lat":"20.9666667","long":"-77.35"}},{"country":"cu","city":"Antiguo Central de Santa Lucía","coordinates":{"lat":"22.7419444","long":"-82.3347222"}},{"country":"cu","city":"Antiguo Central Santa Lucia","coordinates":{"lat":"22.7419444","long":"-82.3347222"}},{"country":"cu","city":"Antiguo Ingenio","coordinates":{"lat":"22.7333333","long":"-82.1333333"}},{"country":"cu","city":"Antiguo Ingenio Averhoff","coordinates":{"lat":"22.9833333","long":"-81.85"}},{"country":"cu","city":"Antilla","coordinates":{"lat":"20.8308333","long":"-75.7361111"}},{"country":"cu","city":"Antón","coordinates":{"lat":"22.5494444","long":"-80.7302778"}},{"country":"cu","city":"Antón Díaz","coordinates":{"lat":"22.4130556","long":"-80.0219444"}},{"country":"cu","city":"Antonia","coordinates":{"lat":"22.8733333","long":"-81.0691667"}},{"country":"cu","city":"Antonia Rosa","coordinates":{"lat":"22.5833333","long":"-79.6833333"}},{"country":"cu","city":"Antoñica","coordinates":{"lat":"22.2666667","long":"-83.65"}},{"country":"cu","city":"Antoñica","coordinates":{"lat":"22.5","long":"-80.0"}},{"country":"cu","city":"Antoñico","coordinates":{"lat":"22.9833333","long":"-82.55"}},{"country":"cu","city":"Antonio Blanco","coordinates":{"lat":"22.35","long":"-79.4166667"}},{"country":"cu","city":"Antonio Fabián","coordinates":{"lat":"22.6666667","long":"-81.6"}},{"country":"cu","city":"Antonio Guiteras","coordinates":{"lat":"22.1166667","long":"-81.0166667"}},{"country":"cu","city":"Antonio Hernández","coordinates":{"lat":"22.8","long":"-81.3"}},{"country":"cu","city":"Antonio Maceo","coordinates":{"lat":"22.2166667","long":"-80.7333333"}},{"country":"cu","city":"Antonio Maceo","coordinates":{"lat":"20.05","long":"-76.9666667"}},{"country":"cu","city":"Antonio Maceo","coordinates":{"lat":"22.95","long":"-82.5166667"}},{"country":"cu","city":"Antonio Maceo","coordinates":{"lat":"20.7533333","long":"-76.4863889"}},{"country":"cu","city":"Antonio Maceo","coordinates":{"lat":"19.9802778","long":"-75.8441667"}},{"country":"cu","city":"Antonio Ramos","coordinates":{"lat":"22.2833333","long":"-80.85"}},{"country":"cu","city":"Antonio Sanchez","coordinates":{"lat":"22.2666667","long":"-80.8666667"}},{"country":"cu","city":"Antonio Telles","coordinates":{"lat":"21.8672222","long":"-78.8180556"}},{"country":"cu","city":"Antón Recio","coordinates":{"lat":"22.1761111","long":"-80.6197222"}},{"country":"cu","city":"Antón Sánchez","coordinates":{"lat":"20.1666667","long":"-77.2333333"}},{"country":"cu","city":"Antún","coordinates":{"lat":"22.2716667","long":"-84.26"}},{"country":"cu","city":"Antunes","coordinates":{"lat":"22.2716667","long":"-84.26"}},{"country":"cu","city":"Antúnez","coordinates":{"lat":"22.2716667","long":"-84.26"}},{"country":"cu","city":"Anzorandia","coordinates":{"lat":"21.6733333","long":"-78.3380556"}},{"country":"cu","city":"Aparicio","coordinates":{"lat":"22.4833333","long":"-80.1833333"}},{"country":"cu","city":"Apeadero de Laurita","coordinates":{"lat":"21.7833333","long":"-77.9166667"}},{"country":"cu","city":"A. Perez","coordinates":{"lat":"22.8","long":"-80.2833333"}},{"country":"cu","city":"Apodaca","coordinates":{"lat":"22.8683333","long":"-81.1763889"}},{"country":"cu","city":"Apolinao","coordinates":{"lat":"20.05","long":"-77.45"}},{"country":"cu","city":"Apolo","coordinates":{"lat":"23.0833333","long":"-82.3666667"}},{"country":"cu","city":"Apolo","coordinates":{"lat":"22.9366667","long":"-81.6416667"}},{"country":"cu","city":"Aqua La Bella","coordinates":{"lat":"20.0813889","long":"-75.2294444"}},{"country":"cu","city":"Araca","coordinates":{"lat":"21.8166667","long":"-79.8333333"}},{"country":"cu","city":"Aracelia","coordinates":{"lat":"22.5333333","long":"-83.6"}},{"country":"cu","city":"Arango","coordinates":{"lat":"23.0811111","long":"-82.1827778"}},{"country":"cu","city":"Arango","coordinates":{"lat":"22.4166667","long":"-80.9333333"}},{"country":"cu","city":"Arango","coordinates":{"lat":"21.7738889","long":"-78.925"}},{"country":"cu","city":"Arango","coordinates":{"lat":"22.3833333","long":"-80.6666667"}},{"country":"cu","city":"Arango","coordinates":{"lat":"20.55","long":"-75.9666667"}},{"country":"cu","city":"Aranguito","coordinates":{"lat":"23.0666667","long":"-82.1833333"}},{"country":"cu","city":"Aranguito","coordinates":{"lat":"22.7666667","long":"-82.1166667"}},{"country":"cu","city":"Aranjuez","coordinates":{"lat":"22.45","long":"-80.9333333"}},{"country":"cu","city":"Araucana","coordinates":{"lat":"21.2","long":"-77.5666667"}},{"country":"cu","city":"Araujo","coordinates":{"lat":"22.5744444","long":"-80.9425"}},{"country":"cu","city":"Araujo","coordinates":{"lat":"22.6333333","long":"-79.8833333"}},{"country":"cu","city":"Arboleda","coordinates":{"lat":"22.25","long":"-80.35"}},{"country":"cu","city":"Arce","coordinates":{"lat":"20.85","long":"-77.2166667"}},{"country":"cu","city":"Arco Iris","coordinates":{"lat":"22.7972222","long":"-81.3877778"}},{"country":"cu","city":"Arcos de Canasí","coordinates":{"lat":"23.1125","long":"-81.7813889"}},{"country":"cu","city":"Arday","coordinates":{"lat":"23.05","long":"-82.3833333"}},{"country":"cu","city":"Arena","coordinates":{"lat":"20.3258333","long":"-74.9044444"}},{"country":"cu","city":"Arenal","coordinates":{"lat":"23.0333333","long":"-82.4166667"}},{"country":"cu","city":"Arenal","coordinates":{"lat":"20.3258333","long":"-74.9044444"}},{"country":"cu","city":"Argeo Martínez","coordinates":{"lat":"20.2044444","long":"-75.1766667"}},{"country":"cu","city":"Arias","coordinates":{"lat":"20.3","long":"-76.55"}},{"country":"cu","city":"Arias","coordinates":{"lat":"20.7333333","long":"-75.6"}},{"country":"cu","city":"Ariguanabo","coordinates":{"lat":"22.9366667","long":"-82.5497222"}},{"country":"cu","city":"Arimao","coordinates":{"lat":"23.0602778","long":"-82.4480556"}},{"country":"cu","city":"Arimao","coordinates":{"lat":"22.0769444","long":"-80.3119444"}},{"country":"cu","city":"Ariosa","coordinates":{"lat":"22.2863889","long":"-79.4844444"}},{"country":"cu","city":"Arístides","coordinates":{"lat":"22.8","long":"-80.2833333"}},{"country":"cu","city":"Ariza","coordinates":{"lat":"22.2761111","long":"-80.4805556"}},{"country":"cu","city":"Armantina","coordinates":{"lat":"22.9166667","long":"-80.8"}},{"country":"cu","city":"Armantina","coordinates":{"lat":"22.1402778","long":"-78.8047222"}},{"country":"cu","city":"Armas","coordinates":{"lat":"22.5633333","long":"-80.8605556"}},{"country":"cu","city":"Armas","coordinates":{"lat":"21.8333333","long":"-78.1"}},{"country":"cu","city":"Armenteros","coordinates":{"lat":"22.8555556","long":"-81.9880556"}},{"country":"cu","city":"Armona","coordinates":{"lat":"23.0425","long":"-81.7472222"}},{"country":"cu","city":"Armonía","coordinates":{"lat":"22.7380556","long":"-81.4716667"}},{"country":"cu","city":"Armonía","coordinates":{"lat":"22.7669444","long":"-81.8338889"}},{"country":"cu","city":"Aróstegui","coordinates":{"lat":"21.85","long":"-77.95"}},{"country":"cu","city":"Arredondo","coordinates":{"lat":"21.05","long":"-78.2"}},{"country":"cu","city":"Arrieta","coordinates":{"lat":"22.7666667","long":"-80.9"}},{"country":"cu","city":"Arrieta","coordinates":{"lat":"22.3333333","long":"-80.4"}},{"country":"cu","city":"Arriete","coordinates":{"lat":"22.3333333","long":"-80.4"}},{"country":"cu","city":"Arroceras Garatas","coordinates":{"lat":"20.1666667","long":"-77.0666667"}},{"country":"cu","city":"Arroyo Agua","coordinates":{"lat":"20.1441667","long":"-75.7722222"}},{"country":"cu","city":"Arroyo Apolo","coordinates":{"lat":"23.0738889","long":"-82.3541667"}},{"country":"cu","city":"Arroyo Arenas","coordinates":{"lat":"23.0469444","long":"-82.4672222"}},{"country":"cu","city":"Arroyo Blanco","coordinates":{"lat":"20.9038889","long":"-77.8055556"}},{"country":"cu","city":"Arroyo Blanco","coordinates":{"lat":"20.25","long":"-76.4833333"}},{"country":"cu","city":"Arroyo Blanco","coordinates":{"lat":"20.2311111","long":"-74.9925"}},{"country":"cu","city":"Arroyo Blanco","coordinates":{"lat":"20.5833333","long":"-75.15"}},{"country":"cu","city":"Arroyo Blanco","coordinates":{"lat":"22.0347222","long":"-79.0847222"}},{"country":"cu","city":"Arroyo Blanco","coordinates":{"lat":"20.1897222","long":"-75.7538889"}},{"country":"cu","city":"Arroyo Blanco del Norro","coordinates":{"lat":"20.9038889","long":"-77.8055556"}},{"country":"cu","city":"Arroyo Colorado","coordinates":{"lat":"22.25","long":"-80.15"}},{"country":"cu","city":"Arroyo de Agua","coordinates":{"lat":"22.5833333","long":"-83.5166667"}},{"country":"cu","city":"Arroyo de Agua","coordinates":{"lat":"20.1441667","long":"-75.7722222"}},{"country":"cu","city":"Arroyo de Caimito","coordinates":{"lat":"22.9","long":"-82.3666667"}},{"country":"cu","city":"Arroyo del Agua","coordinates":{"lat":"22.5833333","long":"-83.5166667"}},{"country":"cu","city":"Arroyo del Estero","coordinates":{"lat":"20.7166667","long":"-77.6833333"}},{"country":"cu","city":"Arroyo del Medio","coordinates":{"lat":"21.0666667","long":"-75.7333333"}},{"country":"cu","city":"Arroyo de Piedra","coordinates":{"lat":"22.8833333","long":"-83.3166667"}},{"country":"cu","city":"Arroyo Enmedio","coordinates":{"lat":"20.6166667","long":"-75.7"}},{"country":"cu","city":"Arroyo Frío","coordinates":{"lat":"22.45","long":"-79.7166667"}},{"country":"cu","city":"Arroyo Grande","coordinates":{"lat":"22.4833333","long":"-83.5833333"}},{"country":"cu","city":"Arroyo Hicacos","coordinates":{"lat":"22.4666667","long":"-83.4"}},{"country":"cu","city":"Arroyo Hondo","coordinates":{"lat":"21.0166667","long":"-77.7333333"}},{"country":"cu","city":"Arroyo Hondo","coordinates":{"lat":"20.1063889","long":"-75.1255556"}},{"country":"cu","city":"Arroyo La Barreta","coordinates":{"lat":"22.2","long":"-79.8666667"}},{"country":"cu","city":"Arroyo Mamacas","coordinates":{"lat":"22.4833333","long":"-83.5333333"}},{"country":"cu","city":"Arroyo Mamacos","coordinates":{"lat":"22.4833333","long":"-83.5333333"}},{"country":"cu","city":"Arroyo Muerto","coordinates":{"lat":"20.9180556","long":"-76.7961111"}},{"country":"cu","city":"Arroyo Naranjo","coordinates":{"lat":"23.0361111","long":"-82.3716667"}},{"country":"cu","city":"Arroyón","coordinates":{"lat":"21.1666667","long":"-76.4255556"}},{"country":"cu","city":"Arroyón de Flores","coordinates":{"lat":"20.9333333","long":"-75.8333333"}},{"country":"cu","city":"Arroyo Negro","coordinates":{"lat":"20.0827778","long":"-75.4241667"}},{"country":"cu","city":"Arroyo Prieto","coordinates":{"lat":"20.4166667","long":"-77.8333333"}},{"country":"cu","city":"Arroyo Prieto","coordinates":{"lat":"22.3072222","long":"-79.0027778"}},{"country":"cu","city":"Arroyo Prieto Uno","coordinates":{"lat":"22.2836111","long":"-78.9438889"}},{"country":"cu","city":"Arroyos","coordinates":{"lat":"22.3455556","long":"-84.3788889"}},{"country":"cu","city":"Arroyos de Mantua","coordinates":{"lat":"22.3455556","long":"-84.3788889"}},{"country":"cu","city":"Arroyo Seco","coordinates":{"lat":"21.0419444","long":"-76.3991667"}},{"country":"cu","city":"Arroyo Seco","coordinates":{"lat":"22.1333333","long":"-79.7875"}},{"country":"cu","city":"Arroz","coordinates":{"lat":"20.35","long":"-76.9333333"}},{"country":"cu","city":"Arsenio Moreno","coordinates":{"lat":"22.7","long":"-79.8666667"}},{"country":"cu","city":"Artemisa","coordinates":{"lat":"22.6311111","long":"-80.5936111"}},{"country":"cu","city":"Artemisa","coordinates":{"lat":"22.8130556","long":"-82.7619444"}},{"country":"cu","city":"Artiles","coordinates":{"lat":"22.5666667","long":"-80.1666667"}},{"country":"cu","city":"Artime","coordinates":{"lat":"19.9866667","long":"-75.9230556"}},{"country":"cu","city":"Artimes","coordinates":{"lat":"19.9866667","long":"-75.9230556"}},{"country":"cu","city":"Asentista","coordinates":{"lat":"22.9666667","long":"-82.95"}},{"country":"cu","city":"Aserradero","coordinates":{"lat":"22.0177778","long":"-79.9897222"}},{"country":"cu","city":"Asiento","coordinates":{"lat":"21.75","long":"-78.7333333"}},{"country":"cu","city":"Asiento Camarones","coordinates":{"lat":"23.1","long":"-82.2"}},{"country":"cu","city":"Asiento de Camarones","coordinates":{"lat":"23.1","long":"-82.2"}},{"country":"cu","city":"Asiento de la Catalina","coordinates":{"lat":"22.7","long":"-83.4166667"}},{"country":"cu","city":"Asiento de Majibacoa","coordinates":{"lat":"20.9272222","long":"-76.7069444"}},{"country":"cu","city":"Asiento Majiboca","coordinates":{"lat":"20.9272222","long":"-76.7069444"}},{"country":"cu","city":"Asiento Queimado","coordinates":{"lat":"20.65","long":"-76.8"}},{"country":"cu","city":"Asiento Santo Thomãs","coordinates":{"lat":"22.4008333","long":"-81.4538889"}},{"country":"cu","city":"Asiento Viejo","coordinates":{"lat":"22.3","long":"-83.4166667"}},{"country":"cu","city":"Asilo Juan","coordinates":{"lat":"21.6166667","long":"-77.45"}},{"country":"cu","city":"Aspiro","coordinates":{"lat":"22.7027778","long":"-83.1688889"}},{"country":"cu","city":"Astray","coordinates":{"lat":"20.4833333","long":"-76.7833333"}},{"country":"cu","city":"Asturias","coordinates":{"lat":"22.3333333","long":"-80.7333333"}},{"country":"cu","city":"Asunción","coordinates":{"lat":"22.3166667","long":"-80.8166667"}},{"country":"cu","city":"Asunción","coordinates":{"lat":"22.5","long":"-80.15"}},{"country":"cu","city":"Atabey","coordinates":{"lat":"23.0730556","long":"-82.4641667"}},{"country":"cu","city":"Ato-V'yekho","coordinates":{"lat":"22.1730556","long":"-84.2388889"}},{"country":"cu","city":"Atrevido","coordinates":{"lat":"23.0333333","long":"-82.4666667"}},{"country":"cu","city":"Atrevido","coordinates":{"lat":"22.7833333","long":"-81.4833333"}},{"country":"cu","city":"Audaz","coordinates":{"lat":"22.9","long":"-81.2833333"}},{"country":"cu","city":"Auras","coordinates":{"lat":"21.0219444","long":"-76.2341667"}},{"country":"cu","city":"Aurelio","coordinates":{"lat":"20.0833333","long":"-77.5"}},{"country":"cu","city":"Aurelio Boza","coordinates":{"lat":"21.2872222","long":"-77.0797222"}},{"country":"cu","city":"Aurelio Pérez","coordinates":{"lat":"22.9111111","long":"-81.8427778"}},{"country":"cu","city":"Aurora","coordinates":{"lat":"22.7597222","long":"-81.1516667"}},{"country":"cu","city":"Aurora","coordinates":{"lat":"21.2833333","long":"-77.5666667"}},{"country":"cu","city":"Aurora","coordinates":{"lat":"21.85","long":"-78.65"}},{"country":"cu","city":"Aurora","coordinates":{"lat":"22.3833333","long":"-79.7333333"}},{"country":"cu","city":"Australia","coordinates":{"lat":"22.5008333","long":"-81.1361111"}},{"country":"cu","city":"Australia","coordinates":{"lat":"20.1063889","long":"-75.5322222"}},{"country":"cu","city":"Auxilio","coordinates":{"lat":"22.7666667","long":"-82.8"}},{"country":"cu","city":"Auza","coordinates":{"lat":"20.2666667","long":"-75.8833333"}},{"country":"cu","city":"Avala","coordinates":{"lat":"22.8969444","long":"-82.0138889"}},{"country":"cu","city":"Avelina","coordinates":{"lat":"22.3833333","long":"-79.6166667"}},{"country":"cu","city":"Ave María","coordinates":{"lat":"21.5166667","long":"-77.6833333"}},{"country":"cu","city":"Ave María","coordinates":{"lat":"22.7966667","long":"-81.8936111"}},{"country":"cu","city":"Ávila","coordinates":{"lat":"21.15","long":"-77.0"}},{"country":"cu","city":"Avilés","coordinates":{"lat":"22.5666667","long":"-79.7333333"}},{"country":"cu","city":"Avispero","coordinates":{"lat":"20.35","long":"-75.1333333"}},{"country":"cu","city":"Ayagán","coordinates":{"lat":"22.5583333","long":"-79.9216667"}},{"country":"cu","city":"Ayala","coordinates":{"lat":"22.8969444","long":"-82.0138889"}},{"country":"cu","city":"Ayerbe","coordinates":{"lat":"22.5833333","long":"-83.5"}},{"country":"cu","city":"Azanza","coordinates":{"lat":"21.1833333","long":"-76.9"}},{"country":"cu","city":"Azotea","coordinates":{"lat":"23.1163889","long":"-82.3144444"}},{"country":"cu","city":"Azucena","coordinates":{"lat":"22.5666667","long":"-83.45"}},{"country":"cu","city":"Babiney","coordinates":{"lat":"21.9733333","long":"-84.0333333"}},{"country":"cu","city":"Babiney","coordinates":{"lat":"22.83","long":"-81.5838889"}},{"country":"cu","city":"Babiney","coordinates":{"lat":"22.1694444","long":"-80.8041667"}},{"country":"cu","city":"Babiney","coordinates":{"lat":"20.4833333","long":"-76.5"}},{"country":"cu","city":"Babiney","coordinates":{"lat":"22.885","long":"-82.2725"}},{"country":"cu","city":"Babiney Colorado","coordinates":{"lat":"20.8833333","long":"-77.6166667"}},{"country":"cu","city":"Babiney Colorado","coordinates":{"lat":"20.2436111","long":"-75.2455556"}},{"country":"cu","city":"Babineyes","coordinates":{"lat":"21.9666667","long":"-84.0166667"}},{"country":"cu","city":"Babujales","coordinates":{"lat":"22.4725","long":"-81.0583333"}},{"country":"cu","city":"Bacajagua","coordinates":{"lat":"19.9230556","long":"-75.6341667"}},{"country":"cu","city":"Bacallao","coordinates":{"lat":"22.7033333","long":"-80.9588889"}},{"country":"cu","city":"Bachicha","coordinates":{"lat":"23.1166667","long":"-81.2833333"}},{"country":"cu","city":"Baconao","coordinates":{"lat":"19.9122222","long":"-75.4447222"}},{"country":"cu","city":"Bacuino de Galí","coordinates":{"lat":"21.8333333","long":"-79.3833333"}},{"country":"cu","city":"Bacuino de Reyes","coordinates":{"lat":"21.85","long":"-79.35"}},{"country":"cu","city":"Bacunagua","coordinates":{"lat":"22.6216667","long":"-83.1922222"}},{"country":"cu","city":"Bacunayagua","coordinates":{"lat":"23.1430556","long":"-81.675"}},{"country":"cu","city":"Bacuranao","coordinates":{"lat":"23.1286111","long":"-82.2455556"}},{"country":"cu","city":"Badón","coordinates":{"lat":"22.8","long":"-82.7333333"}},{"country":"cu","city":"Báes","coordinates":{"lat":"22.2163889","long":"-79.7547222"}},{"country":"cu","city":"Báez","coordinates":{"lat":"22.2163889","long":"-79.7547222"}},{"country":"cu","city":"Bagá","coordinates":{"lat":"21.9713889","long":"-84.1230556"}},{"country":"cu","city":"Bagá","coordinates":{"lat":"20.7","long":"-75.9333333"}},{"country":"cu","city":"Bagatela","coordinates":{"lat":"22.8333333","long":"-82.5666667"}},{"country":"cu","city":"Bagazar","coordinates":{"lat":"22.1833333","long":"-84.1166667"}},{"country":"cu","city":"Báguano","coordinates":{"lat":"20.7488889","long":"-76.0258333"}},{"country":"cu","city":"Báguanos","coordinates":{"lat":"20.7488889","long":"-76.0258333"}},{"country":"cu","city":"Bahia","coordinates":{"lat":"23.1333333","long":"-82.3"}},{"country":"cu","city":"Bahía Honda","coordinates":{"lat":"22.9036111","long":"-83.1591667"}},{"country":"cu","city":"Bahuma Flete","coordinates":{"lat":"22.7808333","long":"-82.0602778"}},{"country":"cu","city":"Bainoa","coordinates":{"lat":"23.0183333","long":"-81.9413889"}},{"country":"cu","city":"Baire Abajo","coordinates":{"lat":"20.3833333","long":"-76.2833333"}},{"country":"cu","city":"Baire","coordinates":{"lat":"20.1833333","long":"-75.4333333"}},{"country":"cu","city":"Baire","coordinates":{"lat":"20.2408333","long":"-75.9747222"}},{"country":"cu","city":"Baire El Santo","coordinates":{"lat":"20.35","long":"-76.2833333"}},{"country":"cu","city":"Baire Santo","coordinates":{"lat":"20.35","long":"-76.2833333"}},{"country":"cu","city":"Baitiquirí","coordinates":{"lat":"20.0327778","long":"-74.8638889"}},{"country":"cu","city":"Baitiqurí","coordinates":{"lat":"20.0327778","long":"-74.8638889"}},{"country":"cu","city":"Baja","coordinates":{"lat":"22.5716667","long":"-84.095"}},{"country":"cu","city":"Bajada","coordinates":{"lat":"22.45","long":"-79.5833333"}},{"country":"cu","city":"Bajura","coordinates":{"lat":"23.1319444","long":"-82.1783333"}},{"country":"cu","city":"Bajurayabo","coordinates":{"lat":"23.1319444","long":"-82.1783333"}},{"country":"cu","city":"Bakonao","coordinates":{"lat":"19.9122222","long":"-75.4447222"}},{"country":"cu","city":"Balastera","coordinates":{"lat":"21.3333333","long":"-77.8333333"}},{"country":"cu","city":"Balazos","coordinates":{"lat":"20.0166667","long":"-77.4333333"}},{"country":"cu","city":"Balbín","coordinates":{"lat":"22.4","long":"-80.55"}},{"country":"cu","city":"Balbosa","coordinates":{"lat":"22.75","long":"-83.05"}},{"country":"cu","city":"Balcón de la Lisa","coordinates":{"lat":"23.0538889","long":"-82.4486111"}},{"country":"cu","city":"Baldo","coordinates":{"lat":"22.75","long":"-79.8833333"}},{"country":"cu","city":"Baldonado","coordinates":{"lat":"22.9666667","long":"-82.3666667"}},{"country":"cu","city":"Baldor","coordinates":{"lat":"20.35","long":"-75.0333333"}},{"country":"cu","city":"Ballesteros","coordinates":{"lat":"22.3","long":"-83.75"}},{"country":"cu","city":"Balneario San Vicente","coordinates":{"lat":"22.6666667","long":"-83.7166667"}},{"country":"cu","city":"Balnearios de Menendes","coordinates":{"lat":"23.0408333","long":"-80.8005556"}},{"country":"cu","city":"Balnearios Menéndez","coordinates":{"lat":"23.0408333","long":"-80.8005556"}},{"country":"cu","city":"Baltazar","coordinates":{"lat":"20.1833333","long":"-76.1333333"}},{"country":"cu","city":"Bamba","coordinates":{"lat":"20.2258333","long":"-75.9808333"}},{"country":"cu","city":"Bamburanao","coordinates":{"lat":"22.2833333","long":"-79.3"}},{"country":"cu","city":"Banabacoa","coordinates":{"lat":"20.25","long":"-75.7833333"}},{"country":"cu","city":"Banagüises","coordinates":{"lat":"22.7666667","long":"-80.85"}},{"country":"cu","city":"Banao","coordinates":{"lat":"21.6408333","long":"-77.8866667"}},{"country":"cu","city":"Banao","coordinates":{"lat":"21.8286111","long":"-79.5686111"}},{"country":"cu","city":"Banco","coordinates":{"lat":"23.0166667","long":"-81.9333333"}},{"country":"cu","city":"Banes","coordinates":{"lat":"23.0072222","long":"-82.6272222"}},{"country":"cu","city":"Banes","coordinates":{"lat":"20.9625","long":"-75.7186111"}},{"country":"cu","city":"Baños","coordinates":{"lat":"22.35","long":"-80.4166667"}},{"country":"cu","city":"Baños de Agua","coordinates":{"lat":"22.35","long":"-80.4166667"}},{"country":"cu","city":"Baños de Ciego Montero","coordinates":{"lat":"22.35","long":"-80.4166667"}},{"country":"cu","city":"Baños de San Vicente","coordinates":{"lat":"22.6666667","long":"-83.7166667"}},{"country":"cu","city":"Baños San Diego","coordinates":{"lat":"22.6466667","long":"-83.3697222"}},{"country":"cu","city":"Banquito","coordinates":{"lat":"22.7333333","long":"-81.8833333"}},{"country":"cu","city":"Baracaldo","coordinates":{"lat":"22.55","long":"-83.3833333"}},{"country":"cu","city":"Baracoa","coordinates":{"lat":"22.3166667","long":"-83.75"}},{"country":"cu","city":"Baracoa","coordinates":{"lat":"20.3466667","long":"-74.4958333"}},{"country":"cu","city":"Baracoa","coordinates":{"lat":"23.0522222","long":"-82.5622222"}},{"country":"cu","city":"Baraguá","coordinates":{"lat":"21.6966667","long":"-78.6327778"}},{"country":"cu","city":"Barajagua","coordinates":{"lat":"22.1633333","long":"-80.1186111"}},{"country":"cu","city":"Barajagua","coordinates":{"lat":"20.6166667","long":"-75.9833333"}},{"country":"cu","city":"Barajagua La Vieja","coordinates":{"lat":"20.5833333","long":"-76.0"}},{"country":"cu","city":"Baralt","coordinates":{"lat":"22.8166667","long":"-82.5666667"}},{"country":"cu","city":"Barbacoas","coordinates":{"lat":"22.3166667","long":"-83.75"}},{"country":"cu","city":"Bárbara","coordinates":{"lat":"20.0333333","long":"-75.5333333"}},{"country":"cu","city":"Barbarú","coordinates":{"lat":"20.6166667","long":"-75.1166667"}},{"country":"cu","city":"Barbiney","coordinates":{"lat":"22.83","long":"-81.5838889"}},{"country":"cu","city":"Barbita","coordinates":{"lat":"22.1833333","long":"-78.9666667"}},{"country":"cu","city":"Barboloton","coordinates":{"lat":"21.0","long":"-77.4333333"}},{"country":"cu","city":"Barbosa","coordinates":{"lat":"23.0666667","long":"-82.3166667"}},{"country":"cu","city":"Bardallo","coordinates":{"lat":"22.25","long":"-83.85"}},{"country":"cu","city":"Bariai","coordinates":{"lat":"21.0147222","long":"-75.9447222"}},{"country":"cu","city":"Bariay","coordinates":{"lat":"21.0147222","long":"-75.9447222"}},{"country":"cu","city":"Bariguá","coordinates":{"lat":"20.2933333","long":"-74.3347222"}},{"country":"cu","city":"Bariguarita","coordinates":{"lat":"20.295","long":"-74.3347222"}},{"country":"cu","city":"Barlovento","coordinates":{"lat":"23.0913889","long":"-82.4872222"}},{"country":"cu","city":"Baró","coordinates":{"lat":"21.7211111","long":"-78.7566667"}},{"country":"cu","city":"Barrabás","coordinates":{"lat":"20.1611111","long":"-75.5658333"}},{"country":"cu","city":"Barranca","coordinates":{"lat":"20.3","long":"-76.8"}},{"country":"cu","city":"Barranca Colorada","coordinates":{"lat":"20.5886111","long":"-76.5744444"}},{"country":"cu","city":"Barranca Colorado","coordinates":{"lat":"20.5886111","long":"-76.5744444"}},{"country":"cu","city":"Barrancas","coordinates":{"lat":"20.3","long":"-76.8"}},{"country":"cu","city":"Barrancas","coordinates":{"lat":"20.4","long":"-76.0"}},{"country":"cu","city":"Barrederas","coordinates":{"lat":"20.7","long":"-75.3833333"}},{"country":"cu","city":"Barrederas Número 6","coordinates":{"lat":"20.7166667","long":"-75.3666667"}},{"country":"cu","city":"Barrederas Número Seis","coordinates":{"lat":"20.7166667","long":"-75.3666667"}},{"country":"cu","city":"Barrenechea","coordinates":{"lat":"22.6","long":"-79.8666667"}},{"country":"cu","city":"Barrera","coordinates":{"lat":"23.145","long":"-82.2136111"}},{"country":"cu","city":"Barreras","coordinates":{"lat":"23.145","long":"-82.2136111"}},{"country":"cu","city":"Barreto","coordinates":{"lat":"22.8166667","long":"-82.5333333"}},{"country":"cu","city":"Barrio Agabama","coordinates":{"lat":"22.1277778","long":"-79.7513889"}},{"country":"cu","city":"Barrio Nuevo","coordinates":{"lat":"22.4333333","long":"-80.7166667"}},{"country":"cu","city":"Barrio Obrero","coordinates":{"lat":"23.105","long":"-82.3352778"}},{"country":"cu","city":"Barrio Redencion","coordinates":{"lat":"21.4333333","long":"-77.5333333"}},{"country":"cu","city":"Barroso","coordinates":{"lat":"21.6716667","long":"-78.8741667"}},{"country":"cu","city":"Barroso","coordinates":{"lat":"22.7833333","long":"-81.9558333"}},{"country":"cu","city":"Bartle","coordinates":{"lat":"21.0497222","long":"-77.1225"}},{"country":"cu","city":"Bartolo","coordinates":{"lat":"21.3166667","long":"-77.3833333"}},{"country":"cu","city":"Bartolomé","coordinates":{"lat":"22.4422222","long":"-79.5511111"}},{"country":"cu","city":"Bartolomé Masó","coordinates":{"lat":"20.1661111","long":"-76.9433333"}},{"country":"cu","city":"Basulto","coordinates":{"lat":"21.05","long":"-75.9833333"}},{"country":"cu","city":"Batabanó","coordinates":{"lat":"22.6869444","long":"-82.2927778"}},{"country":"cu","city":"Batalla","coordinates":{"lat":"22.8","long":"-80.7666667"}},{"country":"cu","city":"Batalla","coordinates":{"lat":"22.2166667","long":"-80.7833333"}},{"country":"cu","city":"Batalla","coordinates":{"lat":"22.75","long":"-82.0"}},{"country":"cu","city":"Batalla","coordinates":{"lat":"22.5833333","long":"-80.15"}},{"country":"cu","city":"Batalla de Guisa","coordinates":{"lat":"21.1547222","long":"-77.7863889"}},{"country":"cu","city":"Batea","coordinates":{"lat":"20.1597222","long":"-74.5183333"}},{"country":"cu","city":"Batey Algorita","coordinates":{"lat":"22.8672222","long":"-81.0263889"}},{"country":"cu","city":"Batey Amistad","coordinates":{"lat":"22.9502778","long":"-81.0163889"}},{"country":"cu","city":"Batey Angosta","coordinates":{"lat":"22.9847222","long":"-82.795"}},{"country":"cu","city":"Batey Arco Iris","coordinates":{"lat":"22.7972222","long":"-81.3877778"}},{"country":"cu","city":"Batey Armonia","coordinates":{"lat":"22.7380556","long":"-81.4716667"}},{"country":"cu","city":"Batey Aurora","coordinates":{"lat":"22.8075","long":"-81.215"}},{"country":"cu","city":"Batey","coordinates":{"lat":"22.3538889","long":"-83.3969444"}},{"country":"cu","city":"Batey","coordinates":{"lat":"22.7891667","long":"-81.5702778"}},{"country":"cu","city":"Batey","coordinates":{"lat":"20.55","long":"-75.0666667"}},{"country":"cu","city":"Batey Birán","coordinates":{"lat":"20.55","long":"-75.9166667"}},{"country":"cu","city":"Batey Camacho","coordinates":{"lat":"22.6458333","long":"-79.6469444"}},{"country":"cu","city":"Batey Campo Florido","coordinates":{"lat":"22.8122222","long":"-81.0016667"}},{"country":"cu","city":"Batey Carbonera","coordinates":{"lat":"22.8166667","long":"-80.9333333"}},{"country":"cu","city":"Batey Charco Hondo","coordinates":{"lat":"22.5372222","long":"-79.6438889"}},{"country":"cu","city":"Batey Conchita","coordinates":{"lat":"22.7813889","long":"-81.2630556"}},{"country":"cu","city":"Batey Covadonga","coordinates":{"lat":"22.8166667","long":"-80.7"}},{"country":"cu","city":"Batey de Carquejas","coordinates":{"lat":"22.8166667","long":"-83.6125"}},{"country":"cu","city":"Batey de la Juiquima","coordinates":{"lat":"22.4166667","long":"-83.25"}},{"country":"cu","city":"Batey de Lima","coordinates":{"lat":"22.8019444","long":"-81.6788889"}},{"country":"cu","city":"Batey del Medio","coordinates":{"lat":"22.2247222","long":"-79.2352778"}},{"country":"cu","city":"Batey de Magdalena","coordinates":{"lat":"22.9166667","long":"-81.65"}},{"country":"cu","city":"Batey de Manuelita","coordinates":{"lat":"22.9166667","long":"-83.0"}},{"country":"cu","city":"Batey de Mayari","coordinates":{"lat":"22.6666667","long":"-83.0166667"}},{"country":"cu","city":"Batey de Quiñones","coordinates":{"lat":"22.8508333","long":"-83.1658333"}},{"country":"cu","city":"Batey de Ruffin","coordinates":{"lat":"22.9666667","long":"-80.9666667"}},{"country":"cu","city":"Batey de Venero","coordinates":{"lat":"22.4333333","long":"-80.75"}},{"country":"cu","city":"Batey de Zumalacarry","coordinates":{"lat":"22.5797222","long":"-83.15"}},{"country":"cu","city":"Batey Dolorita","coordinates":{"lat":"22.9","long":"-80.95"}},{"country":"cu","city":"Batey Durano","coordinates":{"lat":"20.3780556","long":"-74.9133333"}},{"country":"cu","city":"Batey El Carmen","coordinates":{"lat":"22.7666667","long":"-80.7833333"}},{"country":"cu","city":"Batey El Feliz","coordinates":{"lat":"22.7552778","long":"-81.4938889"}},{"country":"cu","city":"Batey Elizalde","coordinates":{"lat":"22.7252778","long":"-81.1961111"}},{"country":"cu","city":"Batey El Piñon","coordinates":{"lat":"22.8833333","long":"-80.9166667"}},{"country":"cu","city":"Batey El Rosario","coordinates":{"lat":"22.7252778","long":"-81.0386111"}},{"country":"cu","city":"Batey El Sordo","coordinates":{"lat":"22.9","long":"-80.8666667"}},{"country":"cu","city":"Batey Felicidad","coordinates":{"lat":"22.8505556","long":"-81.0897222"}},{"country":"cu","city":"Batey Gabriela","coordinates":{"lat":"22.8263889","long":"-81.3963889"}},{"country":"cu","city":"Batey Garcia","coordinates":{"lat":"22.8283333","long":"-81.1230556"}},{"country":"cu","city":"Batey Gomutas","coordinates":{"lat":"22.85","long":"-80.9166667"}},{"country":"cu","city":"Batey Gonzalo","coordinates":{"lat":"22.8","long":"-81.4166667"}},{"country":"cu","city":"Batey Gori","coordinates":{"lat":"22.7266667","long":"-80.7736111"}},{"country":"cu","city":"Batey Guamuticas","coordinates":{"lat":"22.7833333","long":"-80.9666667"}},{"country":"cu","city":"Batey Hatuey","coordinates":{"lat":"22.8","long":"-80.7166667"}},{"country":"cu","city":"Batey Jesus Maria","coordinates":{"lat":"22.85","long":"-80.9666667"}},{"country":"cu","city":"Batey Jicarita","coordinates":{"lat":"22.7736111","long":"-81.4602778"}},{"country":"cu","city":"Batey Jinaguayabo","coordinates":{"lat":"22.5394444","long":"-79.5475"}},{"country":"cu","city":"Batey La Barrigona","coordinates":{"lat":"22.2130556","long":"-83.7769444"}},{"country":"cu","city":"Batey La Caimana","coordinates":{"lat":"22.2283333","long":"-83.7044444"}},{"country":"cu","city":"Batey La Elvira","coordinates":{"lat":"22.8833333","long":"-80.85"}},{"country":"cu","city":"Batey La Eugenia","coordinates":{"lat":"22.8844444","long":"-81.095"}},{"country":"cu","city":"Batey La Lata","coordinates":{"lat":"22.8197222","long":"-81.0130556"}},{"country":"cu","city":"Batey La Lima","coordinates":{"lat":"22.8666667","long":"-80.9833333"}},{"country":"cu","city":"Batey La Luisa","coordinates":{"lat":"22.6333333","long":"-81.2833333"}},{"country":"cu","city":"Batey La Luisa","coordinates":{"lat":"22.8","long":"-80.3333333"}},{"country":"cu","city":"Batey La Luz","coordinates":{"lat":"22.7908333","long":"-81.6613889"}},{"country":"cu","city":"Batey La Norberta","coordinates":{"lat":"22.7833333","long":"-80.9166667"}},{"country":"cu","city":"Batey La Palma","coordinates":{"lat":"22.6480556","long":"-79.8394444"}},{"country":"cu","city":"Batey La Paula","coordinates":{"lat":"22.8225","long":"-81.1197222"}},{"country":"cu","city":"Batey La Paz","coordinates":{"lat":"22.7333333","long":"-80.9833333"}},{"country":"cu","city":"Batey La Sabana","coordinates":{"lat":"22.595","long":"-79.7236111"}},{"country":"cu","city":"Batey La Sierra","coordinates":{"lat":"22.6033333","long":"-79.8041667"}},{"country":"cu","city":"Batey las Maravillas","coordinates":{"lat":"22.9833333","long":"-80.9666667"}},{"country":"cu","city":"Batey La Veleta","coordinates":{"lat":"22.765","long":"-81.4822222"}},{"country":"cu","city":"Batey Leon","coordinates":{"lat":"22.7197222","long":"-80.9816667"}},{"country":"cu","city":"Batey Libardi","coordinates":{"lat":"22.85","long":"-81.0"}},{"country":"cu","city":"Batey Manuelita","coordinates":{"lat":"22.8172222","long":"-81.4075"}},{"country":"cu","city":"Batey Mayoz","coordinates":{"lat":"22.65","long":"-80.8"}},{"country":"cu","city":"Batey Noroña","coordinates":{"lat":"22.9569444","long":"-82.7002778"}},{"country":"cu","city":"Batey Nuevo","coordinates":{"lat":"22.8333333","long":"-80.9166667"}},{"country":"cu","city":"Batey Nuevo","coordinates":{"lat":"21.6652778","long":"-78.8741667"}},{"country":"cu","city":"Batey Nuevo de Cardonera","coordinates":{"lat":"22.8333333","long":"-80.9166667"}},{"country":"cu","city":"Batey Olano","coordinates":{"lat":"22.7791667","long":"-81.5075"}},{"country":"cu","city":"Batey Oxamendi","coordinates":{"lat":"22.9208333","long":"-81.0763889"}},{"country":"cu","city":"Batey Paredes","coordinates":{"lat":"22.9333333","long":"-80.9666667"}},{"country":"cu","city":"Batey Pelayo","coordinates":{"lat":"22.3466667","long":"-80.1852778"}},{"country":"cu","city":"Batey Piñón","coordinates":{"lat":"22.6341667","long":"-80.9897222"}},{"country":"cu","city":"Batey Regalita","coordinates":{"lat":"22.7502778","long":"-81.0361111"}},{"country":"cu","city":"Batey Retana","coordinates":{"lat":"22.7666667","long":"-80.8"}},{"country":"cu","city":"Batey Reyes","coordinates":{"lat":"22.8741667","long":"-81.0463889"}},{"country":"cu","city":"Batey San Cayetano","coordinates":{"lat":"22.8666667","long":"-80.9166667"}},{"country":"cu","city":"Batey San Francisco","coordinates":{"lat":"22.7577778","long":"-81.2722222"}},{"country":"cu","city":"Batey San Gregorio","coordinates":{"lat":"22.6333333","long":"-81.4166667"}},{"country":"cu","city":"Batey San José","coordinates":{"lat":"22.55","long":"-79.6833333"}},{"country":"cu","city":"Batey San Juan","coordinates":{"lat":"22.7541667","long":"-81.0458333"}},{"country":"cu","city":"Batey San Juan de Peraza","coordinates":{"lat":"22.9097222","long":"-81.0958333"}},{"country":"cu","city":"Batey San Lorenzo","coordinates":{"lat":"22.35","long":"-83.5"}},{"country":"cu","city":"Batey San Luis","coordinates":{"lat":"22.8833333","long":"-80.8833333"}},{"country":"cu","city":"Batey San Miguel","coordinates":{"lat":"22.7191667","long":"-81.3677778"}},{"country":"cu","city":"Batey San Rafael","coordinates":{"lat":"22.7458333","long":"-81.4275"}},{"country":"cu","city":"Batey Santa Catalina","coordinates":{"lat":"22.7213889","long":"-81.0488889"}},{"country":"cu","city":"Batey Santa Elvira","coordinates":{"lat":"22.9166667","long":"-80.9166667"}},{"country":"cu","city":"Batey Santa Rita","coordinates":{"lat":"22.7322222","long":"-80.7558333"}},{"country":"cu","city":"Batey Santa Sofia","coordinates":{"lat":"22.7388889","long":"-81.1752778"}},{"country":"cu","city":"Batey Santa Teresa","coordinates":{"lat":"22.5836111","long":"-81.0727778"}},{"country":"cu","city":"Batey S. Emilio","coordinates":{"lat":"20.1802778","long":"-75.1266667"}},{"country":"cu","city":"Batey Suris","coordinates":{"lat":"22.8066667","long":"-81.0886111"}},{"country":"cu","city":"Batey Tembladera","coordinates":{"lat":"22.8833333","long":"-80.8666667"}},{"country":"cu","city":"Batey Tinaja","coordinates":{"lat":"22.7655556","long":"-81.9511111"}},{"country":"cu","city":"Batey Torriente","coordinates":{"lat":"22.7102778","long":"-81.1941667"}},{"country":"cu","city":"Batey Yance","coordinates":{"lat":"22.8311111","long":"-81.3"}},{"country":"cu","city":"Batey Zona","coordinates":{"lat":"22.9666667","long":"-83.15"}},{"country":"cu","city":"Batista","coordinates":{"lat":"23.1","long":"-82.35"}},{"country":"cu","city":"Bauta","coordinates":{"lat":"22.9827778","long":"-82.5463889"}},{"country":"cu","city":"Bayamo","coordinates":{"lat":"20.3791667","long":"-76.6433333"}},{"country":"cu","city":"Bayate","coordinates":{"lat":"20.3352778","long":"-75.3630556"}},{"country":"cu","city":"Bayate","coordinates":{"lat":"20.3666667","long":"-75.9333333"}},{"country":"cu","city":"Bayates","coordinates":{"lat":"20.3333333","long":"-76.9166667"}},{"country":"cu","city":"Bayates","coordinates":{"lat":"20.3352778","long":"-75.3630556"}},{"country":"cu","city":"Bayate Seco","coordinates":{"lat":"20.4166667","long":"-75.9166667"}},{"country":"cu","city":"Bayesteros","coordinates":{"lat":"22.3","long":"-83.75"}},{"country":"cu","city":"Bazarales","coordinates":{"lat":"21.0672222","long":"-76.7908333"}},{"country":"cu","city":"Bebé","coordinates":{"lat":"20.2833333","long":"-75.7333333"}},{"country":"cu","city":"Becerra","coordinates":{"lat":"20.9811111","long":"-76.8786111"}},{"country":"cu","city":"Becerra Rodríguez","coordinates":{"lat":"22.5","long":"-83.5666667"}},{"country":"cu","city":"Becerra y Sagasta","coordinates":{"lat":"20.8","long":"-77.8666667"}},{"country":"cu","city":"Beja","coordinates":{"lat":"22.5716667","long":"-84.095"}},{"country":"cu","city":"Bejucal","coordinates":{"lat":"22.9286111","long":"-82.3886111"}},{"country":"cu","city":"Bejucall","coordinates":{"lat":"22.9286111","long":"-82.3886111"}},{"country":"cu","city":"Bejuco","coordinates":{"lat":"21.0322222","long":"-77.1147222"}},{"country":"cu","city":"Bejuco","coordinates":{"lat":"22.4","long":"-79.75"}},{"country":"cu","city":"Bejuquero","coordinates":{"lat":"20.5333333","long":"-75.1833333"}},{"country":"cu","city":"Belén","coordinates":{"lat":"23.0927778","long":"-82.4130556"}},{"country":"cu","city":"Belencita","coordinates":{"lat":"22.9833333","long":"-82.55"}},{"country":"cu","city":"Belencito","coordinates":{"lat":"22.9833333","long":"-82.55"}},{"country":"cu","city":"Bélgica","coordinates":{"lat":"21.0333333","long":"-76.2"}},{"country":"cu","city":"Bélic","coordinates":{"lat":"19.95","long":"-77.65"}},{"country":"cu","city":"Beliz","coordinates":{"lat":"19.95","long":"-77.65"}},{"country":"cu","city":"Bella María","coordinates":{"lat":"22.7327778","long":"-83.5880556"}},{"country":"cu","city":"Bellamota","coordinates":{"lat":"22.1666667","long":"-79.0666667"}},{"country":"cu","city":"Bellanista","coordinates":{"lat":"23.0833333","long":"-82.3666667"}},{"country":"cu","city":"Bella Pluma","coordinates":{"lat":"19.9333333","long":"-76.8166667"}},{"country":"cu","city":"Bella Unión","coordinates":{"lat":"22.7333333","long":"-82.45"}},{"country":"cu","city":"Bellavista","coordinates":{"lat":"23.0666667","long":"-82.3"}},{"country":"cu","city":"Bellavista","coordinates":{"lat":"23.0122222","long":"-81.6027778"}},{"country":"cu","city":"Bella Vista","coordinates":{"lat":"20.2352778","long":"-75.4658333"}},{"country":"cu","city":"Bella Vista","coordinates":{"lat":"23.1166667","long":"-81.7666667"}},{"country":"cu","city":"Bellavista","coordinates":{"lat":"20.0666667","long":"-76.1"}},{"country":"cu","city":"Bella Vista","coordinates":{"lat":"22.6897222","long":"-80.0266667"}},{"country":"cu","city":"Belleza","coordinates":{"lat":"20.1633333","long":"-75.6052778"}},{"country":"cu","city":"Belmonte","coordinates":{"lat":"22.1219444","long":"-80.3619444"}},{"country":"cu","city":"Belona","coordinates":{"lat":"20.1825","long":"-75.4597222"}},{"country":"cu","city":"Belot","coordinates":{"lat":"23.1333333","long":"-82.3166667"}},{"country":"cu","city":"Beltrán","coordinates":{"lat":"20.6166667","long":"-76.0333333"}},{"country":"cu","city":"Belvedere","coordinates":{"lat":"23.15","long":"-82.3333333"}},{"country":"cu","city":"Bel'yesa","coordinates":{"lat":"20.1633333","long":"-75.6052778"}},{"country":"cu","city":"Bemba","coordinates":{"lat":"22.8044444","long":"-81.1944444"}},{"country":"cu","city":"Benavides","coordinates":{"lat":"22.9861111","long":"-81.675"}},{"country":"cu","city":"Bendamio","coordinates":{"lat":"22.7833333","long":"-79.9666667"}},{"country":"cu","city":"Bendición","coordinates":{"lat":"22.6833333","long":"-80.2833333"}},{"country":"cu","city":"Benítez","coordinates":{"lat":"22.75","long":"-82.3833333"}},{"country":"cu","city":"Benito","coordinates":{"lat":"21.9647222","long":"-84.1605556"}},{"country":"cu","city":"Benito","coordinates":{"lat":"20.6","long":"-75.95"}},{"country":"cu","city":"Benito","coordinates":{"lat":"20.1997222","long":"-75.6797222"}},{"country":"cu","city":"Berdeales","coordinates":{"lat":"22.9166667","long":"-81.3166667"}},{"country":"cu","city":"Berenguer","coordinates":{"lat":"23.0","long":"-82.3833333"}},{"country":"cu","city":"Bermeja","coordinates":{"lat":"22.1333333","long":"-80.9666667"}},{"country":"cu","city":"Bermeja","coordinates":{"lat":"22.6411111","long":"-80.2758333"}},{"country":"cu","city":"Bermejal","coordinates":{"lat":"23.1166667","long":"-81.95"}},{"country":"cu","city":"Bernal 7","coordinates":{"lat":"21.8333333","long":"-79.0833333"}},{"country":"cu","city":"Bernal","coordinates":{"lat":"21.8333333","long":"-79.0833333"}},{"country":"cu","city":"Bernal Siete","coordinates":{"lat":"21.8333333","long":"-79.0833333"}},{"country":"cu","city":"Bernaly","coordinates":{"lat":"21.8472222","long":"-79.0811111"}},{"country":"cu","city":"Bernardo","coordinates":{"lat":"20.3225","long":"-74.8638889"}},{"country":"cu","city":"Berracal","coordinates":{"lat":"20.95","long":"-77.35"}},{"country":"cu","city":"Berracos","coordinates":{"lat":"22.7833333","long":"-83.6333333"}},{"country":"cu","city":"Berriel","coordinates":{"lat":"22.7333333","long":"-82.3166667"}},{"country":"cu","city":"Berrocal","coordinates":{"lat":"23.0","long":"-82.5"}},{"country":"cu","city":"Berrocal","coordinates":{"lat":"20.95","long":"-77.35"}},{"country":"cu","city":"Berrocal Viejo","coordinates":{"lat":"20.9666667","long":"-77.35"}},{"country":"cu","city":"Bertot","coordinates":{"lat":"20.3333333","long":"-77.0"}},{"country":"cu","city":"Betancourt","coordinates":{"lat":"22.0333333","long":"-78.3"}},{"country":"cu","city":"Bezain","coordinates":{"lat":"22.6558333","long":"-82.9130556"}},{"country":"cu","city":"Biajaca","coordinates":{"lat":"22.2352778","long":"-80.0747222"}},{"country":"cu","city":"Biajaca Gorda","coordinates":{"lat":"22.0916667","long":"-78.92"}},{"country":"cu","city":"Biajacas Gordas","coordinates":{"lat":"22.3833333","long":"-79.7833333"}},{"country":"cu","city":"Bidop","coordinates":{"lat":"21.2938889","long":"-77.8386111"}},{"country":"cu","city":"Bienvenida","coordinates":{"lat":"21.6758333","long":"-78.8875"}},{"country":"cu","city":"Bienvenido","coordinates":{"lat":"21.6758333","long":"-78.8875"}},{"country":"cu","city":"Bijabo","coordinates":{"lat":"22.0275","long":"-79.3586111"}},{"country":"cu","city":"Bijagual","coordinates":{"lat":"20.2333333","long":"-76.25"}},{"country":"cu","city":"Bijarú","coordinates":{"lat":"20.9","long":"-75.9"}},{"country":"cu","city":"Bilorio","coordinates":{"lat":"20.0869444","long":"-75.3227778"}},{"country":"cu","city":"Biltmore","coordinates":{"lat":"23.0847222","long":"-82.4680556"}},{"country":"cu","city":"Bío","coordinates":{"lat":"20.4666667","long":"-75.9833333"}},{"country":"cu","city":"Birama","coordinates":{"lat":"21.85","long":"-79.8166667"}},{"country":"cu","city":"Birama","coordinates":{"lat":"20.85","long":"-77.1833333"}},{"country":"cu","city":"Biram","coordinates":{"lat":"20.55","long":"-75.9166667"}},{"country":"cu","city":"Biram","coordinates":{"lat":"20.85","long":"-77.1833333"}},{"country":"cu","city":"Birán","coordinates":{"lat":"20.55","long":"-75.9166667"}},{"country":"cu","city":"Bizarrón","coordinates":{"lat":"22.8","long":"-82.0333333"}},{"country":"cu","city":"Blanca Arena","coordinates":{"lat":"22.9530556","long":"-83.1083333"}},{"country":"cu","city":"Blanca Nieves","coordinates":{"lat":"22.5666667","long":"-83.4666667"}},{"country":"cu","city":"Blanca Rosa","coordinates":{"lat":"22.3961111","long":"-83.4819444"}},{"country":"cu","city":"Blanca Rosa","coordinates":{"lat":"20.9188889","long":"-76.8497222"}},{"country":"cu","city":"Blanco","coordinates":{"lat":"19.9763889","long":"-75.8616667"}},{"country":"cu","city":"Blanco Castillo","coordinates":{"lat":"21.1238889","long":"-78.3872222"}},{"country":"cu","city":"Blanquita","coordinates":{"lat":"22.55","long":"-79.6666667"}},{"country":"cu","city":"Blanquito","coordinates":{"lat":"21.1069444","long":"-76.3686111"}},{"country":"cu","city":"Blanquizalas","coordinates":{"lat":"22.5833333","long":"-83.4166667"}},{"country":"cu","city":"Blanquizal","coordinates":{"lat":"22.4166667","long":"-83.6166667"}},{"country":"cu","city":"Blanquizal","coordinates":{"lat":"23.05","long":"-82.25"}},{"country":"cu","city":"Blanquizal","coordinates":{"lat":"21.0333333","long":"-77.3"}},{"country":"cu","city":"Blanquizal","coordinates":{"lat":"22.0747222","long":"-78.8558333"}},{"country":"cu","city":"Blanquizal","coordinates":{"lat":"20.35","long":"-77.0833333"}},{"country":"cu","city":"Blanquizal","coordinates":{"lat":"21.0980556","long":"-76.305"}},{"country":"cu","city":"Blanquizal","coordinates":{"lat":"21.8","long":"-79.4666667"}},{"country":"cu","city":"Blanquizal","coordinates":{"lat":"22.4666667","long":"-79.75"}},{"country":"cu","city":"Blanquizales","coordinates":{"lat":"22.5833333","long":"-83.4166667"}},{"country":"cu","city":"Blanquizar","coordinates":{"lat":"22.5833333","long":"-83.4166667"}},{"country":"cu","city":"Blanquizar","coordinates":{"lat":"21.0333333","long":"-77.3"}},{"country":"cu","city":"Blanquizar","coordinates":{"lat":"20.45","long":"-76.7833333"}},{"country":"cu","city":"Blanquizar","coordinates":{"lat":"21.0980556","long":"-76.305"}},{"country":"cu","city":"Blanquizar","coordinates":{"lat":"21.0705556","long":"-76.6375"}},{"country":"cu","city":"Blanquizar","coordinates":{"lat":"22.5333333","long":"-79.9666667"}},{"country":"cu","city":"Blas","coordinates":{"lat":"21.4833333","long":"-78.1166667"}},{"country":"cu","city":"Blas Gonzales","coordinates":{"lat":"20.7736111","long":"-77.8788889"}},{"country":"cu","city":"Boca Ciega","coordinates":{"lat":"23.1666667","long":"-82.1666667"}},{"country":"cu","city":"Boca Corrales","coordinates":{"lat":"22.1166667","long":"-79.4333333"}},{"country":"cu","city":"Boca de Galafre","coordinates":{"lat":"22.1833333","long":"-83.9"}},{"country":"cu","city":"Boca de Guanabo","coordinates":{"lat":"23.1711111","long":"-82.1277778"}},{"country":"cu","city":"Boca de Jaruco","coordinates":{"lat":"23.1752778","long":"-82.0111111"}},{"country":"cu","city":"Boca del Cajío","coordinates":{"lat":"22.7230556","long":"-82.4691667"}},{"country":"cu","city":"Boca de Nasa","coordinates":{"lat":"21.9341667","long":"-78.3852778"}},{"country":"cu","city":"Boca de Potrero","coordinates":{"lat":"21.9333333","long":"-78.35"}},{"country":"cu","city":"Boca de Quibiján","coordinates":{"lat":"20.3552778","long":"-74.6394444"}},{"country":"cu","city":"Boca de Tánamo","coordinates":{"lat":"20.7166667","long":"-75.3166667"}},{"country":"cu","city":"Boca de Yumurí","coordinates":{"lat":"20.3008333","long":"-74.2966667"}},{"country":"cu","city":"Boca Galafre","coordinates":{"lat":"22.1833333","long":"-83.9"}},{"country":"cu","city":"Boca las Minas","coordinates":{"lat":"22.5","long":"-79.9166667"}},{"country":"cu","city":"Boca Potrero","coordinates":{"lat":"21.8902778","long":"-78.3616667"}},{"country":"cu","city":"Bocas","coordinates":{"lat":"21.0713889","long":"-76.2736111"}},{"country":"cu","city":"Bodega Azcaratico","coordinates":{"lat":"22.7333333","long":"-82.2333333"}},{"country":"cu","city":"Bodega Caimán","coordinates":{"lat":"22.7333333","long":"-82.25"}},{"country":"cu","city":"Bodega Chafarina","coordinates":{"lat":"22.7263889","long":"-82.4513889"}},{"country":"cu","city":"Bodega el Rayo","coordinates":{"lat":"22.9333333","long":"-82.3"}},{"country":"cu","city":"Bolaños","coordinates":{"lat":"23.05","long":"-81.85"}},{"country":"cu","city":"Bolívar","coordinates":{"lat":"22.1288889","long":"-84.2627778"}},{"country":"cu","city":"Bolivia","coordinates":{"lat":"22.0833333","long":"-78.3333333"}},{"country":"cu","city":"Bolondrón","coordinates":{"lat":"21.8744444","long":"-84.8308333"}},{"country":"cu","city":"Bolondrón","coordinates":{"lat":"22.7633333","long":"-81.4469444"}},{"country":"cu","city":"Boma","coordinates":{"lat":"20.3019444","long":"-74.4055556"}},{"country":"cu","city":"Bomba","coordinates":{"lat":"22.6333333","long":"-80.7666667"}},{"country":"cu","city":"Bombón Norte","coordinates":{"lat":"20.2166667","long":"-76.5"}},{"country":"cu","city":"Bonete","coordinates":{"lat":"20.0672222","long":"-75.7655556"}},{"country":"cu","city":"Boniatico","coordinates":{"lat":"20.1336111","long":"-75.7777778"}},{"country":"cu","city":"Boniato","coordinates":{"lat":"19.9333333","long":"-77.2833333"}},{"country":"cu","city":"Boniato","coordinates":{"lat":"20.0791667","long":"-75.8027778"}},{"country":"cu","city":"Bonilla","coordinates":{"lat":"22.8375","long":"-80.4472222"}},{"country":"cu","city":"Boquerón","coordinates":{"lat":"22.1716667","long":"-79.0213889"}},{"country":"cu","city":"Boquerón","coordinates":{"lat":"20.3166667","long":"-76.9833333"}},{"country":"cu","city":"Boquerón","coordinates":{"lat":"19.9852778","long":"-75.1116667"}},{"country":"cu","city":"Boquerones","coordinates":{"lat":"22.1166667","long":"-84.1166667"}},{"country":"cu","city":"Boquerones","coordinates":{"lat":"21.7833333","long":"-79.2833333"}},{"country":"cu","city":"Boquerones","coordinates":{"lat":"22.0513889","long":"-80.0113889"}},{"country":"cu","city":"Borbollón","coordinates":{"lat":"21.0","long":"-77.4333333"}},{"country":"cu","city":"Bordón","coordinates":{"lat":"21.8622222","long":"-78.255"}},{"country":"cu","city":"Bordón","coordinates":{"lat":"22.6691667","long":"-80.3002778"}},{"country":"cu","city":"Borges","coordinates":{"lat":"21.5333333","long":"-77.7333333"}},{"country":"cu","city":"Boris Luis Santa Coloma","coordinates":{"lat":"22.9080556","long":"-81.875"}},{"country":"cu","city":"Boroallo","coordinates":{"lat":"22.4","long":"-83.9666667"}},{"country":"cu","city":"Boruga","coordinates":{"lat":"20.3013889","long":"-74.2983333"}},{"country":"cu","city":"Bosmenier","coordinates":{"lat":"22.95","long":"-82.1"}},{"country":"cu","city":"Bosqueron","coordinates":{"lat":"22.1716667","long":"-79.0213889"}},{"country":"cu","city":"Boston","coordinates":{"lat":"21.7","long":"-77.6833333"}},{"country":"cu","city":"Botija","coordinates":{"lat":"20.7333333","long":"-75.65"}},{"country":"cu","city":"Botijal","coordinates":{"lat":"20.1833333","long":"-76.95"}},{"country":"cu","city":"Brac","coordinates":{"lat":"21.2666667","long":"-78.2166667"}},{"country":"cu","city":"Bracito","coordinates":{"lat":"21.05","long":"-76.0333333"}},{"country":"cu","city":"Bracito","coordinates":{"lat":"20.9333333","long":"-77.2"}},{"country":"cu","city":"Bramales","coordinates":{"lat":"22.9780556","long":"-83.0333333"}},{"country":"cu","city":"Braso-Seko","coordinates":{"lat":"20.0088889","long":"-75.3977778"}},{"country":"cu","city":"Braulio Coroneaux","coordinates":{"lat":"22.6","long":"-79.9333333"}},{"country":"cu","city":"Bravo","coordinates":{"lat":"21.6833333","long":"-78.7166667"}},{"country":"cu","city":"Bravo","coordinates":{"lat":"20.0488889","long":"-75.4936111"}},{"country":"cu","city":"Brazo de Encino","coordinates":{"lat":"22.6","long":"-83.9666667"}},{"country":"cu","city":"Brazo de los Indios","coordinates":{"lat":"20.5666667","long":"-76.9333333"}},{"country":"cu","city":"Brazo Seco","coordinates":{"lat":"20.0088889","long":"-75.3977778"}},{"country":"cu","city":"Briens","coordinates":{"lat":"22.3","long":"-80.8"}},{"country":"cu","city":"Brinquin","coordinates":{"lat":"20.6166667","long":"-74.75"}},{"country":"cu","city":"Briones","coordinates":{"lat":"22.3","long":"-80.8"}},{"country":"cu","city":"Brisas del Mar","coordinates":{"lat":"23.1736111","long":"-82.1041667"}},{"country":"cu","city":"Brisas del Mar","coordinates":{"lat":"23.0166667","long":"-82.7583333"}},{"country":"cu","city":"Briseida","coordinates":{"lat":"20.3666667","long":"-75.6666667"}},{"country":"cu","city":"Brito","coordinates":{"lat":"22.7666667","long":"-80.5833333"}},{"country":"cu","city":"Brito","coordinates":{"lat":"21.15","long":"-77.05"}},{"country":"cu","city":"Brito","coordinates":{"lat":"20.4666667","long":"-75.9833333"}},{"country":"cu","city":"Brödermann","coordinates":{"lat":"21.8166667","long":"-77.9166667"}},{"country":"cu","city":"Brufaou","coordinates":{"lat":"22.7666667","long":"-80.6666667"}},{"country":"cu","city":"Bruja Seibabo","coordinates":{"lat":"22.2902778","long":"-79.9786111"}},{"country":"cu","city":"Brujo","coordinates":{"lat":"22.8166667","long":"-83.05"}},{"country":"cu","city":"Brunet","coordinates":{"lat":"22.5166667","long":"-83.6166667"}},{"country":"cu","city":"Bruñí","coordinates":{"lat":"20.3666667","long":"-75.7"}},{"country":"cu","city":"Bruno Número 1","coordinates":{"lat":"20.9666667","long":"-75.7"}},{"country":"cu","city":"Bruno Número Uno","coordinates":{"lat":"20.9666667","long":"-75.7"}},{"country":"cu","city":"Buena Suerte","coordinates":{"lat":"22.7833333","long":"-82.8333333"}},{"country":"cu","city":"Buenaventura","coordinates":{"lat":"22.3","long":"-83.75"}},{"country":"cu","city":"Buenaventura","coordinates":{"lat":"22.2766667","long":"-81.2191667"}},{"country":"cu","city":"Buena Ventura","coordinates":{"lat":"22.2766667","long":"-81.2191667"}},{"country":"cu","city":"Buena Ventura","coordinates":{"lat":"22.6983333","long":"-81.0352778"}},{"country":"cu","city":"Buenaventura","coordinates":{"lat":"22.8333333","long":"-81.4333333"}},{"country":"cu","city":"Buenaventura","coordinates":{"lat":"21.0333333","long":"-78.2166667"}},{"country":"cu","city":"Buenaventura","coordinates":{"lat":"22.8816667","long":"-82.3802778"}},{"country":"cu","city":"Buena Ventura","coordinates":{"lat":"20.6166667","long":"-75.85"}},{"country":"cu","city":"Buenaventura","coordinates":{"lat":"20.8647222","long":"-76.6397222"}},{"country":"cu","city":"Buenaventura","coordinates":{"lat":"20.7488889","long":"-77.5136111"}},{"country":"cu","city":"Buena Vista","coordinates":{"lat":"22.2166667","long":"-83.8833333"}},{"country":"cu","city":"Buenavista","coordinates":{"lat":"22.6833333","long":"-83.2333333"}},{"country":"cu","city":"Buena Vista","coordinates":{"lat":"22.7166667","long":"-83.05"}},{"country":"cu","city":"Buenavista","coordinates":{"lat":"22.7166667","long":"-83.1"}},{"country":"cu","city":"Buenavista","coordinates":{"lat":"22.9833333","long":"-82.4"}},{"country":"cu","city":"Buena Vista","coordinates":{"lat":"23.1041667","long":"-82.4305556"}},{"country":"cu","city":"Buenavista","coordinates":{"lat":"23.15","long":"-82.2666667"}},{"country":"cu","city":"Buena Vista","coordinates":{"lat":"22.9636111","long":"-81.2527778"}},{"country":"cu","city":"Buenavista","coordinates":{"lat":"22.0666667","long":"-78.4166667"}},{"country":"cu","city":"Buena Vista","coordinates":{"lat":"22.1833333","long":"-80.35"}},{"country":"cu","city":"Buenavista","coordinates":{"lat":"19.9086111","long":"-77.1413889"}},{"country":"cu","city":"Buenavista","coordinates":{"lat":"20.3636111","long":"-74.9716667"}},{"country":"cu","city":"Buena Vista","coordinates":{"lat":"20.3636111","long":"-74.9716667"}},{"country":"cu","city":"Buenavista","coordinates":{"lat":"22.75","long":"-82.8166667"}},{"country":"cu","city":"Buena Vista","coordinates":{"lat":"21.7666667","long":"-79.3666667"}},{"country":"cu","city":"Buenavista","coordinates":{"lat":"21.8333333","long":"-79.9"}},{"country":"cu","city":"Buenavista","coordinates":{"lat":"20.0391667","long":"-75.9530556"}},{"country":"cu","city":"Buena Vista","coordinates":{"lat":"22.3602778","long":"-79.4822222"}},{"country":"cu","city":"Buenavista","coordinates":{"lat":"22.45","long":"-80.0166667"}},{"country":"cu","city":"Buena Vista","coordinates":{"lat":"22.6166667","long":"-79.7833333"}},{"country":"cu","city":"Buen Consejo","coordinates":{"lat":"22.2333333","long":"-79.2666667"}},{"country":"cu","city":"Bueno","coordinates":{"lat":"21.1833333","long":"-77.4166667"}},{"country":"cu","city":"Buenos Aires","coordinates":{"lat":"23.0758333","long":"-82.3205556"}},{"country":"cu","city":"Buenos Aires","coordinates":{"lat":"21.9666667","long":"-80.15"}},{"country":"cu","city":"Buenos Aires","coordinates":{"lat":"22.9166667","long":"-82.3833333"}},{"country":"cu","city":"Buen Retiro","coordinates":{"lat":"22.9536111","long":"-81.7152778"}},{"country":"cu","city":"Bueycabón","coordinates":{"lat":"19.9663889","long":"-75.9597222"}},{"country":"cu","city":"Bueycito","coordinates":{"lat":"20.2333333","long":"-76.7666667"}},{"country":"cu","city":"Bueycitos","coordinates":{"lat":"20.2333333","long":"-76.7666667"}},{"country":"cu","city":"Búfalo","coordinates":{"lat":"22.7833333","long":"-80.65"}},{"country":"cu","city":"Burenes","coordinates":{"lat":"20.2025","long":"-75.9016667"}},{"country":"cu","city":"Burón","coordinates":{"lat":"23.05","long":"-82.35"}},{"country":"cu","city":"Cabacú","coordinates":{"lat":"20.3036111","long":"-74.4575"}},{"country":"cu","city":"Cabada","coordinates":{"lat":"22.2166667","long":"-80.1833333"}},{"country":"cu","city":"Cabagán Abajo","coordinates":{"lat":"20.2166667","long":"-76.95"}},{"country":"cu","city":"Cabagán","coordinates":{"lat":"20.2","long":"-76.95"}},{"country":"cu","city":"Cabaiguán","coordinates":{"lat":"22.0788889","long":"-79.4991667"}},{"country":"cu","city":"Caballero","coordinates":{"lat":"21.1166667","long":"-76.8166667"}},{"country":"cu","city":"Caballeros","coordinates":{"lat":"21.7375","long":"-78.7736111"}},{"country":"cu","city":"Caballo","coordinates":{"lat":"21.7375","long":"-78.7736111"}},{"country":"cu","city":"Caballo Dos","coordinates":{"lat":"21.7694444","long":"-78.8144444"}},{"country":"cu","city":"Cabana","coordinates":{"lat":"20.1227778","long":"-75.4427778"}},{"country":"cu","city":"Cabañas","coordinates":{"lat":"20.1227778","long":"-75.4427778"}},{"country":"cu","city":"Cabañas","coordinates":{"lat":"22.9758333","long":"-82.9219444"}},{"country":"cu","city":"Cabañas","coordinates":{"lat":"19.9738889","long":"-75.9152778"}},{"country":"cu","city":"Cabanzón","coordinates":{"lat":"22.2833333","long":"-83.7833333"}},{"country":"cu","city":"Cabera","coordinates":{"lat":"21.2416667","long":"-78.2997222"}},{"country":"cu","city":"Cabeso","coordinates":{"lat":"20.8894444","long":"-76.6361111"}},{"country":"cu","city":"Cabeza","coordinates":{"lat":"22.4763889","long":"-83.8622222"}},{"country":"cu","city":"Cabezada","coordinates":{"lat":"20.35","long":"-76.85"}},{"country":"cu","city":"Cabeza del Mulo","coordinates":{"lat":"22.4763889","long":"-83.8622222"}},{"country":"cu","city":"Cabeza de Vaca","coordinates":{"lat":"21.4827778","long":"-77.9425"}},{"country":"cu","city":"Cabeza de Vaca","coordinates":{"lat":"20.2577778","long":"-74.8386111"}},{"country":"cu","city":"Cabezas","coordinates":{"lat":"22.4763889","long":"-83.8622222"}},{"country":"cu","city":"Cabezas","coordinates":{"lat":"22.8416667","long":"-81.6788889"}},{"country":"cu","city":"Cabezo","coordinates":{"lat":"20.8894444","long":"-76.6361111"}},{"country":"cu","city":"Cabezuelas","coordinates":{"lat":"20.8622222","long":"-76.4447222"}},{"country":"cu","city":"Cabo Cruz","coordinates":{"lat":"19.85","long":"-77.7333333"}},{"country":"cu","city":"Cabonico","coordinates":{"lat":"20.6833333","long":"-75.4666667"}},{"country":"cu","city":"Cabrera","coordinates":{"lat":"22.3","long":"-83.8"}},{"country":"cu","city":"Cabrera","coordinates":{"lat":"22.2166667","long":"-78.85"}},{"country":"cu","city":"Cabrera","coordinates":{"lat":"22.8166667","long":"-80.3166667"}},{"country":"cu","city":"Cabrera","coordinates":{"lat":"22.9166667","long":"-82.4166667"}},{"country":"cu","city":"Cabrera","coordinates":{"lat":"21.1333333","long":"-76.8333333"}},{"country":"cu","city":"Cabrera","coordinates":{"lat":"20.2666667","long":"-75.95"}},{"country":"cu","city":"Cacahual","coordinates":{"lat":"21.9833333","long":"-78.6333333"}},{"country":"cu","city":"Cacahual","coordinates":{"lat":"22.1666667","long":"-79.0333333"}},{"country":"cu","city":"Cacho","coordinates":{"lat":"23.05","long":"-82.0"}},{"country":"cu","city":"Cachopo","coordinates":{"lat":"21.8383333","long":"-79.1863889"}},{"country":"cu","city":"Cacigue","coordinates":{"lat":"22.5666667","long":"-79.7166667"}},{"country":"cu","city":"Cacique","coordinates":{"lat":"22.1833333","long":"-79.6333333"}},{"country":"cu","city":"Cacique","coordinates":{"lat":"22.5666667","long":"-79.7166667"}},{"country":"cu","city":"Cacocum","coordinates":{"lat":"20.7388889","long":"-76.3263889"}},{"country":"cu","city":"Cacocún","coordinates":{"lat":"20.7472222","long":"-76.3813889"}},{"country":"cu","city":"Cadenas","coordinates":{"lat":"20.8","long":"-77.9333333"}},{"country":"cu","city":"Cafetal Abreu","coordinates":{"lat":"22.7166667","long":"-83.1166667"}},{"country":"cu","city":"Cafetal","coordinates":{"lat":"22.7627778","long":"-81.1777778"}},{"country":"cu","city":"Cafetal","coordinates":{"lat":"22.75","long":"-82.2833333"}},{"country":"cu","city":"Cafetal","coordinates":{"lat":"22.3666667","long":"-79.5333333"}},{"country":"cu","city":"Cafetal Dolores","coordinates":{"lat":"22.3666667","long":"-79.5333333"}},{"country":"cu","city":"Caguagua","coordinates":{"lat":"22.8333333","long":"-80.2"}},{"country":"cu","city":"Caguaguas","coordinates":{"lat":"22.8333333","long":"-80.2"}},{"country":"cu","city":"Caguairan Blanco","coordinates":{"lat":"20.1458333","long":"-75.2788889"}},{"country":"cu","city":"Caguasa","coordinates":{"lat":"21.8594444","long":"-78.8561111"}},{"country":"cu","city":"Caguasal","coordinates":{"lat":"21.8594444","long":"-78.8561111"}},{"country":"cu","city":"Caguasal","coordinates":{"lat":"22.16","long":"-79.7622222"}},{"country":"cu","city":"Caguasales","coordinates":{"lat":"22.6166667","long":"-83.45"}},{"country":"cu","city":"Caguazal","coordinates":{"lat":"21.8594444","long":"-78.8561111"}},{"country":"cu","city":"Caguazo","coordinates":{"lat":"22.9333333","long":"-82.3666667"}},{"country":"cu","city":"Cagüeira","coordinates":{"lat":"21.7002778","long":"-79.5666667"}},{"country":"cu","city":"Cagueiras","coordinates":{"lat":"21.7002778","long":"-79.5666667"}},{"country":"cu","city":"Cagüinas","coordinates":{"lat":"20.3036111","long":"-74.4572222"}},{"country":"cu","city":"Cahotal","coordinates":{"lat":"20.8588889","long":"-76.4547222"}},{"country":"cu","city":"Caibairien","coordinates":{"lat":"22.5205556","long":"-79.4669444"}},{"country":"cu","city":"Caibarién","coordinates":{"lat":"22.5205556","long":"-79.4669444"}},{"country":"cu","city":"Caidiso","coordinates":{"lat":"20.1833333","long":"-76.45"}},{"country":"cu","city":"Caimana","coordinates":{"lat":"20.6833333","long":"-75.7"}},{"country":"cu","city":"Caimanera","coordinates":{"lat":"22.1666667","long":"-80.55"}},{"country":"cu","city":"Caimanera","coordinates":{"lat":"19.9894444","long":"-75.1511111"}},{"country":"cu","city":"Caimela","coordinates":{"lat":"20.3666667","long":"-76.2"}},{"country":"cu","city":"Caimeta","coordinates":{"lat":"20.3666667","long":"-76.2"}},{"country":"cu","city":"Caimiabo Arriba","coordinates":{"lat":"21.8","long":"-79.3166667"}},{"country":"cu","city":"Caimiabo","coordinates":{"lat":"21.7333333","long":"-79.3166667"}},{"country":"cu","city":"Caimital de Ortega","coordinates":{"lat":"22.6333333","long":"-80.8333333"}},{"country":"cu","city":"Caimito","coordinates":{"lat":"22.3","long":"-84.2833333"}},{"country":"cu","city":"Caimito","coordinates":{"lat":"22.4333333","long":"-80.9333333"}},{"country":"cu","city":"Caimito","coordinates":{"lat":"21.8813889","long":"-78.3191667"}},{"country":"cu","city":"Caimito","coordinates":{"lat":"22.4666667","long":"-80.8166667"}},{"country":"cu","city":"Caimito","coordinates":{"lat":"20.6297222","long":"-76.8133333"}},{"country":"cu","city":"Caimito","coordinates":{"lat":"22.7333333","long":"-81.8666667"}},{"country":"cu","city":"Caimito de Guayaba","coordinates":{"lat":"22.9516667","long":"-82.5988889"}},{"country":"cu","city":"Caimito del Guavabal","coordinates":{"lat":"22.9516667","long":"-82.5988889"}},{"country":"cu","city":"Caimito del Guayabal","coordinates":{"lat":"22.9516667","long":"-82.5988889"}},{"country":"cu","city":"Caimito del Hanábana","coordinates":{"lat":"22.4333333","long":"-80.9166667"}},{"country":"cu","city":"Caimito de Río Hondo","coordinates":{"lat":"22.5333333","long":"-83.5666667"}},{"country":"cu","city":"Caimito Dos","coordinates":{"lat":"21.8813889","long":"-78.3191667"}},{"country":"cu","city":"Caimito Guayabal","coordinates":{"lat":"22.9516667","long":"-82.5988889"}},{"country":"cu","city":"Caimito Uno","coordinates":{"lat":"21.8769444","long":"-78.3044444"}},{"country":"cu","city":"Caisimú","coordinates":{"lat":"21.1166667","long":"-76.95"}},{"country":"cu","city":"Cajero","coordinates":{"lat":"22.85","long":"-82.5166667"}},{"country":"cu","city":"Cajigas","coordinates":{"lat":"21.6833333","long":"-82.6666667"}},{"country":"cu","city":"Cajimaya","coordinates":{"lat":"20.6666667","long":"-75.6166667"}},{"country":"cu","city":"Cajobabo","coordinates":{"lat":"20.0730556","long":"-74.495"}},{"country":"cu","city":"Cajones","coordinates":{"lat":"22.5","long":"-83.2333333"}},{"country":"cu","city":"Calabaza","coordinates":{"lat":"22.6555556","long":"-83.2830556"}},{"country":"cu","city":"Calabaza","coordinates":{"lat":"20.8666667","long":"-76.5333333"}},{"country":"cu","city":"Calabaza","coordinates":{"lat":"21.9611111","long":"-80.0375"}},{"country":"cu","city":"Calabaza Número 7","coordinates":{"lat":"20.7666667","long":"-75.85"}},{"country":"cu","city":"Calabazar","coordinates":{"lat":"23.0161111","long":"-82.3733333"}},{"country":"cu","city":"Calabazar","coordinates":{"lat":"20.2833333","long":"-76.4666667"}},{"country":"cu","city":"Calabazar","coordinates":{"lat":"22.6447222","long":"-79.8961111"}},{"country":"cu","city":"Calabazar de Sagua","coordinates":{"lat":"22.6447222","long":"-79.8961111"}},{"country":"cu","city":"Calabazas","coordinates":{"lat":"20.45","long":"-75.3666667"}},{"country":"cu","city":"Calabazas","coordinates":{"lat":"22.1833333","long":"-79.5666667"}},{"country":"cu","city":"Calalina","coordinates":{"lat":"20.4333333","long":"-75.1666667"}},{"country":"cu","city":"Calambres","coordinates":{"lat":"20.2","long":"-76.9666667"}},{"country":"cu","city":"Calambrosia","coordinates":{"lat":"20.2","long":"-76.9666667"}},{"country":"cu","city":"Calambrosio","coordinates":{"lat":"20.2","long":"-76.9666667"}},{"country":"cu","city":"Calambuco","coordinates":{"lat":"22.65","long":"-83.3666667"}},{"country":"cu","city":"Calazán","coordinates":{"lat":"22.2166667","long":"-84.05"}},{"country":"cu","city":"Calderón","coordinates":{"lat":"22.8","long":"-82.55"}},{"country":"cu","city":"Calderón","coordinates":{"lat":"21.0608333","long":"-76.1408333"}},{"country":"cu","city":"Calera","coordinates":{"lat":"23.0205556","long":"-81.2163889"}},{"country":"cu","city":"Calera","coordinates":{"lat":"22.1833333","long":"-80.4666667"}},{"country":"cu","city":"Calera","coordinates":{"lat":"21.1455556","long":"-76.3605556"}},{"country":"cu","city":"Caleras","coordinates":{"lat":"22.9772222","long":"-81.7169444"}},{"country":"cu","city":"Calero","coordinates":{"lat":"22.8333333","long":"-82.5166667"}},{"country":"cu","city":"Caleta Grande","coordinates":{"lat":"21.5141667","long":"-83.1063889"}},{"country":"cu","city":"Caleta Larga","coordinates":{"lat":"21.8347222","long":"-84.9247222"}},{"country":"cu","city":"Caletones","coordinates":{"lat":"21.2","long":"-76.2333333"}},{"country":"cu","city":"Calicito","coordinates":{"lat":"20.25","long":"-77.2"}},{"country":"cu","city":"Calicitos","coordinates":{"lat":"20.25","long":"-77.2"}},{"country":"cu","city":"Calienes","coordinates":{"lat":"22.2105556","long":"-79.0433333"}},{"country":"cu","city":"Calientes","coordinates":{"lat":"22.4166667","long":"-83.9333333"}},{"country":"cu","city":"California","coordinates":{"lat":"23.0927778","long":"-82.3233333"}},{"country":"cu","city":"California","coordinates":{"lat":"21.5833333","long":"-77.5"}},{"country":"cu","city":"Calimete","coordinates":{"lat":"22.5333333","long":"-80.9061111"}},{"country":"cu","city":"Calixto","coordinates":{"lat":"20.9197222","long":"-76.8713889"}},{"country":"cu","city":"Calixto López","coordinates":{"lat":"22.3333333","long":"-83.7833333"}},{"country":"cu","city":"Callahaca","coordinates":{"lat":"20.1","long":"-77.25"}},{"country":"cu","city":"Callahacas","coordinates":{"lat":"20.1","long":"-77.25"}},{"country":"cu","city":"Callajacas","coordinates":{"lat":"20.1","long":"-77.25"}},{"country":"cu","city":"Callejas","coordinates":{"lat":"22.7166667","long":"-83.0166667"}},{"country":"cu","city":"Callejón de Tranca","coordinates":{"lat":"22.3333333","long":"-83.7666667"}},{"country":"cu","city":"Callojo","coordinates":{"lat":"20.8","long":"-77.1"}},{"country":"cu","city":"Calonge","coordinates":{"lat":"22.65","long":"-80.0666667"}},{"country":"cu","city":"Calonge","coordinates":{"lat":"22.8833333","long":"-80.6"}},{"country":"cu","city":"Calonge Gutiérrez","coordinates":{"lat":"22.8833333","long":"-80.6"}},{"country":"cu","city":"Calvario","coordinates":{"lat":"23.0558333","long":"-82.3313889"}},{"country":"cu","city":"Calzadilla","coordinates":{"lat":"22.6708333","long":"-80.7044444"}},{"country":"cu","city":"Cama Alta","coordinates":{"lat":"22.4166667","long":"-83.7333333"}},{"country":"cu","city":"Camacho","coordinates":{"lat":"22.725","long":"-82.365"}},{"country":"cu","city":"Camacho","coordinates":{"lat":"22.4166667","long":"-79.95"}},{"country":"cu","city":"Camaguarí","coordinates":{"lat":"21.2333333","long":"-77.1"}},{"country":"cu","city":"Camagüey","coordinates":{"lat":"21.3808333","long":"-77.9169444"}},{"country":"cu","city":"Camagüey","coordinates":{"lat":"20.3","long":"-76.05"}},{"country":"cu","city":"Camaioca","coordinates":{"lat":"23.1166667","long":"-81.3666667"}},{"country":"cu","city":"Camajuani","coordinates":{"lat":"21.05","long":"-75.9166667"}},{"country":"cu","city":"Camajuaní","coordinates":{"lat":"22.465","long":"-79.7244444"}},{"country":"cu","city":"Camalote","coordinates":{"lat":"21.3513889","long":"-77.1344444"}},{"country":"cu","city":"Camalote","coordinates":{"lat":"21.8225","long":"-78.8141667"}},{"country":"cu","city":"Camalote","coordinates":{"lat":"20.9","long":"-77.1666667"}},{"country":"cu","city":"Camalote Viejo","coordinates":{"lat":"21.3513889","long":"-77.1344444"}},{"country":"cu","city":"Cámara","coordinates":{"lat":"21.5833333","long":"-77.5833333"}},{"country":"cu","city":"Camarioca","coordinates":{"lat":"23.0608333","long":"-81.3569444"}},{"country":"cu","city":"Camarón","coordinates":{"lat":"22.4","long":"-79.75"}},{"country":"cu","city":"Camarones","coordinates":{"lat":"22.3166667","long":"-80.3166667"}},{"country":"cu","city":"Camarones","coordinates":{"lat":"20.4338889","long":"-74.6016667"}},{"country":"cu","city":"Camarones","coordinates":{"lat":"23.05","long":"-81.8"}},{"country":"cu","city":"Camarones","coordinates":{"lat":"20.94","long":"-76.2680556"}},{"country":"cu","city":"Camasan","coordinates":{"lat":"20.7833333","long":"-76.1091667"}},{"country":"cu","city":"Camason","coordinates":{"lat":"20.7833333","long":"-76.1091667"}},{"country":"cu","city":"Camazán","coordinates":{"lat":"20.7833333","long":"-76.1091667"}},{"country":"cu","city":"Cambria","coordinates":{"lat":"21.9833333","long":"-79.2333333"}},{"country":"cu","city":"Cambute","coordinates":{"lat":"23.0777778","long":"-82.2680556"}},{"country":"cu","city":"Cambute","coordinates":{"lat":"20.1666667","long":"-76.1666667"}},{"country":"cu","city":"Camelote","coordinates":{"lat":"21.3719444","long":"-77.1452778"}},{"country":"cu","city":"Camilo Cienfuegos","coordinates":{"lat":"23.1288889","long":"-81.9430556"}},{"country":"cu","city":"Camilo Cienfuegos Número 1","coordinates":{"lat":"22.7036111","long":"-81.2052778"}},{"country":"cu","city":"Camilo Cienfuegos Número 2","coordinates":{"lat":"22.65","long":"-81.25"}},{"country":"cu","city":"Camilo Cienfuegos Número Dos","coordinates":{"lat":"22.65","long":"-81.25"}},{"country":"cu","city":"Camilo CienfuegosUno","coordinates":{"lat":"22.7036111","long":"-81.2052778"}},{"country":"cu","city":"Camilo Marín","coordinates":{"lat":"21.7","long":"-79.6333333"}},{"country":"cu","city":"Camina Blanca","coordinates":{"lat":"19.9852778","long":"-75.1116667"}},{"country":"cu","city":"Camonte","coordinates":{"lat":"22.5666667","long":"-83.3333333"}},{"country":"cu","city":"Camorones","coordinates":{"lat":"22.3166667","long":"-80.3166667"}},{"country":"cu","city":"Campamento","coordinates":{"lat":"22.85","long":"-82.5666667"}},{"country":"cu","city":"Campamento José Marti","coordinates":{"lat":"23.1666667","long":"-82.2"}},{"country":"cu","city":"Campana","coordinates":{"lat":"23.1119444","long":"-81.7177778"}},{"country":"cu","city":"Campana","coordinates":{"lat":"22.0955556","long":"-79.6488889"}},{"country":"cu","city":"Campana","coordinates":{"lat":"20.0430556","long":"-75.7588889"}},