[{"country":"hn","city":"Abajo","coordinates":{"lat":"15.7333333","long":"-86.1166667"}},{"country":"hn","city":"Abarrada","coordinates":{"lat":"13.3833333","long":"-86.9666667"}},{"country":"hn","city":"Abicinia","coordinates":{"lat":"14.6833333","long":"-87.4166667"}},{"country":"hn","city":"Abisinia","coordinates":{"lat":"14.6833333","long":"-87.4166667"}},{"country":"hn","city":"Abispero","coordinates":{"lat":"13.55","long":"-87.6166667"}},{"country":"hn","city":"Abra del Padre","coordinates":{"lat":"15.15","long":"-88.3"}},{"country":"hn","city":"Acaguaque","coordinates":{"lat":"14.0333333","long":"-87.5"}},{"country":"hn","city":"Acapulco","coordinates":{"lat":"14.85","long":"-87.0"}},{"country":"hn","city":"Aceituno","coordinates":{"lat":"13.7166667","long":"-86.9333333"}},{"country":"hn","city":"Aceituno","coordinates":{"lat":"14.2333333","long":"-88.75"}},{"country":"hn","city":"Aceituno","coordinates":{"lat":"13.4833333","long":"-87.6833333"}},{"country":"hn","city":"Acensa","coordinates":{"lat":"13.2430556","long":"-87.3536111"}},{"country":"hn","city":"Acequia","coordinates":{"lat":"15.3666667","long":"-88.2166667"}},{"country":"hn","city":"Achiotal","coordinates":{"lat":"14.0833333","long":"-88.75"}},{"country":"hn","city":"Achiote","coordinates":{"lat":"15.5666667","long":"-86.1833333"}},{"country":"hn","city":"Achiote","coordinates":{"lat":"14.9166667","long":"-89.0333333"}},{"country":"hn","city":"Achiote","coordinates":{"lat":"13.7833333","long":"-86.6833333"}},{"country":"hn","city":"Achiote","coordinates":{"lat":"14.4333333","long":"-86.1666667"}},{"country":"hn","city":"Achiotes","coordinates":{"lat":"13.5311111","long":"-87.1338889"}},{"country":"hn","city":"Achiotes","coordinates":{"lat":"14.9166667","long":"-89.0333333"}},{"country":"hn","city":"Achotal","coordinates":{"lat":"15.0833333","long":"-88.1"}},{"country":"hn","city":"Achotal","coordinates":{"lat":"15.0","long":"-87.7333333"}},{"country":"hn","city":"Achote","coordinates":{"lat":"15.5666667","long":"-86.1833333"}},{"country":"hn","city":"Achote","coordinates":{"lat":"14.9166667","long":"-89.0333333"}},{"country":"hn","city":"Achotes","coordinates":{"lat":"13.5311111","long":"-87.1338889"}},{"country":"hn","city":"Achotes","coordinates":{"lat":"14.9166667","long":"-89.0333333"}},{"country":"hn","city":"Achotes","coordinates":{"lat":"15.6333333","long":"-88.1666667"}},{"country":"hn","city":"Achotes","coordinates":{"lat":"13.8041667","long":"-87.3258333"}},{"country":"hn","city":"Aciguaque","coordinates":{"lat":"14.0333333","long":"-87.5"}},{"country":"hn","city":"Adobal","coordinates":{"lat":"14.7833333","long":"-88.5"}},{"country":"hn","city":"Adurasta","coordinates":{"lat":"13.7997222","long":"-87.1666667"}},{"country":"hn","city":"Agalteca","coordinates":{"lat":"14.45","long":"-87.2666667"}},{"country":"hn","city":"Agalteca","coordinates":{"lat":"15.5","long":"-86.6"}},{"country":"hn","city":"Agua Agria","coordinates":{"lat":"13.3480556","long":"-87.0577778"}},{"country":"hn","city":"Agua Agria","coordinates":{"lat":"13.6333333","long":"-87.05"}},{"country":"hn","city":"Agua Amarilla","coordinates":{"lat":"15.0333333","long":"-87.7666667"}},{"country":"hn","city":"Agua Amarilla","coordinates":{"lat":"14.0333333","long":"-87.0833333"}},{"country":"hn","city":"Agua Amarilla","coordinates":{"lat":"15.2833333","long":"-85.7833333"}},{"country":"hn","city":"Agua Azul","coordinates":{"lat":"14.9166667","long":"-87.9666667"}},{"country":"hn","city":"Agua Azul Rancho","coordinates":{"lat":"14.9","long":"-87.95"}},{"country":"hn","city":"Agua Azul Sierra","coordinates":{"lat":"14.9166667","long":"-87.9666667"}},{"country":"hn","city":"Agua Blanca","coordinates":{"lat":"15.6833333","long":"-87.6333333"}},{"country":"hn","city":"Agua Blanca","coordinates":{"lat":"13.4666667","long":"-87.0333333"}},{"country":"hn","city":"Agua Blanca","coordinates":{"lat":"14.1166667","long":"-87.6"}},{"country":"hn","city":"Agua Blanca","coordinates":{"lat":"14.9333333","long":"-88.85"}},{"country":"hn","city":"Agua Blanca","coordinates":{"lat":"13.6333333","long":"-87.0666667"}},{"country":"hn","city":"Agua Blanca","coordinates":{"lat":"13.7561111","long":"-87.2"}},{"country":"hn","city":"Agua Blanca","coordinates":{"lat":"14.1833333","long":"-88.15"}},{"country":"hn","city":"Agua Blanca","coordinates":{"lat":"14.3","long":"-87.9"}},{"country":"hn","city":"Agua Blanca","coordinates":{"lat":"14.6166667","long":"-88.5833333"}},{"country":"hn","city":"Agua Blanca","coordinates":{"lat":"15.0666667","long":"-85.7"}},{"country":"hn","city":"Agua Blanca","coordinates":{"lat":"14.85","long":"-88.3"}},{"country":"hn","city":"Agua Blanca","coordinates":{"lat":"15.15","long":"-87.15"}},{"country":"hn","city":"Agua Blanca del Sur","coordinates":{"lat":"15.25","long":"-87.8833333"}},{"country":"hn","city":"Agua Blanca Norte","coordinates":{"lat":"15.45","long":"-87.75"}},{"country":"hn","city":"Agua Blanca Sur","coordinates":{"lat":"15.25","long":"-87.8833333"}},{"country":"hn","city":"Agua Blanquita","coordinates":{"lat":"14.8333333","long":"-88.25"}},{"country":"hn","city":"Agua Buena Abajo","coordinates":{"lat":"15.0166667","long":"-89.15"}},{"country":"hn","city":"Agua Buena","coordinates":{"lat":"15.6833333","long":"-87.0166667"}},{"country":"hn","city":"Agua Buena","coordinates":{"lat":"14.7666667","long":"-88.8"}},{"country":"hn","city":"Agua Buena","coordinates":{"lat":"14.9666667","long":"-88.3833333"}},{"country":"hn","city":"Agua Buena","coordinates":{"lat":"15.45","long":"-86.6833333"}},{"country":"hn","city":"Agua Buena Arriba","coordinates":{"lat":"15.0","long":"-89.1666667"}},{"country":"hn","city":"Agua Caliente","coordinates":{"lat":"15.7833333","long":"-86.6166667"}},{"country":"hn","city":"Agua Caliente","coordinates":{"lat":"13.4352778","long":"-87.2316667"}},{"country":"hn","city":"Agua Caliente","coordinates":{"lat":"15.85","long":"-85.2"}},{"country":"hn","city":"Agua Caliente","coordinates":{"lat":"14.8666667","long":"-87.7166667"}},{"country":"hn","city":"Agua Caliente","coordinates":{"lat":"14.8833333","long":"-88.8166667"}},{"country":"hn","city":"Agua Caliente","coordinates":{"lat":"15.5","long":"-88.05"}},{"country":"hn","city":"Agua Caliente","coordinates":{"lat":"13.4833333","long":"-87.5333333"}},{"country":"hn","city":"Agua Caliente","coordinates":{"lat":"13.7963889","long":"-87.1391667"}},{"country":"hn","city":"Agua Caliente","coordinates":{"lat":"13.8833333","long":"-88.3833333"}},{"country":"hn","city":"Agua Caliente","coordinates":{"lat":"13.8666667","long":"-87.6666667"}},{"country":"hn","city":"Agua Caliente","coordinates":{"lat":"14.05","long":"-88.6"}},{"country":"hn","city":"Agua Caliente","coordinates":{"lat":"14.55","long":"-89.2666667"}},{"country":"hn","city":"Agua Caliente","coordinates":{"lat":"14.8666667","long":"-86.5"}},{"country":"hn","city":"Agua Caliente","coordinates":{"lat":"14.7166667","long":"-88.1333333"}},{"country":"hn","city":"Agua Caliente","coordinates":{"lat":"15.5","long":"-86.2666667"}},{"country":"hn","city":"Agua Caliente de Linaca","coordinates":{"lat":"13.4352778","long":"-87.2316667"}},{"country":"hn","city":"Aguacatal","coordinates":{"lat":"13.25","long":"-86.9666667"}},{"country":"hn","city":"Aguacatal","coordinates":{"lat":"13.65","long":"-86.9333333"}},{"country":"hn","city":"Aguacatal","coordinates":{"lat":"13.9922222","long":"-87.3722222"}},{"country":"hn","city":"Aguacatal","coordinates":{"lat":"14.15","long":"-87.8166667"}},{"country":"hn","city":"Aguacatal","coordinates":{"lat":"14.8166667","long":"-88.5833333"}},{"country":"hn","city":"Aguacatal","coordinates":{"lat":"15.3166667","long":"-86.1666667"}},{"country":"hn","city":"Aguacatal","coordinates":{"lat":"14.8833333","long":"-88.15"}},{"country":"hn","city":"Aguacatales","coordinates":{"lat":"15.45","long":"-88.1"}},{"country":"hn","city":"Aguacatales","coordinates":{"lat":"15.3166667","long":"-86.1666667"}},{"country":"hn","city":"Aguacatales","coordinates":{"lat":"15.0833333","long":"-88.5"}},{"country":"hn","city":"Aguacate","coordinates":{"lat":"15.6333333","long":"-86.4333333"}},{"country":"hn","city":"Aguacate","coordinates":{"lat":"13.3666667","long":"-86.8833333"}},{"country":"hn","city":"Aguacate","coordinates":{"lat":"15.1333333","long":"-88.7333333"}},{"country":"hn","city":"Aguacate","coordinates":{"lat":"15.05","long":"-87.9666667"}},{"country":"hn","city":"Aguacate","coordinates":{"lat":"13.8166667","long":"-87.1"}},{"country":"hn","city":"Aguacate","coordinates":{"lat":"14.45","long":"-87.9333333"}},{"country":"hn","city":"Aguacate","coordinates":{"lat":"14.2166667","long":"-88.85"}},{"country":"hn","city":"Aguacate","coordinates":{"lat":"14.9166667","long":"-85.85"}},{"country":"hn","city":"Aguacate","coordinates":{"lat":"14.95","long":"-88.35"}},{"country":"hn","city":"Aguacate","coordinates":{"lat":"15.4666667","long":"-86.95"}},{"country":"hn","city":"Aguacate Arriba","coordinates":{"lat":"13.9333333","long":"-87.1166667"}},{"country":"hn","city":"Aguacate Línea","coordinates":{"lat":"15.6333333","long":"-86.4333333"}},{"country":"hn","city":"Aguacates","coordinates":{"lat":"14.3833333","long":"-87.2833333"}},{"country":"hn","city":"Aguacatillo","coordinates":{"lat":"14.8","long":"-88.7166667"}},{"country":"hn","city":"Aguacatillo","coordinates":{"lat":"13.7286111","long":"-87.0361111"}},{"country":"hn","city":"Aguacatillo","coordinates":{"lat":"14.2166667","long":"-86.9833333"}},{"country":"hn","city":"Aguacatillo","coordinates":{"lat":"14.45","long":"-88.6666667"}},{"country":"hn","city":"Aguacatillo","coordinates":{"lat":"14.8833333","long":"-86.2666667"}},{"country":"hn","city":"Agua Colorada","coordinates":{"lat":"15.1","long":"-87.25"}},{"country":"hn","city":"Agua dela Reina","coordinates":{"lat":"15.05","long":"-87.7666667"}},{"country":"hn","city":"Agua Dormida","coordinates":{"lat":"14.1166667","long":"-87.0666667"}},{"country":"hn","city":"Agua Dulce","coordinates":{"lat":"15.7833333","long":"-86.6333333"}},{"country":"hn","city":"Agua Dulce","coordinates":{"lat":"14.6","long":"-87.8333333"}},{"country":"hn","city":"Agua Dulce","coordinates":{"lat":"15.3","long":"-88.05"}},{"country":"hn","city":"Agua Dulce","coordinates":{"lat":"13.5952778","long":"-87.0811111"}},{"country":"hn","city":"Agua Dulce","coordinates":{"lat":"14.0","long":"-87.0"}},{"country":"hn","city":"Agua Dulce","coordinates":{"lat":"15.1833333","long":"-88.1333333"}},{"country":"hn","city":"Agua Dulcita","coordinates":{"lat":"14.7","long":"-87.75"}},{"country":"hn","city":"Agua Escondida","coordinates":{"lat":"14.75","long":"-88.6833333"}},{"country":"hn","city":"Agua Escondida","coordinates":{"lat":"13.6069444","long":"-87.0341667"}},{"country":"hn","city":"Agua Escondida","coordinates":{"lat":"13.7666667","long":"-87.4666667"}},{"country":"hn","city":"Agua Escondida","coordinates":{"lat":"14.05","long":"-88.4833333"}},{"country":"hn","city":"Agua Escondida","coordinates":{"lat":"14.5833333","long":"-88.2166667"}},{"country":"hn","city":"Agua Escondida","coordinates":{"lat":"15.0166667","long":"-87.65"}},{"country":"hn","city":"Agua Fría","coordinates":{"lat":"13.2458333","long":"-87.0469444"}},{"country":"hn","city":"Agua Fría","coordinates":{"lat":"14.5333333","long":"-87.6333333"}},{"country":"hn","city":"Agua Fría","coordinates":{"lat":"14.8833333","long":"-89.2"}},{"country":"hn","city":"Agua Fría","coordinates":{"lat":"13.9","long":"-86.7833333"}},{"country":"hn","city":"Agua Fría","coordinates":{"lat":"13.7333333","long":"-87.35"}},{"country":"hn","city":"Agua Fría","coordinates":{"lat":"14.3333333","long":"-88.75"}},{"country":"hn","city":"Agua Fría","coordinates":{"lat":"15.2666667","long":"-85.7833333"}},{"country":"hn","city":"Agua Fría","coordinates":{"lat":"13.45","long":"-87.55"}},{"country":"hn","city":"Agua Fría","coordinates":{"lat":"15.3166667","long":"-87.0166667"}},{"country":"hn","city":"Agua Helada","coordinates":{"lat":"14.5666667","long":"-88.45"}},{"country":"hn","city":"Agua Helada","coordinates":{"lat":"15.0666667","long":"-88.35"}},{"country":"hn","city":"Agualcaguaire","coordinates":{"lat":"13.55","long":"-87.0"}},{"country":"hn","city":"Agua Limpia","coordinates":{"lat":"15.85","long":"-85.7666667"}},{"country":"hn","city":"Agualote","coordinates":{"lat":"15.0333333","long":"-88.75"}},{"country":"hn","city":"Agualote","coordinates":{"lat":"15.3352778","long":"-88.5530556"}},{"country":"hn","city":"Aguán","coordinates":{"lat":"15.0833333","long":"-87.1666667"}},{"country":"hn","city":"Aguanqueterique","coordinates":{"lat":"13.95","long":"-87.6666667"}},{"country":"hn","city":"Aguanquetorique","coordinates":{"lat":"13.95","long":"-87.6666667"}},{"country":"hn","city":"Aguanterique","coordinates":{"lat":"14.05","long":"-88.05"}},{"country":"hn","city":"Agua Podrida","coordinates":{"lat":"13.5211111","long":"-87.1241667"}},{"country":"hn","city":"Agua Podrida","coordinates":{"lat":"13.6666667","long":"-87.0166667"}},{"country":"hn","city":"Agua Podrida","coordinates":{"lat":"13.765","long":"-87.3780556"}},{"country":"hn","city":"Agua Prieta","coordinates":{"lat":"15.5166667","long":"-87.9166667"}},{"country":"hn","city":"Agua Prieto","coordinates":{"lat":"15.5166667","long":"-87.9166667"}},{"country":"hn","city":"Aguaqueterique","coordinates":{"lat":"14.1333333","long":"-88.1166667"}},{"country":"hn","city":"Aguaquire","coordinates":{"lat":"15.15","long":"-85.5666667"}},{"country":"hn","city":"Agua Salada","coordinates":{"lat":"14.55","long":"-87.7166667"}},{"country":"hn","city":"Agua Salada","coordinates":{"lat":"13.6480556","long":"-87.005"}},{"country":"hn","city":"Agua Salada","coordinates":{"lat":"14.0333333","long":"-87.2"}},{"country":"hn","city":"Agua Sarca","coordinates":{"lat":"14.8833333","long":"-89.1"}},{"country":"hn","city":"Agua Sarca","coordinates":{"lat":"13.5869444","long":"-87.0788889"}},{"country":"hn","city":"Aguas del Padre","coordinates":{"lat":"14.5666667","long":"-87.8833333"}},{"country":"hn","city":"Aguasinga","coordinates":{"lat":"14.05","long":"-88.05"}},{"country":"hn","city":"Agua Sucia","coordinates":{"lat":"14.7666667","long":"-88.7833333"}},{"country":"hn","city":"Agua Sucia","coordinates":{"lat":"14.5333333","long":"-88.2666667"}},{"country":"hn","city":"Agua Sucia","coordinates":{"lat":"15.35","long":"-88.2"}},{"country":"hn","city":"Aguas Zarcas","coordinates":{"lat":"13.4833333","long":"-87.3833333"}},{"country":"hn","city":"Aguataya","coordinates":{"lat":"14.2833333","long":"-88.5"}},{"country":"hn","city":"Agua Tibia","coordinates":{"lat":"15.6","long":"-87.1666667"}},{"country":"hn","city":"Agua Tibia","coordinates":{"lat":"13.5561111","long":"-87.3116667"}},{"country":"hn","city":"Agua Tibia","coordinates":{"lat":"13.8166667","long":"-87.05"}},{"country":"hn","city":"Agua Viva","coordinates":{"lat":"13.9166667","long":"-86.7833333"}},{"country":"hn","city":"Agua Zarca","coordinates":{"lat":"15.6833333","long":"-85.25"}},{"country":"hn","city":"Agua Zarca","coordinates":{"lat":"14.8833333","long":"-89.1"}},{"country":"hn","city":"Agua Zarca","coordinates":{"lat":"15.0666667","long":"-88.0666667"}},{"country":"hn","city":"Agua Zarca","coordinates":{"lat":"13.5763889","long":"-87.0747222"}},{"country":"hn","city":"Agua Zarca","coordinates":{"lat":"13.7072222","long":"-87.2336111"}},{"country":"hn","city":"Agua Zarca","coordinates":{"lat":"14.35","long":"-88.3166667"}},{"country":"hn","city":"Agua Zarca","coordinates":{"lat":"14.05","long":"-88.3333333"}},{"country":"hn","city":"Agua Zarca","coordinates":{"lat":"14.6666667","long":"-86.4333333"}},{"country":"hn","city":"Agua Zarca","coordinates":{"lat":"14.7","long":"-88.1166667"}},{"country":"hn","city":"Agua Zarca","coordinates":{"lat":"13.4833333","long":"-87.3833333"}},{"country":"hn","city":"Agua Zarca","coordinates":{"lat":"15.0","long":"-87.7166667"}},{"country":"hn","city":"Aguila","coordinates":{"lat":"13.8666667","long":"-88.35"}},{"country":"hn","city":"Aguilar","coordinates":{"lat":"14.9","long":"-86.8166667"}},{"country":"hn","city":"Agujas","coordinates":{"lat":"13.7780556","long":"-87.0358333"}},{"country":"hn","city":"Ahogado","coordinates":{"lat":"13.4","long":"-86.8666667"}},{"country":"hn","city":"Ahuás","coordinates":{"lat":"15.4833333","long":"-84.3333333"}},{"country":"hn","city":"Ahuasbila","coordinates":{"lat":"14.7666667","long":"-84.75"}},{"country":"hn","city":"Ahuasdacban","coordinates":{"lat":"15.4166667","long":"-84.5333333"}},{"country":"hn","city":"Ahuás Ducpan","coordinates":{"lat":"15.4166667","long":"-84.5333333"}},{"country":"hn","city":"Ahuastá","coordinates":{"lat":"15.2666667","long":"-83.8166667"}},{"country":"hn","city":"Aída","coordinates":{"lat":"15.6166667","long":"-86.3833333"}},{"country":"hn","city":"Aída Trovatore","coordinates":{"lat":"15.6333333","long":"-86.3166667"}},{"country":"hn","city":"Ajagual","coordinates":{"lat":"14.65","long":"-88.7833333"}},{"country":"hn","city":"Ajuterique","coordinates":{"lat":"14.3833333","long":"-87.7"}},{"country":"hn","city":"Ajuyata","coordinates":{"lat":"15.1833333","long":"-83.4666667"}},{"country":"hn","city":"Alameda","coordinates":{"lat":"14.1","long":"-87.1833333"}},{"country":"hn","city":"Alao","coordinates":{"lat":"15.3","long":"-86.0833333"}},{"country":"hn","city":"Alao","coordinates":{"lat":"15.1166667","long":"-86.9833333"}},{"country":"hn","city":"Alaska","coordinates":{"lat":"15.1","long":"-87.3833333"}},{"country":"hn","city":"Alauca","coordinates":{"lat":"13.85","long":"-86.6833333"}},{"country":"hn","city":"Alauca Vieja","coordinates":{"lat":"13.8166667","long":"-86.7166667"}},{"country":"hn","city":"Alauca Viejo","coordinates":{"lat":"13.8166667","long":"-86.7166667"}},{"country":"hn","city":"Albania","coordinates":{"lat":"13.15","long":"-87.35"}},{"country":"hn","city":"Albardía","coordinates":{"lat":"13.75","long":"-87.65"}},{"country":"hn","city":"Albarrada","coordinates":{"lat":"13.3833333","long":"-86.9666667"}},{"country":"hn","city":"Aldea de Occidente","coordinates":{"lat":"14.0666667","long":"-87.05"}},{"country":"hn","city":"Aldea de San Pedro","coordinates":{"lat":"14.3666667","long":"-88.55"}},{"country":"hn","city":"Aldea La Concepción","coordinates":{"lat":"13.7675","long":"-87.4494444"}},{"country":"hn","city":"Aldea La Tajeada","coordinates":{"lat":"13.2525","long":"-87.0877778"}},{"country":"hn","city":"Aldea Nueva","coordinates":{"lat":"14.8166667","long":"-89.1333333"}},{"country":"hn","city":"Aldea Nueva","coordinates":{"lat":"14.3666667","long":"-89.0333333"}},{"country":"hn","city":"Aldea Pajapas","coordinates":{"lat":"14.3833333","long":"-88.5"}},{"country":"hn","city":"Aldea Santa Cruz","coordinates":{"lat":"14.3333333","long":"-86.7333333"}},{"country":"hn","city":"Aleanza","coordinates":{"lat":"15.05","long":"-88.3166667"}},{"country":"hn","city":"Alegría","coordinates":{"lat":"15.25","long":"-88.15"}},{"country":"hn","city":"Alegrías","coordinates":{"lat":"14.9333333","long":"-88.5666667"}},{"country":"hn","city":"Alemán","coordinates":{"lat":"14.5833333","long":"-86.3"}},{"country":"hn","city":"Algodonal","coordinates":{"lat":"13.7091667","long":"-87.3416667"}},{"country":"hn","city":"Algodones","coordinates":{"lat":"13.7872222","long":"-87.1936111"}},{"country":"hn","city":"Alianza","coordinates":{"lat":"13.4833333","long":"-87.1333333"}},{"country":"hn","city":"Alianza","coordinates":{"lat":"15.05","long":"-88.3166667"}},{"country":"hn","city":"Alianza","coordinates":{"lat":"13.5166667","long":"-87.7333333"}},{"country":"hn","city":"Alios","coordinates":{"lat":"13.7","long":"-87.65"}},{"country":"hn","city":"Alligartor Nose","coordinates":{"lat":"16.4333333","long":"-86.2833333"}},{"country":"hn","city":"Alligator Nose","coordinates":{"lat":"16.4333333","long":"-86.2833333"}},{"country":"hn","city":"Almendros","coordinates":{"lat":"14.1833333","long":"-86.6666667"}},{"country":"hn","city":"Almorzadero","coordinates":{"lat":"14.9666667","long":"-88.7"}},{"country":"hn","city":"Alomegas","coordinates":{"lat":"13.7666667","long":"-87.55"}},{"country":"hn","city":"Alondra","coordinates":{"lat":"14.1","long":"-88.4333333"}},{"country":"hn","city":"Alta Cruz","coordinates":{"lat":"15.2666667","long":"-86.95"}},{"country":"hn","city":"Alto de Jesús","coordinates":{"lat":"13.55","long":"-87.7666667"}},{"country":"hn","city":"Alto de la Mora","coordinates":{"lat":"13.5166667","long":"-87.0166667"}},{"country":"hn","city":"Alto El Basan","coordinates":{"lat":"13.5402778","long":"-87.4733333"}},{"country":"hn","city":"Alto Pino","coordinates":{"lat":"14.7666667","long":"-87.55"}},{"country":"hn","city":"Alto Pino","coordinates":{"lat":"13.8833333","long":"-86.5333333"}},{"country":"hn","city":"Alto Verde","coordinates":{"lat":"13.4405556","long":"-87.4516667"}},{"country":"hn","city":"Alubarén","coordinates":{"lat":"13.7961111","long":"-87.4688889"}},{"country":"hn","city":"Alvarado","coordinates":{"lat":"15.4333333","long":"-86.5666667"}},{"country":"hn","city":"Alvarenga","coordinates":{"lat":"15.2833333","long":"-87.4666667"}},{"country":"hn","city":"Alvares","coordinates":{"lat":"14.6166667","long":"-84.4"}},{"country":"hn","city":"Amacuapa","coordinates":{"lat":"14.8333333","long":"-86.3166667"}},{"country":"hn","city":"Amapa","coordinates":{"lat":"15.0333333","long":"-87.9833333"}},{"country":"hn","city":"Amapa","coordinates":{"lat":"15.1166667","long":"-88.1333333"}},{"country":"hn","city":"Amapala","coordinates":{"lat":"15.85","long":"-85.55"}},{"country":"hn","city":"Amapala","coordinates":{"lat":"13.2922222","long":"-87.6538889"}},{"country":"hn","city":"Amapa Nuevo","coordinates":{"lat":"15.0333333","long":"-88.0166667"}},{"country":"hn","city":"Amaranguiles","coordinates":{"lat":"14.6333333","long":"-86.7333333"}},{"country":"hn","city":"Amarateca","coordinates":{"lat":"14.2333333","long":"-87.3666667"}},{"country":"hn","city":"Amarillo","coordinates":{"lat":"15.8166667","long":"-85.1666667"}},{"country":"hn","city":"Amates","coordinates":{"lat":"14.1333333","long":"-88.7833333"}},{"country":"hn","city":"Amates","coordinates":{"lat":"13.45","long":"-87.75"}},{"country":"hn","city":"Amatillo","coordinates":{"lat":"14.5","long":"-88.85"}},{"country":"hn","city":"Amatillo","coordinates":{"lat":"13.7333333","long":"-86.9"}},{"country":"hn","city":"Amatillo","coordinates":{"lat":"14.0333333","long":"-88.6"}},{"country":"hn","city":"Amelar","coordinates":{"lat":"13.7833333","long":"-87.55"}},{"country":"hn","city":"América","coordinates":{"lat":"14.05","long":"-87.2166667"}},{"country":"hn","city":"Ana Sanches","coordinates":{"lat":"14.2833333","long":"-88.85"}},{"country":"hn","city":"Ana Sánchez","coordinates":{"lat":"14.2833333","long":"-88.85"}},{"country":"hn","city":"Andristara","coordinates":{"lat":"15.0166667","long":"-83.65"}},{"country":"hn","city":"Andurasta","coordinates":{"lat":"13.7997222","long":"-87.1666667"}},{"country":"hn","city":"Anea","coordinates":{"lat":"15.0333333","long":"-83.8"}},{"country":"hn","city":"Angostura","coordinates":{"lat":"14.4166667","long":"-88.15"}},{"country":"hn","city":"Angostura","coordinates":{"lat":"15.15","long":"-88.2833333"}},{"country":"hn","city":"Anices","coordinates":{"lat":"14.85","long":"-87.6166667"}},{"country":"hn","city":"Anices","coordinates":{"lat":"14.9","long":"-88.2166667"}},{"country":"hn","city":"Ánima","coordinates":{"lat":"13.85","long":"-88.3166667"}},{"country":"hn","city":"Animas","coordinates":{"lat":"14.6166667","long":"-87.1166667"}},{"country":"hn","city":"Anona","coordinates":{"lat":"14.5666667","long":"-89.2166667"}},{"country":"hn","city":"Anonal","coordinates":{"lat":"13.2833333","long":"-86.8833333"}},{"country":"hn","city":"Anonales","coordinates":{"lat":"15.1666667","long":"-88.3166667"}},{"country":"hn","city":"Anonalez","coordinates":{"lat":"15.1666667","long":"-88.3166667"}},{"country":"hn","city":"Anonas","coordinates":{"lat":"13.6169444","long":"-87.2805556"}},{"country":"hn","city":"Anonas","coordinates":{"lat":"14.05","long":"-87.7666667"}},{"country":"hn","city":"Anonas","coordinates":{"lat":"14.1333333","long":"-88.35"}},{"country":"hn","city":"Anonitas","coordinates":{"lat":"13.6333333","long":"-86.9166667"}},{"country":"hn","city":"Antigual","coordinates":{"lat":"15.75","long":"-85.7833333"}},{"country":"hn","city":"Antigua Ocotepeque","coordinates":{"lat":"14.4","long":"-89.2"}},{"country":"hn","city":"Antigua Plaza de Yucasapa","coordinates":{"lat":"14.2166667","long":"-87.9166667"}},{"country":"hn","city":"Antoneys Cay","coordinates":{"lat":"16.3333333","long":"-86.6"}},{"country":"hn","city":"Antonio","coordinates":{"lat":"14.9666667","long":"-87.8666667"}},{"country":"hn","city":"Antony-Caye","coordinates":{"lat":"16.3333333","long":"-86.6"}},{"country":"hn","city":"Antonys Cay","coordinates":{"lat":"16.3333333","long":"-86.6"}},{"country":"hn","city":"Anzuelo","coordinates":{"lat":"15.7833333","long":"-85.0833333"}},{"country":"hn","city":"Apabuco","coordinates":{"lat":"13.65","long":"-87.0166667"}},{"country":"hn","city":"Apacible","coordinates":{"lat":"15.1666667","long":"-87.5333333"}},{"country":"hn","city":"Apacilagua","coordinates":{"lat":"13.4780556","long":"-87.0755556"}},{"country":"hn","city":"Apacilagua","coordinates":{"lat":"14.75","long":"-87.5833333"}},{"country":"hn","city":"Apacilina","coordinates":{"lat":"13.85","long":"-87.6333333"}},{"country":"hn","city":"Apacinigua","coordinates":{"lat":"13.7994444","long":"-87.2722222"}},{"country":"hn","city":"Apaficuo","coordinates":{"lat":"13.7666667","long":"-87.55"}},{"country":"hn","city":"Apagual","coordinates":{"lat":"14.4666667","long":"-88.55"}},{"country":"hn","city":"Apala","coordinates":{"lat":"14.0166667","long":"-86.35"}},{"country":"hn","city":"Apalí","coordinates":{"lat":"13.6833333","long":"-86.9166667"}},{"country":"hn","city":"Apalipé","coordinates":{"lat":"13.6833333","long":"-86.9166667"}},{"country":"hn","city":"Apalipí","coordinates":{"lat":"13.6833333","long":"-86.9166667"}},{"country":"hn","city":"Apamar","coordinates":{"lat":"13.9122222","long":"-87.1483333"}},{"country":"hn","city":"Apamul","coordinates":{"lat":"13.8333333","long":"-87.5"}},{"country":"hn","city":"Apanguala","coordinates":{"lat":"14.4666667","long":"-88.55"}},{"country":"hn","city":"Apangual","coordinates":{"lat":"14.4666667","long":"-88.55"}},{"country":"hn","city":"Apantes","coordinates":{"lat":"14.1","long":"-88.6666667"}},{"country":"hn","city":"Aparcos","coordinates":{"lat":"13.7666667","long":"-87.55"}},{"country":"hn","city":"Apareos","coordinates":{"lat":"13.7666667","long":"-87.55"}},{"country":"hn","city":"Apasapo","coordinates":{"lat":"13.7166667","long":"-87.6333333"}},{"country":"hn","city":"Apasilagua","coordinates":{"lat":"13.4780556","long":"-87.0755556"}},{"country":"hn","city":"Apasilina","coordinates":{"lat":"13.85","long":"-87.6333333"}},{"country":"hn","city":"Apasinigua","coordinates":{"lat":"13.7994444","long":"-87.2722222"}},{"country":"hn","city":"Apasupo","coordinates":{"lat":"13.65","long":"-86.85"}},{"country":"hn","city":"Apatana","coordinates":{"lat":"13.8325","long":"-87.2413889"}},{"country":"hn","city":"Apatoro","coordinates":{"lat":"13.6833333","long":"-86.8833333"}},{"country":"hn","city":"Apauco","coordinates":{"lat":"13.65","long":"-87.0166667"}},{"country":"hn","city":"Apausupo","coordinates":{"lat":"13.6333333","long":"-86.95"}},{"country":"hn","city":"Apazapo","coordinates":{"lat":"13.65","long":"-86.85"}},{"country":"hn","city":"Apazote","coordinates":{"lat":"14.7666667","long":"-88.7833333"}},{"country":"hn","city":"Apazupo","coordinates":{"lat":"13.65","long":"-86.85"}},{"country":"hn","city":"Apintal","coordinates":{"lat":"13.6166667","long":"-87.5"}},{"country":"hn","city":"Apinto","coordinates":{"lat":"13.2608333","long":"-87.0230556"}},{"country":"hn","city":"Apomul","coordinates":{"lat":"13.8333333","long":"-87.5"}},{"country":"hn","city":"Arada","coordinates":{"lat":"14.0666667","long":"-88.5333333"}},{"country":"hn","city":"Arada","coordinates":{"lat":"14.85","long":"-88.3"}},{"country":"hn","city":"Arada","coordinates":{"lat":"13.5833333","long":"-87.65"}},{"country":"hn","city":"Aradas","coordinates":{"lat":"13.85","long":"-88.3166667"}},{"country":"hn","city":"Aradilla","coordinates":{"lat":"14.0333333","long":"-88.2833333"}},{"country":"hn","city":"Aradita","coordinates":{"lat":"14.95","long":"-88.3"}},{"country":"hn","city":"Araditas","coordinates":{"lat":"14.35","long":"-88.5"}},{"country":"hn","city":"Araditos","coordinates":{"lat":"13.4333333","long":"-86.9333333"}},{"country":"hn","city":"Araditos","coordinates":{"lat":"13.8038889","long":"-87.2227778"}},{"country":"hn","city":"Arado Grande","coordinates":{"lat":"13.65","long":"-86.9666667"}},{"country":"hn","city":"Arado Grande","coordinates":{"lat":"13.7166667","long":"-86.7833333"}},{"country":"hn","city":"Arados","coordinates":{"lat":"13.55","long":"-86.9333333"}},{"country":"hn","city":"Aragua","coordinates":{"lat":"13.9683333","long":"-87.29"}},{"country":"hn","city":"Aramecina","coordinates":{"lat":"13.75","long":"-87.7166667"}},{"country":"hn","city":"Araslaya","coordinates":{"lat":"15.7166667","long":"-84.4833333"}},{"country":"hn","city":"Araulí","coordinates":{"lat":"13.95","long":"-86.55"}},{"country":"hn","city":"Arcadia","coordinates":{"lat":"13.9227778","long":"-87.2436111"}},{"country":"hn","city":"Arcamón","coordinates":{"lat":"14.3666667","long":"-88.5666667"}},{"country":"hn","city":"Arcilaca","coordinates":{"lat":"14.5666667","long":"-88.5666667"}},{"country":"hn","city":"Arco","coordinates":{"lat":"14.0","long":"-86.5666667"}},{"country":"hn","city":"Arcomón","coordinates":{"lat":"14.3666667","long":"-88.5666667"}},{"country":"hn","city":"Arcos","coordinates":{"lat":"15.0333333","long":"-89.1666667"}},{"country":"hn","city":"Arcos","coordinates":{"lat":"14.0","long":"-86.5666667"}},{"country":"hn","city":"Arcuales","coordinates":{"lat":"13.8","long":"-87.2666667"}},{"country":"hn","city":"Ardón","coordinates":{"lat":"15.0833333","long":"-86.0833333"}},{"country":"hn","city":"Arena","coordinates":{"lat":"14.7333333","long":"-88.9666667"}},{"country":"hn","city":"Arena Blanca","coordinates":{"lat":"15.15","long":"-87.15"}},{"country":"hn","city":"Arena Blanca","coordinates":{"lat":"15.2833333","long":"-87.8"}},{"country":"hn","city":"Arenal","coordinates":{"lat":"13.2833333","long":"-86.8833333"}},{"country":"hn","city":"Arenal","coordinates":{"lat":"14.0","long":"-86.6333333"}},{"country":"hn","city":"Arenal","coordinates":{"lat":"14.6666667","long":"-88.4666667"}},{"country":"hn","city":"Arenal","coordinates":{"lat":"14.9666667","long":"-88.2"}},{"country":"hn","city":"Arenal","coordinates":{"lat":"15.35","long":"-86.8333333"}},{"country":"hn","city":"Arenales","coordinates":{"lat":"15.45","long":"-88.0"}},{"country":"hn","city":"Arenales","coordinates":{"lat":"13.7833333","long":"-85.8"}},{"country":"hn","city":"Arenales","coordinates":{"lat":"13.7333333","long":"-87.5666667"}},{"country":"hn","city":"Arenales","coordinates":{"lat":"14.2666667","long":"-87.8833333"}},{"country":"hn","city":"Arenales","coordinates":{"lat":"14.6666667","long":"-88.4666667"}},{"country":"hn","city":"Arenas","coordinates":{"lat":"14.6166667","long":"-87.5"}},{"country":"hn","city":"Arenas","coordinates":{"lat":"14.4833333","long":"-88.4833333"}},{"country":"hn","city":"Arenillas","coordinates":{"lat":"13.4725","long":"-87.2408333"}},{"country":"hn","city":"Árganas","coordinates":{"lat":"14.5333333","long":"-88.6166667"}},{"country":"hn","city":"Arimarica","coordinates":{"lat":"13.7236111","long":"-87.1336111"}},{"country":"hn","city":"Arimís","coordinates":{"lat":"14.7833333","long":"-86.0"}},{"country":"hn","city":"Arizona","coordinates":{"lat":"15.6333333","long":"-87.3166667"}},{"country":"hn","city":"Armenia","coordinates":{"lat":"15.4666667","long":"-86.3666667"}},{"country":"hn","city":"Armenia Bonito","coordinates":{"lat":"15.6833333","long":"-86.8666667"}},{"country":"hn","city":"Armenta","coordinates":{"lat":"15.5","long":"-88.05"}},{"country":"hn","city":"Arocho","coordinates":{"lat":"13.6166667","long":"-87.2666667"}},{"country":"hn","city":"Arranca Barba","coordinates":{"lat":"14.6833333","long":"-88.9333333"}},{"country":"hn","city":"Arrayán","coordinates":{"lat":"14.7833333","long":"-88.6833333"}},{"country":"hn","city":"Arrayan","coordinates":{"lat":"14.1666667","long":"-88.2833333"}},{"country":"hn","city":"Arrayán","coordinates":{"lat":"15.5166667","long":"-86.6333333"}},{"country":"hn","city":"Arrayanes","coordinates":{"lat":"13.7833333","long":"-86.9333333"}},{"country":"hn","city":"Arrayanes","coordinates":{"lat":"14.4166667","long":"-87.9666667"}},{"country":"hn","city":"Arrayanes","coordinates":{"lat":"15.1666667","long":"-87.2"}},{"country":"hn","city":"Arraynes","coordinates":{"lat":"14.4166667","long":"-87.9666667"}},{"country":"hn","city":"Arreaguja","coordinates":{"lat":"13.6333333","long":"-87.0333333"}},{"country":"hn","city":"Arrosal","coordinates":{"lat":"16.3833333","long":"-86.3833333"}},{"country":"hn","city":"Arrozal","coordinates":{"lat":"16.3833333","long":"-86.3833333"}},{"country":"hn","city":"Arsilaca","coordinates":{"lat":"14.5666667","long":"-88.5666667"}},{"country":"hn","city":"Artemisales","coordinates":{"lat":"15.45","long":"-87.9333333"}},{"country":"hn","city":"Artemizales","coordinates":{"lat":"15.45","long":"-87.9333333"}},{"country":"hn","city":"Aserradera","coordinates":{"lat":"14.3833333","long":"-86.75"}},{"country":"hn","city":"Aserradero","coordinates":{"lat":"14.9166667","long":"-87.9666667"}},{"country":"hn","city":"Aserradero","coordinates":{"lat":"14.3666667","long":"-87.0"}},{"country":"hn","city":"Aserradero Miravalles","coordinates":{"lat":"14.6833333","long":"-87.2"}},{"country":"hn","city":"Aserradero Monterrey","coordinates":{"lat":"14.3666667","long":"-87.0"}},{"country":"hn","city":"Asturias","coordinates":{"lat":"14.0666667","long":"-86.5333333"}},{"country":"hn","city":"Asunción","coordinates":{"lat":"13.5666667","long":"-87.0333333"}},{"country":"hn","city":"Asunsion","coordinates":{"lat":"13.5666667","long":"-87.0333333"}},{"country":"hn","city":"Atapaire","coordinates":{"lat":"13.7166667","long":"-86.9"}},{"country":"hn","city":"Atascosa","coordinates":{"lat":"15.7333333","long":"-86.1"}},{"country":"hn","city":"Atenas de San Cristóbal","coordinates":{"lat":"15.6833333","long":"-87.3166667"}},{"country":"hn","city":"Atillo","coordinates":{"lat":"14.2666667","long":"-87.05"}},{"country":"hn","city":"Atima","coordinates":{"lat":"14.9333333","long":"-88.4833333"}},{"country":"hn","city":"Auas","coordinates":{"lat":"15.4833333","long":"-84.3333333"}},{"country":"hn","city":"Auasbila","coordinates":{"lat":"14.7666667","long":"-84.75"}},{"country":"hn","city":"Auasdacura","coordinates":{"lat":"15.1333333","long":"-83.6833333"}},{"country":"hn","city":"Auasdákura","coordinates":{"lat":"15.1333333","long":"-83.6833333"}},{"country":"hn","city":"Auaslupia","coordinates":{"lat":"15.1166667","long":"-83.6833333"}},{"country":"hn","city":"Auaspani","coordinates":{"lat":"15.2333333","long":"-83.8666667"}},{"country":"hn","city":"Auastá","coordinates":{"lat":"15.2666667","long":"-83.8166667"}},{"country":"hn","city":"Auastingni","coordinates":{"lat":"15.1833333","long":"-83.6333333"}},{"country":"hn","city":"Auca","coordinates":{"lat":"14.9333333","long":"-83.8333333"}},{"country":"hn","city":"Audiencia","coordinates":{"lat":"15.6","long":"-87.1166667"}},{"country":"hn","city":"Auga Caliente","coordinates":{"lat":"14.2833333","long":"-88.45"}},{"country":"hn","city":"Auka","coordinates":{"lat":"14.9333333","long":"-83.8333333"}},{"country":"hn","city":"Aulola","coordinates":{"lat":"15.2333333","long":"-88.3166667"}},{"country":"hn","city":"Aurali","coordinates":{"lat":"13.95","long":"-86.55"}},{"country":"hn","city":"Auratá","coordinates":{"lat":"15.4333333","long":"-84.1"}},{"country":"hn","city":"Avanzada","coordinates":{"lat":"14.1666667","long":"-88.75"}},{"country":"hn","city":"Avas Duchan","coordinates":{"lat":"15.4166667","long":"-84.5333333"}},{"country":"hn","city":"Avas Duepan","coordinates":{"lat":"15.4166667","long":"-84.5333333"}},{"country":"hn","city":"Avillal","coordinates":{"lat":"13.6833333","long":"-86.9"}},{"country":"hn","city":"Avispero","coordinates":{"lat":"13.5333333","long":"-87.5833333"}},{"country":"hn","city":"Awalwas","coordinates":{"lat":"14.7666667","long":"-84.9666667"}},{"country":"hn","city":"Awas","coordinates":{"lat":"15.4833333","long":"-84.3333333"}},{"country":"hn","city":"Awas Bila","coordinates":{"lat":"14.7666667","long":"-84.75"}},{"country":"hn","city":"Awasbila","coordinates":{"lat":"14.7666667","long":"-84.9666667"}},{"country":"hn","city":"Awas Ducban","coordinates":{"lat":"15.4166667","long":"-84.5333333"}},{"country":"hn","city":"Awaslupia","coordinates":{"lat":"15.05","long":"-83.7333333"}},{"country":"hn","city":"Awas Rila","coordinates":{"lat":"14.7833333","long":"-84.9166667"}},{"country":"hn","city":"Awasta","coordinates":{"lat":"15.2666667","long":"-83.8166667"}},{"country":"hn","city":"Awawas","coordinates":{"lat":"14.7833333","long":"-84.9333333"}},{"country":"hn","city":"Awawas Rápido","coordinates":{"lat":"14.7833333","long":"-84.9166667"}},{"country":"hn","city":"Awijiaratora","coordinates":{"lat":"15.25","long":"-83.6"}},{"country":"hn","city":"Ayapa","coordinates":{"lat":"15.1","long":"-87.15"}},{"country":"hn","city":"Azabache","coordinates":{"lat":"14.15","long":"-86.5"}},{"country":"hn","city":"Azacualpa","coordinates":{"lat":"13.0822222","long":"-87.0772222"}},{"country":"hn","city":"Azacualpa","coordinates":{"lat":"13.8391667","long":"-87.4136111"}},{"country":"hn","city":"Azacualpa","coordinates":{"lat":"14.2666667","long":"-88.3833333"}},{"country":"hn","city":"Azacualpa","coordinates":{"lat":"13.95","long":"-88.0"}},{"country":"hn","city":"Azacualpa","coordinates":{"lat":"14.2166667","long":"-88.45"}},{"country":"hn","city":"Azacualpa","coordinates":{"lat":"14.4833333","long":"-88.9166667"}},{"country":"hn","city":"Azacualpa","coordinates":{"lat":"14.4","long":"-86.1"}},{"country":"hn","city":"Azacualpa","coordinates":{"lat":"14.7166667","long":"-88.1"}},{"country":"hn","city":"Azacualpa de Yamaranguila","coordinates":{"lat":"14.3833333","long":"-88.2166667"}},{"country":"hn","city":"Azacualpa Grande","coordinates":{"lat":"14.3","long":"-88.4"}},{"country":"hn","city":"Azacualpa Montaña","coordinates":{"lat":"14.2166667","long":"-88.45"}},{"country":"hn","city":"Azacualpa Vieja","coordinates":{"lat":"14.4","long":"-86.1"}},{"country":"hn","city":"Azacualpa Viejo","coordinates":{"lat":"14.4166667","long":"-86.15"}},{"country":"hn","city":"Azacualpita","coordinates":{"lat":"13.8391667","long":"-87.4136111"}},{"country":"hn","city":"Azacualpita","coordinates":{"lat":"14.0833333","long":"-87.8666667"}},{"country":"hn","city":"Azacualpita","coordinates":{"lat":"14.2","long":"-88.35"}},{"country":"hn","city":"Azacualpita","coordinates":{"lat":"15.1166667","long":"-86.4"}},{"country":"hn","city":"Azaharillo","coordinates":{"lat":"14.6","long":"-88.75"}},{"country":"hn","city":"Azaharrillo","coordinates":{"lat":"14.6","long":"-88.75"}},{"country":"hn","city":"Azaqualpa","coordinates":{"lat":"14.4","long":"-86.1"}},{"country":"hn","city":"Azomada","coordinates":{"lat":"14.7","long":"-88.5833333"}},{"country":"hn","city":"Azomadita","coordinates":{"lat":"14.6833333","long":"-88.55"}},{"country":"hn","city":"Azoteras","coordinates":{"lat":"14.1","long":"-86.6666667"}},{"country":"hn","city":"Azuncion","coordinates":{"lat":"13.5930556","long":"-87.0205556"}},{"country":"hn","city":"Babanato","coordinates":{"lat":"13.9333333","long":"-87.2833333"}},{"country":"hn","city":"Babareta","coordinates":{"lat":"16.4333333","long":"-86.15"}},{"country":"hn","city":"Babilonia","coordinates":{"lat":"14.9833333","long":"-87.9833333"}},{"country":"hn","city":"Bacala","coordinates":{"lat":"15.95","long":"-85.0166667"}},{"country":"hn","city":"Bacalar","coordinates":{"lat":"15.95","long":"-85.0166667"}},{"country":"hn","city":"Bachilaya","coordinates":{"lat":"15.1833333","long":"-84.6833333"}},{"country":"hn","city":"Baditos","coordinates":{"lat":"14.9333333","long":"-88.3333333"}},{"country":"hn","city":"Bado Ancho","coordinates":{"lat":"15.4833333","long":"-86.0333333"}},{"country":"hn","city":"Baikán","coordinates":{"lat":"15.0","long":"-83.7"}},{"country":"hn","city":"Baja Mar","coordinates":{"lat":"15.8833333","long":"-87.85"}},{"country":"hn","city":"Bajo Grande","coordinates":{"lat":"13.5333333","long":"-87.25"}},{"country":"hn","city":"Bajo Grande","coordinates":{"lat":"14.7166667","long":"-87.0166667"}},{"country":"hn","city":"Bajo Grande","coordinates":{"lat":"15.0833333","long":"-87.7333333"}},{"country":"hn","city":"Balana","coordinates":{"lat":"14.7166667","long":"-84.85"}},{"country":"hn","city":"Balana Honduras","coordinates":{"lat":"14.7166667","long":"-84.85"}},{"country":"hn","city":"Balastera","coordinates":{"lat":"13.2958333","long":"-87.2533333"}},{"country":"hn","city":"Balcaca","coordinates":{"lat":"15.3166667","long":"-83.8666667"}},{"country":"hn","city":"Baldoquin","coordinates":{"lat":"13.3","long":"-87.0"}},{"country":"hn","city":"Balfate","coordinates":{"lat":"15.7166667","long":"-86.2833333"}},{"country":"hn","city":"Balibrea","coordinates":{"lat":"14.4833333","long":"-87.8833333"}},{"country":"hn","city":"Balsa","coordinates":{"lat":"15.2666667","long":"-86.3666667"}},{"country":"hn","city":"Balsamar","coordinates":{"lat":"15.05","long":"-88.7"}},{"country":"hn","city":"Bálsamo","coordinates":{"lat":"13.6666667","long":"-87.3833333"}},{"country":"hn","city":"Bálsamo","coordinates":{"lat":"14.9166667","long":"-88.9"}},{"country":"hn","city":"Balsamo","coordinates":{"lat":"15.3833333","long":"-88.0"}},{"country":"hn","city":"Bálsamo","coordinates":{"lat":"15.0666667","long":"-87.4666667"}},{"country":"hn","city":"Balsamo Campo","coordinates":{"lat":"15.4833333","long":"-86.6333333"}},{"country":"hn","city":"Bálsamo Oriental","coordinates":{"lat":"15.4833333","long":"-86.3333333"}},{"country":"hn","city":"Baltilú","coordinates":{"lat":"15.6833333","long":"-84.9"}},{"country":"hn","city":"Baltimore","coordinates":{"lat":"15.8833333","long":"-84.8"}},{"country":"hn","city":"Baluarte","coordinates":{"lat":"14.75","long":"-88.2333333"}},{"country":"hn","city":"Balza","coordinates":{"lat":"15.2666667","long":"-86.3666667"}},{"country":"hn","city":"Balzamar","coordinates":{"lat":"15.05","long":"-88.7"}},{"country":"hn","city":"Bambayonal","coordinates":{"lat":"13.8166667","long":"-87.1"}},{"country":"hn","city":"Bambú","coordinates":{"lat":"15.85","long":"-86.2833333"}},{"country":"hn","city":"Bañaderas","coordinates":{"lat":"14.2666667","long":"-86.7666667"}},{"country":"hn","city":"Bañadero","coordinates":{"lat":"13.8666667","long":"-88.3666667"}},{"country":"hn","city":"Banadero","coordinates":{"lat":"14.55","long":"-89.2166667"}},{"country":"hn","city":"Bañaderos","coordinates":{"lat":"14.8666667","long":"-88.9333333"}},{"country":"hn","city":"Bañaderos","coordinates":{"lat":"13.8166667","long":"-88.3333333"}},{"country":"hn","city":"Bañaderos","coordinates":{"lat":"14.3166667","long":"-87.9166667"}},{"country":"hn","city":"Bañaderos","coordinates":{"lat":"13.6341667","long":"-87.4311111"}},{"country":"hn","city":"Banco","coordinates":{"lat":"13.5666667","long":"-86.9666667"}},{"country":"hn","city":"Bancos","coordinates":{"lat":"14.8666667","long":"-88.1833333"}},{"country":"hn","city":"Banda del Norte","coordinates":{"lat":"16.0166667","long":"-85.9333333"}},{"country":"hn","city":"Banderas","coordinates":{"lat":"15.2666667","long":"-88.45"}},{"country":"hn","city":"Banderilla","coordinates":{"lat":"15.0166667","long":"-88.3"}},{"country":"hn","city":"Banderillales","coordinates":{"lat":"15.25","long":"-88.3"}},{"country":"hn","city":"Banderillas","coordinates":{"lat":"14.5833333","long":"-88.8166667"}},{"country":"hn","city":"Banderillas","coordinates":{"lat":"14.2833333","long":"-89.0"}},{"country":"hn","city":"Banderillos","coordinates":{"lat":"14.2833333","long":"-89.0"}},{"country":"hn","city":"Bank-Raya","coordinates":{"lat":"15.0666667","long":"-83.3"}},{"country":"hn","city":"Banquito","coordinates":{"lat":"13.3666667","long":"-86.9666667"}},{"country":"hn","city":"Baracoa","coordinates":{"lat":"15.7666667","long":"-87.85"}},{"country":"hn","city":"Bara de Palacio","coordinates":{"lat":"15.9833333","long":"-84.9833333"}},{"country":"hn","city":"Barajana","coordinates":{"lat":"13.83","long":"-87.145"}},{"country":"hn","city":"Barandilla","coordinates":{"lat":"14.25","long":"-88.7833333"}},{"country":"hn","city":"Bara Palacio","coordinates":{"lat":"15.9833333","long":"-84.9833333"}},{"country":"hn","city":"Barbareta","coordinates":{"lat":"16.4333333","long":"-86.15"}},{"country":"hn","city":"Barbarita","coordinates":{"lat":"15.2666667","long":"-88.2333333"}},{"country":"hn","city":"Barbascal","coordinates":{"lat":"14.8666667","long":"-88.9166667"}},{"country":"hn","city":"Barbas Cheles","coordinates":{"lat":"15.7333333","long":"-87.9666667"}},{"country":"hn","city":"Barbasco","coordinates":{"lat":"14.7","long":"-88.3666667"}},{"country":"hn","city":"Barbasqueadero","coordinates":{"lat":"14.8166667","long":"-89.1166667"}},{"country":"hn","city":"Barbollon","coordinates":{"lat":"13.45","long":"-87.7166667"}},{"country":"hn","city":"Barcalona","coordinates":{"lat":"13.5166667","long":"-86.8833333"}},{"country":"hn","city":"Barero","coordinates":{"lat":"15.2166667","long":"-86.05"}},{"country":"hn","city":"Barhuerta","coordinates":{"lat":"13.9","long":"-87.5166667"}},{"country":"hn","city":"Barra","coordinates":{"lat":"15.3833333","long":"-83.7166667"}},{"country":"hn","city":"Barrabás","coordinates":{"lat":"15.1333333","long":"-88.1"}},{"country":"hn","city":"Barra Caratasca","coordinates":{"lat":"15.3833333","long":"-83.7166667"}},{"country":"hn","city":"Barra Cruta","coordinates":{"lat":"15.2333333","long":"-83.4166667"}},{"country":"hn","city":"Barra de Aguán","coordinates":{"lat":"15.9666667","long":"-85.75"}},{"country":"hn","city":"Barra de Caratasca","coordinates":{"lat":"15.3666667","long":"-83.7333333"}},{"country":"hn","city":"Barra de Chamelecón","coordinates":{"lat":"15.8333333","long":"-87.8166667"}},{"country":"hn","city":"Barra de Chapagua","coordinates":{"lat":"15.9833333","long":"-85.7833333"}},{"country":"hn","city":"Barra de Cuyamel","coordinates":{"lat":"15.6666667","long":"-88.1833333"}},{"country":"hn","city":"Barra del Cruta","coordinates":{"lat":"15.2333333","long":"-83.4166667"}},{"country":"hn","city":"Barra del Motagua","coordinates":{"lat":"15.7","long":"-88.2333333"}},{"country":"hn","city":"Barra del Patuca","coordinates":{"lat":"15.8","long":"-84.2833333"}},{"country":"hn","city":"Barra del Ulúa","coordinates":{"lat":"15.9166667","long":"-87.7166667"}},{"country":"hn","city":"Barra de Motagua","coordinates":{"lat":"15.7","long":"-88.2333333"}},{"country":"hn","city":"Barra de Palo","coordinates":{"lat":"15.7833333","long":"-87.2666667"}},{"country":"hn","city":"Barra de Ulúa","coordinates":{"lat":"15.9166667","long":"-87.7166667"}},{"country":"hn","city":"Barra el Palo","coordinates":{"lat":"15.7833333","long":"-87.2666667"}},{"country":"hn","city":"Barra Motagua","coordinates":{"lat":"15.7","long":"-88.2333333"}},{"country":"hn","city":"Barranca Grita","coordinates":{"lat":"15.2","long":"-88.7166667"}},{"country":"hn","city":"Barrancaray","coordinates":{"lat":"13.8666667","long":"-87.6"}},{"country":"hn","city":"Barranco","coordinates":{"lat":"15.6166667","long":"-85.2666667"}},{"country":"hn","city":"Barranco Blanco","coordinates":{"lat":"16.0","long":"-85.8666667"}},{"country":"hn","city":"Barranco Blanco","coordinates":{"lat":"13.8166667","long":"-86.95"}},{"country":"hn","city":"Barranco Chele","coordinates":{"lat":"15.8166667","long":"-85.1666667"}},{"country":"hn","city":"Barranco Colorado","coordinates":{"lat":"14.6833333","long":"-87.9833333"}},{"country":"hn","city":"Barranco Colorado","coordinates":{"lat":"14.5666667","long":"-87.4166667"}},{"country":"hn","city":"Barrancón","coordinates":{"lat":"13.8666667","long":"-88.3166667"}},{"country":"hn","city":"Barrancones","coordinates":{"lat":"13.2833333","long":"-87.4666667"}},{"country":"hn","city":"Barranquilla","coordinates":{"lat":"13.3833333","long":"-86.85"}},{"country":"hn","city":"Barra Patuca","coordinates":{"lat":"15.8","long":"-84.2833333"}},{"country":"hn","city":"Barra Seca","coordinates":{"lat":"15.85","long":"-84.6166667"}},{"country":"hn","city":"Barra Ulúa","coordinates":{"lat":"15.9166667","long":"-87.7166667"}},{"country":"hn","city":"Barreras","coordinates":{"lat":"15.0833333","long":"-88.1"}},{"country":"hn","city":"Barreros","coordinates":{"lat":"15.0833333","long":"-88.1"}},{"country":"hn","city":"Barrial","coordinates":{"lat":"13.5022222","long":"-87.1122222"}},{"country":"hn","city":"Barrial","coordinates":{"lat":"13.8666667","long":"-88.3"}},{"country":"hn","city":"Barril","coordinates":{"lat":"15.5833333","long":"-87.9333333"}},{"country":"hn","city":"Barrio","coordinates":{"lat":"14.1","long":"-86.6833333"}},{"country":"hn","city":"Barrio Colorado","coordinates":{"lat":"13.9166667","long":"-88.2166667"}},{"country":"hn","city":"Barrio Llano de La Virgen","coordinates":{"lat":"14.3166667","long":"-88.15"}},{"country":"hn","city":"Barrio Nuevo","coordinates":{"lat":"14.4166667","long":"-87.7833333"}},{"country":"hn","city":"Barrio Nuevo","coordinates":{"lat":"14.2666667","long":"-87.9166667"}},{"country":"hn","city":"Barrio Nuevo","coordinates":{"lat":"14.0833333","long":"-88.4833333"}},{"country":"hn","city":"Barrio San José de Buena Vista","coordinates":{"lat":"14.45","long":"-87.0666667"}},{"country":"hn","city":"Barrio San Matías","coordinates":{"lat":"14.45","long":"-88.5666667"}},{"country":"hn","city":"Barrio Santa Lucia","coordinates":{"lat":"14.75","long":"-88.7666667"}},{"country":"hn","city":"Barrosa","coordinates":{"lat":"14.6833333","long":"-87.05"}},{"country":"hn","city":"Barrosas","coordinates":{"lat":"14.6833333","long":"-87.05"}},{"country":"hn","city":"Bartolo","coordinates":{"lat":"14.3","long":"-87.0833333"}},{"country":"hn","city":"Bataán","coordinates":{"lat":"15.55","long":"-87.7166667"}},{"country":"hn","city":"Batalla","coordinates":{"lat":"16.0","long":"-85.0333333"}},{"country":"hn","city":"Batán","coordinates":{"lat":"15.55","long":"-87.7166667"}},{"country":"hn","city":"Bataya","coordinates":{"lat":"16.0","long":"-85.0333333"}},{"country":"hn","city":"Batideros","coordinates":{"lat":"14.85","long":"-89.05"}},{"country":"hn","city":"Batideros","coordinates":{"lat":"14.65","long":"-86.8333333"}},{"country":"hn","city":"Batilkira","coordinates":{"lat":"15.05","long":"-83.6166667"}},{"country":"hn","city":"Batilquira","coordinates":{"lat":"15.05","long":"-83.6166667"}},{"country":"hn","city":"Batsilaya","coordinates":{"lat":"15.1833333","long":"-84.6833333"}},{"country":"hn","city":"Bejucal","coordinates":{"lat":"13.3833333","long":"-86.9833333"}},{"country":"hn","city":"Bejuco","coordinates":{"lat":"15.1333333","long":"-87.9333333"}},{"country":"hn","city":"Belaire","coordinates":{"lat":"15.7166667","long":"-86.5833333"}},{"country":"hn","city":"Belén","coordinates":{"lat":"14.8","long":"-88.7666667"}},{"country":"hn","city":"Belén","coordinates":{"lat":"15.75","long":"-87.9333333"}},{"country":"hn","city":"Belén","coordinates":{"lat":"13.9397222","long":"-87.0119444"}},{"country":"hn","city":"Belén","coordinates":{"lat":"14.5","long":"-88.4833333"}},{"country":"hn","city":"Belen","coordinates":{"lat":"14.4833333","long":"-88.8"}},{"country":"hn","city":"Belén Gualcho","coordinates":{"lat":"14.4833333","long":"-88.8"}},{"country":"hn","city":"Belfate","coordinates":{"lat":"15.8","long":"-86.4166667"}},{"country":"hn","city":"Belgica","coordinates":{"lat":"15.6333333","long":"-87.1"}},{"country":"hn","city":"Bella Isla","coordinates":{"lat":"15.7666667","long":"-87.2"}},{"country":"hn","city":"Bella Vista","coordinates":{"lat":"15.7666667","long":"-87.2"}},{"country":"hn","city":"Bella Vista","coordinates":{"lat":"13.6244444","long":"-87.2536111"}},{"country":"hn","city":"Bella Vista","coordinates":{"lat":"14.7333333","long":"-86.95"}},{"country":"hn","city":"Belloto","coordinates":{"lat":"14.8166667","long":"-88.55"}},{"country":"hn","city":"Benk","coordinates":{"lat":"15.05","long":"-83.3333333"}},{"country":"hn","city":"Berberías","coordinates":{"lat":"15.3","long":"-85.85"}},{"country":"hn","city":"Bergantín","coordinates":{"lat":"13.3697222","long":"-87.3391667"}},{"country":"hn","city":"Berlín Aguacatales","coordinates":{"lat":"15.45","long":"-88.0833333"}},{"country":"hn","city":"Berlín","coordinates":{"lat":"15.6","long":"-86.5666667"}},{"country":"hn","city":"Berlin","coordinates":{"lat":"15.45","long":"-88.0833333"}},{"country":"hn","city":"Berlín","coordinates":{"lat":"14.8333333","long":"-88.5"}},{"country":"hn","city":"Berlín de Cortés","coordinates":{"lat":"15.45","long":"-88.0833333"}},{"country":"hn","city":"Bernardina","coordinates":{"lat":"14.6833333","long":"-87.6166667"}},{"country":"hn","city":"Bethel","coordinates":{"lat":"15.8833333","long":"-84.8"}},{"country":"hn","city":"Betulia","coordinates":{"lat":"15.9166667","long":"-86.1666667"}},{"country":"hn","city":"Big Bight","coordinates":{"lat":"16.4","long":"-86.45"}},{"country":"hn","city":"Bigh Bight","coordinates":{"lat":"16.4","long":"-86.45"}},{"country":"hn","city":"Bijagual","coordinates":{"lat":"14.55","long":"-86.1666667"}},{"country":"hn","city":"Bijao","coordinates":{"lat":"15.7166667","long":"-87.9333333"}},{"country":"hn","city":"Bijaqual","coordinates":{"lat":"15.2666667","long":"-87.5833333"}},{"country":"hn","city":"Bilalmuc","coordinates":{"lat":"15.3166667","long":"-84.6333333"}},{"country":"hn","city":"Bilamuk","coordinates":{"lat":"15.3166667","long":"-84.6333333"}},{"country":"hn","city":"Bilamut","coordinates":{"lat":"15.3166667","long":"-84.6333333"}},{"country":"hn","city":"Bilíz","coordinates":{"lat":"13.6838889","long":"-87.0333333"}},{"country":"hn","city":"Biraguas","coordinates":{"lat":"14.3","long":"-85.2"}},{"country":"hn","city":"Birahuás","coordinates":{"lat":"14.3","long":"-85.2"}},{"country":"hn","city":"Birichiche","coordinates":{"lat":"15.5833333","long":"-87.7833333"}},{"country":"hn","city":"Black Rock","coordinates":{"lat":"16.5166667","long":"-85.8833333"}},{"country":"hn","city":"Blancos","coordinates":{"lat":"15.0833333","long":"-86.8166667"}},{"country":"hn","city":"Boca Cerrada","coordinates":{"lat":"15.7666667","long":"-87.2"}},{"country":"hn","city":"Boca Cerrado","coordinates":{"lat":"15.7666667","long":"-87.2"}},{"country":"hn","city":"Boca Danto","coordinates":{"lat":"15.7833333","long":"-86.8666667"}},{"country":"hn","city":"Boca de Aguan","coordinates":{"lat":"15.9666667","long":"-85.75"}},{"country":"hn","city":"Boca de Cuyamel","coordinates":{"lat":"15.6666667","long":"-88.1833333"}},{"country":"hn","city":"Boca de Huaspuc","coordinates":{"lat":"14.6166667","long":"-84.4333333"}},{"country":"hn","city":"Boca de Hule","coordinates":{"lat":"15.5","long":"-85.55"}},{"country":"hn","city":"Boca del Monte","coordinates":{"lat":"14.55","long":"-88.8333333"}},{"country":"hn","city":"Boca del Monte","coordinates":{"lat":"14.8166667","long":"-86.2166667"}},{"country":"hn","city":"Boca del Toro","coordinates":{"lat":"15.75","long":"-87.05"}},{"country":"hn","city":"Boca de Toro","coordinates":{"lat":"15.75","long":"-87.05"}},{"country":"hn","city":"Boca Mame","coordinates":{"lat":"15.4666667","long":"-86.4166667"}},{"country":"hn","city":"Bocatome","coordinates":{"lat":"15.4833333","long":"-86.4166667"}},{"country":"hn","city":"Boca Vieja","coordinates":{"lat":"15.8","long":"-86.8"}},{"country":"hn","city":"Bocomame","coordinates":{"lat":"15.4666667","long":"-86.4166667"}},{"country":"hn","city":"Bocuire","coordinates":{"lat":"13.5441667","long":"-87.065"}},{"country":"hn","city":"Bodden Bight","coordinates":{"lat":"16.4","long":"-86.3666667"}},{"country":"hn","city":"Bodega","coordinates":{"lat":"13.9316667","long":"-87.2288889"}},{"country":"hn","city":"Boiladero","coordinates":{"lat":"14.0333333","long":"-88.05"}},{"country":"hn","city":"Bolos","coordinates":{"lat":"15.6166667","long":"-87.4"}},{"country":"hn","city":"Bomba","coordinates":{"lat":"15.3833333","long":"-86.7166667"}},{"country":"hn","city":"Bonete","coordinates":{"lat":"14.85","long":"-89.1166667"}},{"country":"hn","city":"Bonetes","coordinates":{"lat":"14.85","long":"-89.1166667"}},{"country":"hn","city":"Bonilla","coordinates":{"lat":"14.5666667","long":"-88.6"}},{"country":"hn","city":"Bonitillo","coordinates":{"lat":"15.7","long":"-86.8666667"}},{"country":"hn","city":"Bonito Oriental","coordinates":{"lat":"15.7333333","long":"-85.7333333"}},{"country":"hn","city":"Boquero","coordinates":{"lat":"13.9166667","long":"-87.2333333"}},{"country":"hn","city":"Boquerón","coordinates":{"lat":"15.4833333","long":"-87.8666667"}},{"country":"hn","city":"Boquerón","coordinates":{"lat":"13.9141667","long":"-87.1238889"}},{"country":"hn","city":"Boquerón","coordinates":{"lat":"15.3","long":"-86.1166667"}},{"country":"hn","city":"Boqueron","coordinates":{"lat":"13.8166667","long":"-87.6666667"}},{"country":"hn","city":"Boquerones","coordinates":{"lat":"15.15","long":"-88.4"}},{"country":"hn","city":"Boquire","coordinates":{"lat":"13.5441667","long":"-87.065"}},{"country":"hn","city":"Boquita","coordinates":{"lat":"15.3166667","long":"-87.9"}},{"country":"hn","city":"Borbollón","coordinates":{"lat":"13.45","long":"-87.7166667"}},{"country":"hn","city":"Botija","coordinates":{"lat":"15.6666667","long":"-87.85"}},{"country":"hn","city":"Brabila","coordinates":{"lat":"15.3166667","long":"-84.65"}},{"country":"hn","city":"Bramadero","coordinates":{"lat":"14.5833333","long":"-87.1333333"}},{"country":"hn","city":"Bramadora","coordinates":{"lat":"15.45","long":"-87.0666667"}},{"country":"hn","city":"Breas","coordinates":{"lat":"15.0833333","long":"-88.2"}},{"country":"hn","city":"Brewers","coordinates":{"lat":"15.75","long":"-84.4833333"}},{"country":"hn","city":"Brewers Lagoon","coordinates":{"lat":"15.75","long":"-84.4833333"}},{"country":"hn","city":"Briche Grande","coordinates":{"lat":"15.7666667","long":"-85.85"}},{"country":"hn","city":"Brick Bay","coordinates":{"lat":"16.3333333","long":"-86.5"}},{"country":"hn","city":"Brinche Grande","coordinates":{"lat":"15.7666667","long":"-85.85"}},{"country":"hn","city":"Brisas de la Libertad","coordinates":{"lat":"15.4833333","long":"-87.8"}},{"country":"hn","city":"Brisas del Lago","coordinates":{"lat":"13.5058333","long":"-87.4425"}},{"country":"hn","city":"Brisas del Norte","coordinates":{"lat":"15.45","long":"-87.7166667"}},{"country":"hn","city":"Brisas de Oro","coordinates":{"lat":"14.85","long":"-88.3833333"}},{"country":"hn","city":"Brisas Oro","coordinates":{"lat":"14.85","long":"-88.3833333"}},{"country":"hn","city":"Bruner","coordinates":{"lat":"15.9333333","long":"-84.9"}},{"country":"hn","city":"Brus Laguna","coordinates":{"lat":"15.75","long":"-84.4833333"}},{"country":"hn","city":"Bubulún","coordinates":{"lat":"13.9661111","long":"-87.0941667"}},{"country":"hn","city":"Bucara","coordinates":{"lat":"15.8666667","long":"-85.0666667"}},{"country":"hn","city":"Bucbuc","coordinates":{"lat":"14.6","long":"-84.5166667"}},{"country":"hn","city":"Buena Esperanza","coordinates":{"lat":"15.3666667","long":"-87.95"}},{"country":"hn","city":"Buena Esperanza","coordinates":{"lat":"14.15","long":"-86.4666667"}},{"country":"hn","city":"Buena Misa","coordinates":{"lat":"14.9833333","long":"-85.05"}},{"country":"hn","city":"Buenas Casas","coordinates":{"lat":"14.5666667","long":"-87.85"}},{"country":"hn","city":"Buenas Noches","coordinates":{"lat":"14.6833333","long":"-87.1833333"}},{"country":"hn","city":"Buena Vista","coordinates":{"lat":"13.2469444","long":"-87.3736111"}},{"country":"hn","city":"Buena Vista","coordinates":{"lat":"15.6166667","long":"-85.0333333"}},{"country":"hn","city":"Buena Vista","coordinates":{"lat":"14.4166667","long":"-87.5"}},{"country":"hn","city":"Buena Vista","coordinates":{"lat":"14.85","long":"-89.1166667"}},{"country":"hn","city":"Buena Vista","coordinates":{"lat":"14.95","long":"-87.9833333"}},{"country":"hn","city":"Buena Vista","coordinates":{"lat":"13.6505556","long":"-87.0302778"}},{"country":"hn","city":"Buena Vista","coordinates":{"lat":"13.75","long":"-87.3166667"}},{"country":"hn","city":"Buena Vista","coordinates":{"lat":"14.7166667","long":"-84.2833333"}},{"country":"hn","city":"Buena Vista","coordinates":{"lat":"14.1166667","long":"-87.9833333"}},{"country":"hn","city":"Buena Vista","coordinates":{"lat":"14.1333333","long":"-88.4666667"}},{"country":"hn","city":"Buena Vista","coordinates":{"lat":"14.9833333","long":"-85.05"}},{"country":"hn","city":"Buena Vista","coordinates":{"lat":"14.75","long":"-88.3"}},{"country":"hn","city":"Buena Vista","coordinates":{"lat":"13.7833333","long":"-87.6166667"}},{"country":"hn","city":"Buena Vista","coordinates":{"lat":"15.0","long":"-87.7"}},{"country":"hn","city":"Buenos Aires","coordinates":{"lat":"15.7","long":"-87.2833333"}},{"country":"hn","city":"Buenos Aires","coordinates":{"lat":"13.4688889","long":"-87.18"}},{"country":"hn","city":"Buenos Aires","coordinates":{"lat":"15.9166667","long":"-85.2166667"}},{"country":"hn","city":"Buenos Aires","coordinates":{"lat":"14.7333333","long":"-87.9666667"}},{"country":"hn","city":"Buenos Aires","coordinates":{"lat":"15.0333333","long":"-88.9666667"}},{"country":"hn","city":"Buenos Aires","coordinates":{"lat":"15.4833333","long":"-88.1833333"}},{"country":"hn","city":"Buenos Aires","coordinates":{"lat":"13.8666667","long":"-86.45"}},{"country":"hn","city":"Buenos Aires","coordinates":{"lat":"13.9113889","long":"-87.4738889"}},{"country":"hn","city":"Buenos Aires","coordinates":{"lat":"13.9833333","long":"-88.3"}},{"country":"hn","city":"Buenos Aires","coordinates":{"lat":"13.9333333","long":"-87.8"}},{"country":"hn","city":"Buenos Aires","coordinates":{"lat":"14.4333333","long":"-88.6"}},{"country":"hn","city":"Buenos Aires","coordinates":{"lat":"14.6","long":"-88.2166667"}},{"country":"hn","city":"Buenos Aires","coordinates":{"lat":"13.6166667","long":"-87.7333333"}},{"country":"hn","city":"Buenos Aires","coordinates":{"lat":"15.35","long":"-86.7333333"}},{"country":"hn","city":"Buenos","coordinates":{"lat":"14.2","long":"-87.9166667"}},{"country":"hn","city":"Buen Pastor","coordinates":{"lat":"14.55","long":"-87.7"}},{"country":"hn","city":"Bufa","coordinates":{"lat":"14.7333333","long":"-88.9333333"}},{"country":"hn","city":"Búfalo","coordinates":{"lat":"15.3833333","long":"-88.0"}},{"country":"hn","city":"Buffalo","coordinates":{"lat":"15.3833333","long":"-88.0"}},{"country":"hn","city":"Bukbuk","coordinates":{"lat":"14.6","long":"-84.5166667"}},{"country":"hn","city":"Bulbila","coordinates":{"lat":"15.1333333","long":"-84.7666667"}},{"country":"hn","city":"Bulbita","coordinates":{"lat":"15.1333333","long":"-84.7666667"}},{"country":"hn","city":"Bully Camp","coordinates":{"lat":"15.7666667","long":"-87.8333333"}},{"country":"hn","city":"Bully Champ","coordinates":{"lat":"15.7666667","long":"-87.8333333"}},{"country":"hn","city":"Bulvita","coordinates":{"lat":"15.1333333","long":"-84.7666667"}},{"country":"hn","city":"Buly Champ","coordinates":{"lat":"15.7666667","long":"-87.8333333"}},{"country":"hn","city":"Burgos","coordinates":{"lat":"15.75","long":"-86.9666667"}},{"country":"hn","city":"Burillo","coordinates":{"lat":"13.6166667","long":"-87.25"}},{"country":"hn","city":"Burrera","coordinates":{"lat":"13.5702778","long":"-87.0502778"}},{"country":"hn","city":"Butucamaya","coordinates":{"lat":"15.8","long":"-84.2833333"}},{"country":"hn","city":"Butukamaya","coordinates":{"lat":"15.8","long":"-84.2833333"}},{"country":"hn","city":"Butukawas","coordinates":{"lat":"15.4833333","long":"-84.3333333"}},{"country":"hn","city":"Caamaya","coordinates":{"lat":"14.7833333","long":"-88.6"}},{"country":"hn","city":"Caba de Machete","coordinates":{"lat":"15.0333333","long":"-88.0333333"}},{"country":"hn","city":"Caballería","coordinates":{"lat":"15.6","long":"-86.2166667"}},{"country":"hn","city":"Caballero","coordinates":{"lat":"14.4333333","long":"-87.55"}},{"country":"hn","city":"Caballo de Piedra","coordinates":{"lat":"15.1","long":"-87.6666667"}},{"country":"hn","city":"Caballo de Piedras","coordinates":{"lat":"15.1","long":"-87.6666667"}},{"country":"hn","city":"Cabañas","coordinates":{"lat":"14.8333333","long":"-89.1"}},{"country":"hn","city":"Cabañas","coordinates":{"lat":"14.05","long":"-88.0"}},{"country":"hn","city":"Cabecera del Llano","coordinates":{"lat":"14.6","long":"-88.85"}},{"country":"hn","city":"Cabeceras","coordinates":{"lat":"14.95","long":"-87.6166667"}},{"country":"hn","city":"Cabeceras","coordinates":{"lat":"14.9166667","long":"-86.3"}},{"country":"hn","city":"Cabeceras de La Quebrada del Tambor","coordinates":{"lat":"14.55","long":"-88.3166667"}},{"country":"hn","city":"Cabeceras del Río Negro","coordinates":{"lat":"14.5166667","long":"-88.2833333"}},{"country":"hn","city":"Cabecita","coordinates":{"lat":"14.8","long":"-87.2166667"}},{"country":"hn","city":"Cabecitas","coordinates":{"lat":"14.8","long":"-87.2166667"}},{"country":"hn","city":"Cabeza de Indio","coordinates":{"lat":"15.6666667","long":"-87.45"}},{"country":"hn","city":"Cabeza de Vaca","coordinates":{"lat":"14.9333333","long":"-87.5833333"}},{"country":"hn","city":"Cabezas","coordinates":{"lat":"13.3672222","long":"-87.0827778"}},{"country":"hn","city":"Cabildo","coordinates":{"lat":"13.5166667","long":"-86.8666667"}},{"country":"hn","city":"Cabo de Hornos","coordinates":{"lat":"15.7666667","long":"-86.8166667"}},{"country":"hn","city":"Cabo de Machepe","coordinates":{"lat":"15.0333333","long":"-88.0333333"}},{"country":"hn","city":"Cabo de Machete","coordinates":{"lat":"15.0333333","long":"-88.0333333"}},{"country":"hn","city":"Cabo Gracias a Dios","coordinates":{"lat":"15.0","long":"-83.1666667"}},{"country":"hn","city":"Cabo Machete","coordinates":{"lat":"15.0333333","long":"-88.0333333"}},{"country":"hn","city":"Cacagua","coordinates":{"lat":"13.7666667","long":"-87.4666667"}},{"country":"hn","city":"Cacagual","coordinates":{"lat":"14.1166667","long":"-88.4833333"}},{"country":"hn","city":"Cacaguapa","coordinates":{"lat":"14.5833333","long":"-87.6333333"}},{"country":"hn","city":"Cacaguatal","coordinates":{"lat":"13.85","long":"-88.3666667"}},{"country":"hn","city":"Cacaguatal","coordinates":{"lat":"14.0833333","long":"-88.6166667"}},{"country":"hn","city":"Cacahual","coordinates":{"lat":"14.1166667","long":"-88.4833333"}},{"country":"hn","city":"Cacahuatal","coordinates":{"lat":"13.85","long":"-88.3666667"}},{"country":"hn","city":"Cacahuatal","coordinates":{"lat":"14.0666667","long":"-88.5833333"}},{"country":"hn","city":"Cacahuatal","coordinates":{"lat":"15.0333333","long":"-87.5"}},{"country":"hn","city":"Cacahuchagua","coordinates":{"lat":"13.9666667","long":"-88.3"}},{"country":"hn","city":"Cacahuillo","coordinates":{"lat":"13.6016667","long":"-87.1377778"}},{"country":"hn","city":"Cacahulapa","coordinates":{"lat":"15.0666667","long":"-88.3333333"}},{"country":"hn","city":"Cacala","coordinates":{"lat":"13.7","long":"-86.8833333"}},{"country":"hn","city":"Cacalguapa","coordinates":{"lat":"14.4333333","long":"-89.1333333"}},{"country":"hn","city":"Cacalote","coordinates":{"lat":"13.8333333","long":"-87.2833333"}},{"country":"hn","city":"Cacamuyá","coordinates":{"lat":"13.3333333","long":"-86.75"}},{"country":"hn","city":"Cacao Abajo","coordinates":{"lat":"15.4","long":"-88.2333333"}},{"country":"hn","city":"Cacao","coordinates":{"lat":"15.7833333","long":"-86.5333333"}},{"country":"hn","city":"Cacao","coordinates":{"lat":"13.5333333","long":"-86.9"}},{"country":"hn","city":"Cacao","coordinates":{"lat":"14.5833333","long":"-87.5833333"}},{"country":"hn","city":"Cacao","coordinates":{"lat":"14.8166667","long":"-87.9666667"}},{"country":"hn","city":"Cacao","coordinates":{"lat":"13.8333333","long":"-86.6666667"}},{"country":"hn","city":"Cacao","coordinates":{"lat":"14.2333333","long":"-88.7"}},{"country":"hn","city":"Cacao","coordinates":{"lat":"14.8833333","long":"-86.1666667"}},{"country":"hn","city":"Cacaolito","coordinates":{"lat":"13.3125","long":"-87.3575"}},{"country":"hn","city":"Cacaotal","coordinates":{"lat":"14.0666667","long":"-88.5833333"}},{"country":"hn","city":"Cacauce","coordinates":{"lat":"13.7166667","long":"-87.5833333"}},{"country":"hn","city":"Cacauchagua","coordinates":{"lat":"13.9666667","long":"-88.3"}},{"country":"hn","city":"Cacaulapa","coordinates":{"lat":"15.0666667","long":"-88.3333333"}},{"country":"hn","city":"Cacaulito","coordinates":{"lat":"13.3125","long":"-87.3575"}},{"country":"hn","city":"Cacausa","coordinates":{"lat":"13.7166667","long":"-87.5833333"}},{"country":"hn","city":"Cacause","coordinates":{"lat":"13.7166667","long":"-87.5833333"}},{"country":"hn","city":"Cacautare","coordinates":{"lat":"13.5588889","long":"-87.3680556"}},{"country":"hn","city":"Cacauterique","coordinates":{"lat":"14.0666667","long":"-87.95"}},{"country":"hn","city":"Cagalagua","coordinates":{"lat":"13.6325","long":"-87.0341667"}},{"country":"hn","city":"Caguaca","coordinates":{"lat":"14.1666667","long":"-87.2666667"}},{"country":"hn","city":"Caguarque","coordinates":{"lat":"14.35","long":"-88.6666667"}},{"country":"hn","city":"Caguasca","coordinates":{"lat":"13.35","long":"-86.75"}},{"country":"hn","city":"Cahon Ridge","coordinates":{"lat":"16.2833333","long":"-86.5833333"}},{"country":"hn","city":"Cahoon Ridge","coordinates":{"lat":"16.2833333","long":"-86.5833333"}},{"country":"hn","city":"Cahulote","coordinates":{"lat":"13.3666667","long":"-86.9833333"}},{"country":"hn","city":"Caimán","coordinates":{"lat":"14.0","long":"-88.0833333"}},{"country":"hn","city":"Caingala","coordinates":{"lat":"14.75","long":"-86.8166667"}},{"country":"hn","city":"Caiquín","coordinates":{"lat":"14.4166667","long":"-88.6"}},{"country":"hn","city":"Caire","coordinates":{"lat":"13.4166667","long":"-86.9333333"}},{"country":"hn","city":"Cajitas","coordinates":{"lat":"14.6833333","long":"-88.7666667"}},{"country":"hn","city":"Calabaceras","coordinates":{"lat":"13.9166667","long":"-86.9666667"}},{"country":"hn","city":"Calabash Bight","coordinates":{"lat":"16.4","long":"-86.3333333"}},{"country":"hn","city":"Calabaza","coordinates":{"lat":"13.9","long":"-87.75"}},{"country":"hn","city":"Calabazas","coordinates":{"lat":"14.7833333","long":"-88.8333333"}},{"country":"hn","city":"Calabazas","coordinates":{"lat":"13.9","long":"-87.75"}},{"country":"hn","city":"Calaire","coordinates":{"lat":"13.3188889","long":"-87.0375"}},{"country":"hn","city":"Calaire","coordinates":{"lat":"13.9922222","long":"-87.1227778"}},{"country":"hn","city":"Calama","coordinates":{"lat":"13.25","long":"-87.2166667"}},{"country":"hn","city":"Calamara","coordinates":{"lat":"14.8166667","long":"-88.3333333"}},{"country":"hn","city":"Calanar","coordinates":{"lat":"15.3666667","long":"-88.1166667"}},{"country":"hn","city":"Calanora","coordinates":{"lat":"14.8166667","long":"-88.3333333"}},{"country":"hn","city":"Calaulaca","coordinates":{"lat":"14.4166667","long":"-88.4666667"}},{"country":"hn","city":"Calbario","coordinates":{"lat":"14.4833333","long":"-88.7833333"}},{"country":"hn","city":"Calcules","coordinates":{"lat":"14.5666667","long":"-86.2333333"}},{"country":"hn","city":"Caldera","coordinates":{"lat":"16.0","long":"-85.1166667"}},{"country":"hn","city":"Calderas","coordinates":{"lat":"13.3038889","long":"-87.0622222"}},{"country":"hn","city":"Calderas","coordinates":{"lat":"16.0","long":"-85.1166667"}},{"country":"hn","city":"Calderas","coordinates":{"lat":"14.5666667","long":"-87.8666667"}},{"country":"hn","city":"Calderas","coordinates":{"lat":"15.4666667","long":"-87.0166667"}},{"country":"hn","city":"Caleas","coordinates":{"lat":"13.5666667","long":"-87.5333333"}},{"country":"hn","city":"Calera","coordinates":{"lat":"15.3333333","long":"-87.0"}},{"country":"hn","city":"Caleras","coordinates":{"lat":"14.8166667","long":"-87.0"}},{"country":"hn","city":"Caleras","coordinates":{"lat":"15.0333333","long":"-86.6333333"}},{"country":"hn","city":"Caleritas","coordinates":{"lat":"14.3833333","long":"-87.7333333"}},{"country":"hn","city":"Caleritos","coordinates":{"lat":"14.3833333","long":"-87.7333333"}},{"country":"hn","city":"Calero","coordinates":{"lat":"13.3466667","long":"-87.2308333"}},{"country":"hn","city":"Calero","coordinates":{"lat":"13.5436111","long":"-87.0497222"}},{"country":"hn","city":"Calicanto","coordinates":{"lat":"13.7666667","long":"-87.4666667"}},{"country":"hn","city":"Calicanto","coordinates":{"lat":"13.3666667","long":"-87.7166667"}},{"country":"hn","city":"Calichal","coordinates":{"lat":"13.9166667","long":"-87.65"}},{"country":"hn","city":"Calichal","coordinates":{"lat":"14.9","long":"-88.35"}},{"country":"hn","city":"Calichales","coordinates":{"lat":"14.9","long":"-88.35"}},{"country":"hn","city":"Caliche","coordinates":{"lat":"14.7","long":"-87.85"}},{"country":"hn","city":"Caliche","coordinates":{"lat":"15.1","long":"-86.6666667"}},{"country":"hn","city":"Caliche","coordinates":{"lat":"15.1833333","long":"-87.7666667"}},{"country":"hn","city":"Calichito","coordinates":{"lat":"15.1","long":"-88.1"}},{"country":"hn","city":"Calichito","coordinates":{"lat":"14.8833333","long":"-87.4833333"}},{"country":"hn","city":"Calichitos","coordinates":{"lat":"13.95","long":"-87.6833333"}},{"country":"hn","city":"California","coordinates":{"lat":"15.6833333","long":"-86.6"}},{"country":"hn","city":"Calimbas","coordinates":{"lat":"15.1666667","long":"-87.2666667"}},{"country":"hn","city":"Callejón","coordinates":{"lat":"14.8","long":"-88.8"}},{"country":"hn","city":"Callejón","coordinates":{"lat":"14.3833333","long":"-88.2833333"}},{"country":"hn","city":"Callejón","coordinates":{"lat":"13.6","long":"-87.7166667"}},{"country":"hn","city":"Callejones","coordinates":{"lat":"14.3666667","long":"-89.0166667"}},{"country":"hn","city":"Callejones","coordinates":{"lat":"15.1666667","long":"-88.65"}},{"country":"hn","city":"Calona","coordinates":{"lat":"14.5166667","long":"-86.85"}},{"country":"hn","city":"Calona","coordinates":{"lat":"14.9666667","long":"-86.4166667"}},{"country":"hn","city":"Calpo","coordinates":{"lat":"15.2","long":"-83.4333333"}},{"country":"hn","city":"Calpules","coordinates":{"lat":"13.4833333","long":"-86.7833333"}},{"country":"hn","city":"Calpules","coordinates":{"lat":"14.5833333","long":"-87.3666667"}},{"country":"hn","city":"Calpules","coordinates":{"lat":"15.4666667","long":"-87.9666667"}},{"country":"hn","city":"Calpules","coordinates":{"lat":"13.5333333","long":"-87.0333333"}},{"country":"hn","city":"Calpules","coordinates":{"lat":"14.7166667","long":"-87.0333333"}},{"country":"hn","city":"Calpules","coordinates":{"lat":"14.5666667","long":"-86.2333333"}},{"country":"hn","city":"Calpules","coordinates":{"lat":"15.0666667","long":"-88.4333333"}},{"country":"hn","city":"Calpules","coordinates":{"lat":"15.1333333","long":"-87.05"}},{"country":"hn","city":"Calpules Campo","coordinates":{"lat":"15.4","long":"-86.6166667"}},{"country":"hn","city":"Caltatata","coordinates":{"lat":"14.5833333","long":"-88.8833333"}},{"country":"hn","city":"Calvario","coordinates":{"lat":"13.8022222","long":"-87.2911111"}},{"country":"hn","city":"Calzones","coordinates":{"lat":"14.7333333","long":"-88.75"}},{"country":"hn","city":"Calzontes","coordinates":{"lat":"14.7333333","long":"-88.75"}},{"country":"hn","city":"Camacal","coordinates":{"lat":"15.0166667","long":"-88.5666667"}},{"country":"hn","city":"Camacho","coordinates":{"lat":"15.9833333","long":"-85.0166667"}},{"country":"hn","city":"Camacosne","coordinates":{"lat":"14.95","long":"-85.1333333"}},{"country":"hn","city":"Camacosni","coordinates":{"lat":"14.95","long":"-85.1333333"}},{"country":"hn","city":"Camagüey","coordinates":{"lat":"15.8166667","long":"-87.9"}},{"country":"hn","city":"Camalotal","coordinates":{"lat":"14.6666667","long":"-87.9666667"}},{"country":"hn","city":"Camalotal","coordinates":{"lat":"13.8166667","long":"-86.6833333"}},{"country":"hn","city":"Camalotal","coordinates":{"lat":"14.7833333","long":"-86.5"}},{"country":"hn","city":"Camalotal","coordinates":{"lat":"15.25","long":"-88.2"}},{"country":"hn","city":"Camalotales","coordinates":{"lat":"14.6666667","long":"-87.9666667"}},{"country":"hn","city":"Camalotales","coordinates":{"lat":"15.25","long":"-88.2"}},{"country":"hn","city":"Camalote Abajo","coordinates":{"lat":"15.3833333","long":"-87.7833333"}},{"country":"hn","city":"Camalote","coordinates":{"lat":"14.5333333","long":"-87.7333333"}},{"country":"hn","city":"Camalote","coordinates":{"lat":"14.8833333","long":"-88.8666667"}},{"country":"hn","city":"Camalote","coordinates":{"lat":"14.0833333","long":"-88.75"}},{"country":"hn","city":"Camalote","coordinates":{"lat":"14.7666667","long":"-86.5166667"}},{"country":"hn","city":"Camalote","coordinates":{"lat":"15.3333333","long":"-88.3333333"}},{"country":"hn","city":"Camalote","coordinates":{"lat":"15.2166667","long":"-87.5666667"}},{"country":"hn","city":"Camalote de Campuca","coordinates":{"lat":"14.6333333","long":"-88.65"}},{"country":"hn","city":"Camalotillo","coordinates":{"lat":"15.1","long":"-86.85"}},{"country":"hn","city":"Camalotol","coordinates":{"lat":"15.25","long":"-86.25"}},{"country":"hn","city":"Camapara","coordinates":{"lat":"14.0666667","long":"-88.5833333"}},{"country":"hn","city":"Camaronero","coordinates":{"lat":"13.8","long":"-88.4"}},{"country":"hn","city":"Camarones","coordinates":{"lat":"13.7536111","long":"-87.295"}},{"country":"hn","city":"Camasca","coordinates":{"lat":"14.0","long":"-88.3833333"}},{"country":"hn","city":"Cambalache","coordinates":{"lat":"13.7166667","long":"-86.85"}},{"country":"hn","city":"Camelia","coordinates":{"lat":"15.6666667","long":"-87.0166667"}},{"country":"hn","city":"Camelia","coordinates":{"lat":"15.55","long":"-86.6833333"}},{"country":"hn","city":"Camelias","coordinates":{"lat":"15.6666667","long":"-87.0166667"}},{"country":"hn","city":"Camfilio","coordinates":{"lat":"15.2666667","long":"-88.0333333"}},{"country":"hn","city":"Camino Nuevo","coordinates":{"lat":"15.7","long":"-88.05"}},{"country":"hn","city":"Camocal","coordinates":{"lat":"15.0166667","long":"-88.5666667"}},{"country":"hn","city":"Camorra","coordinates":{"lat":"13.2366667","long":"-87.1927778"}},{"country":"hn","city":"Camoteras","coordinates":{"lat":"15.2166667","long":"-87.1"}},{"country":"hn","city":"Campa","coordinates":{"lat":"14.5333333","long":"-87.7333333"}},{"country":"hn","city":"Campalcal","coordinates":{"lat":"14.6666667","long":"-88.2333333"}},{"country":"hn","city":"Campamento","coordinates":{"lat":"15.9166667","long":"-86.0333333"}},{"country":"hn","city":"Campamento","coordinates":{"lat":"14.55","long":"-86.65"}},{"country":"hn","city":"Campamento","coordinates":{"lat":"13.4333333","long":"-87.5666667"}},{"country":"hn","city":"Campana","coordinates":{"lat":"14.5333333","long":"-87.75"}},{"country":"hn","city":"Campana","coordinates":{"lat":"15.7666667","long":"-87.85"}},{"country":"hn","city":"Campanario","coordinates":{"lat":"15.15","long":"-88.7166667"}},{"country":"hn","city":"Campanario","coordinates":{"lat":"14.4166667","long":"-87.8833333"}},{"country":"hn","city":"Campanario","coordinates":{"lat":"14.9333333","long":"-86.2833333"}},{"country":"hn","city":"Campanario de San Juanillo","coordinates":{"lat":"14.4833333","long":"-87.9166667"}},{"country":"hn","city":"Campanario San Juanillo","coordinates":{"lat":"14.4833333","long":"-87.9166667"}},{"country":"hn","city":"Camp Bay","coordinates":{"lat":"16.4","long":"-86.2833333"}},{"country":"hn","city":"Campín","coordinates":{"lat":"15.35","long":"-87.8666667"}},{"country":"hn","city":"Campo Bálsamo","coordinates":{"lat":"15.4833333","long":"-86.6333333"}},{"country":"hn","city":"Campo Buenos Aires","coordinates":{"lat":"15.35","long":"-86.8333333"}},{"country":"hn","city":"Campo Dos","coordinates":{"lat":"15.4166667","long":"-87.9333333"}},{"country":"hn","city":"Campo El Chorro","coordinates":{"lat":"15.5333333","long":"-86.6666667"}},{"country":"hn","city":"Campo Elvir","coordinates":{"lat":"15.7166667","long":"-87.4666667"}},{"country":"hn","city":"Campo El Zapote","coordinates":{"lat":"15.4166667","long":"-87.9833333"}},{"country":"hn","city":"Campo Jagua","coordinates":{"lat":"15.1","long":"-88.7333333"}},{"country":"hn","city":"Campo La Jigua","coordinates":{"lat":"15.35","long":"-86.8333333"}},{"country":"hn","city":"Campo Nuevo","coordinates":{"lat":"15.7333333","long":"-87.25"}},{"country":"hn","city":"Campo Nuevo","coordinates":{"lat":"15.3333333","long":"-88.0833333"}},{"country":"hn","city":"Campo Nuevo","coordinates":{"lat":"15.5","long":"-86.65"}},{"country":"hn","city":"Campo Palo Verde","coordinates":{"lat":"15.45","long":"-86.7166667"}},{"country":"hn","city":"Campo Pineda","coordinates":{"lat":"15.4166667","long":"-87.9"}},{"country":"hn","city":"Campo Rojo","coordinates":{"lat":"15.35","long":"-86.7333333"}},{"country":"hn","city":"Campo Santa Cruz","coordinates":{"lat":"15.35","long":"-86.7666667"}},{"country":"hn","city":"Campo Siete","coordinates":{"lat":"15.0666667","long":"-87.7333333"}},{"country":"hn","city":"Campo Suttón","coordinates":{"lat":"15.35","long":"-86.8666667"}},{"country":"hn","city":"Campo Uno","coordinates":{"lat":"15.4166667","long":"-87.9166667"}},{"country":"hn","city":"Campuca","coordinates":{"lat":"14.6333333","long":"-88.65"}},{"country":"hn","city":"Canacastillo","coordinates":{"lat":"14.2","long":"-88.8333333"}},{"country":"hn","city":"Cañada","coordinates":{"lat":"14.8","long":"-87.65"}},{"country":"hn","city":"Cañada","coordinates":{"lat":"14.9","long":"-86.8166667"}},{"country":"hn","city":"Cañada","coordinates":{"lat":"13.8116667","long":"-87.0622222"}},{"country":"hn","city":"Cañada","coordinates":{"lat":"15.0166667","long":"-88.2"}},{"country":"hn","city":"Cañada de Limón","coordinates":{"lat":"14.8666667","long":"-86.3"}},{"country":"hn","city":"Cañada del Limón","coordinates":{"lat":"14.8666667","long":"-86.3"}},{"country":"hn","city":"Cañada del Toro","coordinates":{"lat":"13.9","long":"-86.9666667"}},{"country":"hn","city":"Cañada Grande","coordinates":{"lat":"15.0333333","long":"-87.7666667"}},{"country":"hn","city":"Cañada Grande","coordinates":{"lat":"13.8116667","long":"-87.0622222"}},{"country":"hn","city":"Cañadas","coordinates":{"lat":"14.5333333","long":"-88.5166667"}},{"country":"hn","city":"Cañadas de Sosa","coordinates":{"lat":"15.0333333","long":"-87.7666667"}},{"country":"hn","city":"Cañagrales","coordinates":{"lat":"14.7666667","long":"-87.55"}},{"country":"hn","city":"Canal","coordinates":{"lat":"15.95","long":"-85.85"}},{"country":"hn","city":"Cañal","coordinates":{"lat":"14.9166667","long":"-88.5833333"}},{"country":"hn","city":"Canales","coordinates":{"lat":"15.7","long":"-84.8666667"}},{"country":"hn","city":"Cañales","coordinates":{"lat":"14.5333333","long":"-89.2"}},{"country":"hn","city":"Canales del Charro","coordinates":{"lat":"14.1333333","long":"-87.95"}},{"country":"hn","city":"Cañales del Chorro","coordinates":{"lat":"14.1333333","long":"-87.95"}},{"country":"hn","city":"Canal Falso","coordinates":{"lat":"13.95","long":"-86.5833333"}},{"country":"hn","city":"Cañalitos","coordinates":{"lat":"14.8666667","long":"-88.5"}},{"country":"hn","city":"Canan","coordinates":{"lat":"14.5666667","long":"-86.5"}},{"country":"hn","city":"Cañas Brabas","coordinates":{"lat":"13.5833333","long":"-86.8833333"}},{"country":"hn","city":"Cañas Bravas","coordinates":{"lat":"13.425","long":"-87.0027778"}},{"country":"hn","city":"Cañas Bravas","coordinates":{"lat":"13.8158333","long":"-87.4302778"}},{"country":"hn","city":"Cañas","coordinates":{"lat":"14.3666667","long":"-87.7833333"}},{"country":"hn","city":"Cañas","coordinates":{"lat":"13.8833333","long":"-87.6666667"}},{"country":"hn","city":"Cañas","coordinates":{"lat":"15.3166667","long":"-88.3666667"}},{"country":"hn","city":"Cañas","coordinates":{"lat":"14.95","long":"-87.3333333"}},{"country":"hn","city":"Canastillo","coordinates":{"lat":"14.2","long":"-88.8333333"}},{"country":"hn","city":"Cañaveral","coordinates":{"lat":"14.9833333","long":"-88.0166667"}},{"country":"hn","city":"Cañaveral","coordinates":{"lat":"13.7666667","long":"-87.6166667"}},{"country":"hn","city":"Cañaverales","coordinates":{"lat":"14.9833333","long":"-88.0166667"}},{"country":"hn","city":"Caña Vieja","coordinates":{"lat":"13.4097222","long":"-87.0061111"}},{"country":"hn","city":"Caña Vieja","coordinates":{"lat":"13.8297222","long":"-87.2302778"}},{"country":"hn","city":"Canchía","coordinates":{"lat":"14.9","long":"-87.8333333"}},{"country":"hn","city":"Canchias","coordinates":{"lat":"14.9","long":"-87.8333333"}},{"country":"hn","city":"Cancire","coordinates":{"lat":"14.3333333","long":"-87.8833333"}},{"country":"hn","city":"Canco","coordinates":{"lat":"15.1666667","long":"-83.4833333"}},{"country":"hn","city":"Cancolo","coordinates":{"lat":"14.85","long":"-88.7"}},{"country":"hn","city":"Canculuncos","coordinates":{"lat":"14.7333333","long":"-88.1333333"}},{"country":"hn","city":"Candaleros","coordinates":{"lat":"14.7166667","long":"-86.2166667"}},{"country":"hn","city":"Candelana","coordinates":{"lat":"13.7","long":"-86.9333333"}},{"country":"hn","city":"Candelaria","coordinates":{"lat":"15.6","long":"-86.2833333"}},{"country":"hn","city":"Candelaria","coordinates":{"lat":"14.8166667","long":"-87.6166667"}},{"country":"hn","city":"Candelaria","coordinates":{"lat":"14.85","long":"-88.8666667"}},{"country":"hn","city":"Candelaria","coordinates":{"lat":"13.7","long":"-86.9333333"}},{"country":"hn","city":"Candelaria","coordinates":{"lat":"14.4333333","long":"-87.1833333"}},{"country":"hn","city":"Candelaria","coordinates":{"lat":"14.0166667","long":"-87.7833333"}},{"country":"hn","city":"Candelaria","coordinates":{"lat":"14.0833333","long":"-88.5666667"}},{"country":"hn","city":"Candelaria","coordinates":{"lat":"13.6333333","long":"-87.6"}},{"country":"hn","city":"Candelaria","coordinates":{"lat":"15.3666667","long":"-87.5666667"}},{"country":"hn","city":"Candelarita","coordinates":{"lat":"14.0166667","long":"-88.3166667"}},{"country":"hn","city":"Candeleros","coordinates":{"lat":"14.7166667","long":"-86.2166667"}},{"country":"hn","city":"Candelilla","coordinates":{"lat":"14.9","long":"-88.9333333"}},{"country":"hn","city":"Candelillo","coordinates":{"lat":"14.9","long":"-88.9333333"}},{"country":"hn","city":"Candelio","coordinates":{"lat":"14.9","long":"-88.9333333"}},{"country":"hn","city":"Cándido","coordinates":{"lat":"15.8","long":"-86.0833333"}},{"country":"hn","city":"Candungo","coordinates":{"lat":"15.1","long":"-88.0833333"}},{"country":"hn","city":"Cane","coordinates":{"lat":"14.2833333","long":"-87.6666667"}},{"country":"hn","city":"Canfilio","coordinates":{"lat":"15.2666667","long":"-88.0333333"}},{"country":"hn","city":"Cangélica","coordinates":{"lat":"15.5333333","long":"-87.4333333"}},{"country":"hn","city":"Canguacota","coordinates":{"lat":"14.35","long":"-88.8833333"}},{"country":"hn","city":"Cangual","coordinates":{"lat":"14.4333333","long":"-88.3333333"}},{"country":"hn","city":"Cañitas","coordinates":{"lat":"14.5666667","long":"-87.7333333"}},{"country":"hn","city":"Cañizales","coordinates":{"lat":"14.9166667","long":"-87.9"}},{"country":"hn","city":"Canmaya","coordinates":{"lat":"14.7666667","long":"-88.6166667"}},{"country":"hn","city":"Canoa","coordinates":{"lat":"13.8436111","long":"-87.1891667"}},{"country":"hn","city":"Canoa","coordinates":{"lat":"14.1833333","long":"-88.5166667"}},{"country":"hn","city":"Canoa","coordinates":{"lat":"15.2833333","long":"-88.2333333"}},{"country":"hn","city":"Canoas","coordinates":{"lat":"14.9","long":"-86.7"}},{"country":"hn","city":"Cañobaral","coordinates":{"lat":"13.7666667","long":"-87.6166667"}},{"country":"hn","city":"Cañoncitos","coordinates":{"lat":"15.0","long":"-88.9166667"}},{"country":"hn","city":"Cañón de Barbascal","coordinates":{"lat":"14.8666667","long":"-88.9166667"}},{"country":"hn","city":"Cañón de la Lima","coordinates":{"lat":"15.0166667","long":"-88.8833333"}},{"country":"hn","city":"Canquira","coordinates":{"lat":"15.3166667","long":"-83.5833333"}},{"country":"hn","city":"Canquire","coordinates":{"lat":"15.3","long":"-85.6333333"}},{"country":"hn","city":"Cansincaman","coordinates":{"lat":"14.7","long":"-88.7"}},{"country":"hn","city":"Cansincamón","coordinates":{"lat":"14.7","long":"-88.7"}},{"country":"hn","city":"Cansire","coordinates":{"lat":"14.3333333","long":"-87.8833333"}},{"country":"hn","city":"Cansopoteca","coordinates":{"lat":"14.0333333","long":"-87.5"}},{"country":"hn","city":"Canta Gallo","coordinates":{"lat":"13.5613889","long":"-87.0838889"}},{"country":"hn","city":"Cantamal","coordinates":{"lat":"14.7833333","long":"-88.6833333"}},{"country":"hn","city":"Cantaranas","coordinates":{"lat":"14.2666667","long":"-87.0333333"}},{"country":"hn","city":"Cantar","coordinates":{"lat":"15.6666667","long":"-86.4666667"}},{"country":"hn","city":"Cantarranas","coordinates":{"lat":"13.1263889","long":"-87.0638889"}},{"country":"hn","city":"Cantarranas","coordinates":{"lat":"14.2666667","long":"-87.0333333"}},{"country":"hn","city":"Cantarranas","coordinates":{"lat":"15.0333333","long":"-88.3333333"}},{"country":"hn","city":"Cantil","coordinates":{"lat":"14.9166667","long":"-87.9333333"}},{"country":"hn","city":"Cantil","coordinates":{"lat":"13.7333333","long":"-87.6166667"}},{"country":"hn","city":"Cantina","coordinates":{"lat":"13.8166667","long":"-86.8"}},{"country":"hn","city":"Cantón","coordinates":{"lat":"13.8","long":"-86.65"}},{"country":"hn","city":"Cantón","coordinates":{"lat":"14.25","long":"-87.6833333"}},{"country":"hn","city":"Cantoral","coordinates":{"lat":"14.45","long":"-87.8"}},{"country":"hn","city":"Cantoral","coordinates":{"lat":"15.1666667","long":"-87.15"}},{"country":"hn","city":"Cantor","coordinates":{"lat":"15.6666667","long":"-86.4666667"}},{"country":"hn","city":"Cantorral","coordinates":{"lat":"14.45","long":"-87.8"}},{"country":"hn","city":"Canutillo","coordinates":{"lat":"13.3158333","long":"-87.3091667"}},{"country":"hn","city":"Canyuco","coordinates":{"lat":"13.9166667","long":"-87.3"}},{"country":"hn","city":"Caoba","coordinates":{"lat":"15.6333333","long":"-87.95"}},{"country":"hn","city":"Caobanal","coordinates":{"lat":"14.5666667","long":"-87.8333333"}},{"country":"hn","city":"Caobanal","coordinates":{"lat":"15.3833333","long":"-88.6"}},{"country":"hn","city":"Caobanales","coordinates":{"lat":"15.1","long":"-88.4833333"}},{"country":"hn","city":"Caona","coordinates":{"lat":"14.1833333","long":"-88.5166667"}},{"country":"hn","city":"Capara","coordinates":{"lat":"14.8333333","long":"-87.6833333"}},{"country":"hn","city":"Capiro","coordinates":{"lat":"14.4","long":"-87.6"}},{"country":"hn","city":"Capiro","coordinates":{"lat":"15.0333333","long":"-87.2833333"}},{"country":"hn","city":"Capri","coordinates":{"lat":"15.0666667","long":"-83.3"}},{"country":"hn","city":"Capuca","coordinates":{"lat":"14.25","long":"-88.6666667"}},{"country":"hn","city":"Capucal","coordinates":{"lat":"14.9666667","long":"-88.1"}},{"country":"hn","city":"Capucas","coordinates":{"lat":"14.6166667","long":"-88.7666667"}},{"country":"hn","city":"Capulín","coordinates":{"lat":"15.25","long":"-88.0"}},{"country":"hn","city":"Capulín","coordinates":{"lat":"13.6297222","long":"-87.0688889"}},{"country":"hn","city":"Capulin","coordinates":{"lat":"13.7702778","long":"-87.2883333"}},{"country":"hn","city":"Capulín","coordinates":{"lat":"15.2166667","long":"-85.8666667"}},{"country":"hn","city":"Capulín","coordinates":{"lat":"14.9333333","long":"-88.3666667"}},{"country":"hn","city":"Capulín","coordinates":{"lat":"15.05","long":"-87.1666667"}},{"country":"hn","city":"Caquaca","coordinates":{"lat":"14.1666667","long":"-87.2666667"}},{"country":"hn","city":"Caracol","coordinates":{"lat":"13.4786111","long":"-87.18"}},{"country":"hn","city":"Caracol","coordinates":{"lat":"15.1","long":"-87.9666667"}},{"country":"hn","city":"Caracol","coordinates":{"lat":"14.2","long":"-87.95"}},{"country":"hn","city":"Caracol","coordinates":{"lat":"15.0833333","long":"-88.4833333"}},{"country":"hn","city":"Caragual","coordinates":{"lat":"13.7666667","long":"-87.4666667"}},{"country":"hn","city":"Caragual","coordinates":{"lat":"13.6058333","long":"-87.4516667"}},{"country":"hn","city":"Caraitica","coordinates":{"lat":"13.7","long":"-87.25"}},{"country":"hn","city":"Caraitique","coordinates":{"lat":"13.7","long":"-87.25"}},{"country":"hn","city":"Carambahito","coordinates":{"lat":"15.2333333","long":"-85.9333333"}},{"country":"hn","city":"Carambito","coordinates":{"lat":"15.2333333","long":"-85.9333333"}},{"country":"hn","city":"Caranbahito","coordinates":{"lat":"15.2333333","long":"-85.9333333"}},{"country":"hn","city":"Caranchulo","coordinates":{"lat":"13.8833333","long":"-87.5166667"}},{"country":"hn","city":"Caraos","coordinates":{"lat":"14.1","long":"-88.2666667"}},{"country":"hn","city":"Carasunta","coordinates":{"lat":"15.1","long":"-83.3333333"}},{"country":"hn","city":"Caratasca","coordinates":{"lat":"15.3666667","long":"-83.7333333"}},{"country":"hn","city":"Carbajales","coordinates":{"lat":"15.5166667","long":"-86.35"}},{"country":"hn","city":"Carbonal","coordinates":{"lat":"13.4","long":"-87.1166667"}},{"country":"hn","city":"Carbonal","coordinates":{"lat":"13.65","long":"-87.05"}},{"country":"hn","city":"Carbonal","coordinates":{"lat":"13.7833333","long":"-87.2333333"}},{"country":"hn","city":"Carbonal","coordinates":{"lat":"14.85","long":"-86.4833333"}},{"country":"hn","city":"Carbon","coordinates":{"lat":"14.25","long":"-87.05"}},{"country":"hn","city":"Carboncitos","coordinates":{"lat":"13.8166667","long":"-87.2333333"}},{"country":"hn","city":"Carbonera","coordinates":{"lat":"13.85","long":"-87.5333333"}},{"country":"hn","city":"Carbonera","coordinates":{"lat":"14.2833333","long":"-88.6"}},{"country":"hn","city":"Carboneras","coordinates":{"lat":"14.5666667","long":"-87.75"}},{"country":"hn","city":"Carboneras","coordinates":{"lat":"13.7961111","long":"-87.2533333"}},{"country":"hn","city":"Cárcamo","coordinates":{"lat":"15.6","long":"-87.9333333"}},{"country":"hn","city":"Carcancay","coordinates":{"lat":"14.7833333","long":"-84.9"}},{"country":"hn","city":"Cardoncillo","coordinates":{"lat":"13.3","long":"-86.8833333"}},{"country":"hn","city":"Caridad","coordinates":{"lat":"15.0","long":"-87.9333333"}},{"country":"hn","city":"Caridad","coordinates":{"lat":"13.8833333","long":"-88.25"}},{"country":"hn","city":"Caridad","coordinates":{"lat":"13.8333333","long":"-87.6833333"}},{"country":"hn","city":"Caridad","coordinates":{"lat":"15.45","long":"-87.5"}},{"country":"hn","city":"Carizal","coordinates":{"lat":"13.4763889","long":"-87.1927778"}},{"country":"hn","city":"Carizal","coordinates":{"lat":"14.3","long":"-88.4833333"}},{"country":"hn","city":"Carizuelar","coordinates":{"lat":"15.3166667","long":"-85.8333333"}},{"country":"hn","city":"Carmelina","coordinates":{"lat":"15.6166667","long":"-87.1833333"}},{"country":"hn","city":"Carmelina","coordinates":{"lat":"15.5","long":"-86.6166667"}},{"country":"hn","city":"Carmelita","coordinates":{"lat":"15.4","long":"-87.1333333"}},{"country":"hn","city":"Carmelo","coordinates":{"lat":"14.5666667","long":"-87.1166667"}},{"country":"hn","city":"Carmen","coordinates":{"lat":"14.8","long":"-88.7833333"}},{"country":"hn","city":"Carnisuelar","coordinates":{"lat":"15.3166667","long":"-85.8333333"}},{"country":"hn","city":"Caror","coordinates":{"lat":"13.9402778","long":"-87.3319444"}},{"country":"hn","city":"Carpintero","coordinates":{"lat":"13.8166667","long":"-87.2833333"}},{"country":"hn","city":"Carpules","coordinates":{"lat":"14.6666667","long":"-87.7333333"}},{"country":"hn","city":"Carrero","coordinates":{"lat":"14.9166667","long":"-88.4166667"}},{"country":"hn","city":"Carretilla","coordinates":{"lat":"13.5","long":"-87.1666667"}},{"country":"hn","city":"Carreto","coordinates":{"lat":"13.8","long":"-87.45"}},{"country":"hn","city":"Carreto","coordinates":{"lat":"14.9333333","long":"-88.3833333"}},{"country":"hn","city":"Carril","coordinates":{"lat":"15.4666667","long":"-86.6833333"}},{"country":"hn","city":"Carrizal","coordinates":{"lat":"13.2461111","long":"-87.1783333"}},{"country":"hn","city":"Carrizal","coordinates":{"lat":"14.6666667","long":"-87.95"}},{"country":"hn","city":"Carrizal","coordinates":{"lat":"14.55","long":"-88.8666667"}},{"country":"hn","city":"Carrizal","coordinates":{"lat":"15.0833333","long":"-88.05"}},{"country":"hn","city":"Carrizal","coordinates":{"lat":"13.5458333","long":"-87.0975"}},{"country":"hn","city":"Carrizal","coordinates":{"lat":"13.7166667","long":"-87.2833333"}},{"country":"hn","city":"Carrizal","coordinates":{"lat":"14.7833333","long":"-84.9333333"}},{"country":"hn","city":"Carrizal","coordinates":{"lat":"13.8","long":"-88.25"}},{"country":"hn","city":"Carrizal","coordinates":{"lat":"13.9666667","long":"-88.0666667"}},{"country":"hn","city":"Carrizal","coordinates":{"lat":"14.05","long":"-88.6"}},{"country":"hn","city":"Carrizal","coordinates":{"lat":"14.3833333","long":"-88.95"}},{"country":"hn","city":"Carrizal","coordinates":{"lat":"14.4","long":"-86.1333333"}},{"country":"hn","city":"Carrizal","coordinates":{"lat":"14.95","long":"-88.1666667"}},{"country":"hn","city":"Carrizal","coordinates":{"lat":"14.9333333","long":"-87.3"}},{"country":"hn","city":"Carrizales","coordinates":{"lat":"13.7833333","long":"-87.05"}},{"country":"hn","city":"Carrizales","coordinates":{"lat":"14.5","long":"-88.45"}},{"country":"hn","city":"Carrizales","coordinates":{"lat":"15.25","long":"-88.3"}},{"country":"hn","city":"Carrizalio","coordinates":{"lat":"13.7166667","long":"-87.2833333"}},{"country":"hn","city":"Carrizalito","coordinates":{"lat":"14.6833333","long":"-88.9"}},{"country":"hn","city":"Carrizalito","coordinates":{"lat":"13.7166667","long":"-87.2833333"}},{"country":"hn","city":"Carrizalito","coordinates":{"lat":"14.2166667","long":"-88.8166667"}},{"country":"hn","city":"Carrizalito","coordinates":{"lat":"14.95","long":"-87.2833333"}},{"country":"hn","city":"Carrizalitos","coordinates":{"lat":"14.3833333","long":"-87.05"}},{"country":"hn","city":"Carrizalon","coordinates":{"lat":"14.85","long":"-89.2166667"}},{"country":"hn","city":"Carrizo","coordinates":{"lat":"13.2502778","long":"-87.2580556"}},{"country":"hn","city":"Carrizo","coordinates":{"lat":"13.45","long":"-87.7"}},{"country":"hn","city":"Carrizuelo","coordinates":{"lat":"14.4166667","long":"-87.95"}},{"country":"hn","city":"Carta","coordinates":{"lat":"15.4333333","long":"-83.8333333"}},{"country":"hn","city":"Carta","coordinates":{"lat":"14.9166667","long":"-86.3"}},{"country":"hn","city":"Cartagua","coordinates":{"lat":"14.6333333","long":"-88.85"}},{"country":"hn","city":"Carvajales","coordinates":{"lat":"15.4666667","long":"-86.3333333"}},{"country":"hn","city":"Casa Blanca","coordinates":{"lat":"14.9333333","long":"-87.9166667"}},{"country":"hn","city":"Casa de Alto","coordinates":{"lat":"15.6333333","long":"-87.15"}},{"country":"hn","city":"Casa de Teja","coordinates":{"lat":"14.4333333","long":"-89.1166667"}},{"country":"hn","city":"Casa de Teja","coordinates":{"lat":"14.85","long":"-86.5166667"}},{"country":"hn","city":"Casa de Tejas","coordinates":{"lat":"14.4333333","long":"-89.1166667"}},{"country":"hn","city":"Casamacoa","coordinates":{"lat":"14.75","long":"-85.1666667"}},{"country":"hn","city":"Casa Quemada","coordinates":{"lat":"14.6666667","long":"-88.8166667"}},