[{"country":"kg","city":"Abdykalyk","coordinates":{"lat":"41.7666667","long":"72.05"}},{"country":"kg","city":"Acha-Kaindy","coordinates":{"lat":"41.1422222","long":"75.8111111"}},{"country":"kg","city":"Acha-Kayyngdy","coordinates":{"lat":"41.1422222","long":"75.8111111"}},{"country":"kg","city":"Achi","coordinates":{"lat":"41.1","long":"73.0833333"}},{"country":"kg","city":"Achiksu","coordinates":{"lat":"39.4833333","long":"72.4833333"}},{"country":"kg","city":"Aflatun","coordinates":{"lat":"41.6333333","long":"71.9333333"}},{"country":"kg","city":"Ail Batal","coordinates":{"lat":"41.9","long":"73.8166667"}},{"country":"kg","city":"Ail-Batalkan","coordinates":{"lat":"41.9","long":"73.8166667"}},{"country":"kg","city":"Ail-Batalken","coordinates":{"lat":"41.9","long":"73.8166667"}},{"country":"kg","city":"Ail-Torken","coordinates":{"lat":"41.8833333","long":"73.1833333"}},{"country":"kg","city":"Akarp","coordinates":{"lat":"40.05","long":"72.45"}},{"country":"kg","city":"Ak-Art","coordinates":{"lat":"40.05","long":"72.45"}},{"country":"kg","city":"Akbash","coordinates":{"lat":"40.9833333","long":"72.9666667"}},{"country":"kg","city":"Akbashim","coordinates":{"lat":"41.4","long":"75.4"}},{"country":"kg","city":"Ak-Bashin","coordinates":{"lat":"42.8","long":"75.2666667"}},{"country":"kg","city":"Akbeit","coordinates":{"lat":"40.9","long":"75.1333333"}},{"country":"kg","city":"Akbeshi","coordinates":{"lat":"42.8","long":"75.2666667"}},{"country":"kg","city":"Akbosaga","coordinates":{"lat":"39.8","long":"73.2333333"}},{"country":"kg","city":"Ak-Bosyaga","coordinates":{"lat":"39.8","long":"73.2333333"}},{"country":"kg","city":"Akbulak","coordinates":{"lat":"41.3333333","long":"75.35"}},{"country":"kg","city":"Akbulak","coordinates":{"lat":"40.2","long":"72.6833333"}},{"country":"kg","city":"Ak-Bulak","coordinates":{"lat":"40.3","long":"72.1333333"}},{"country":"kg","city":"Ak-Bulak","coordinates":{"lat":"42.7333333","long":"78.25"}},{"country":"kg","city":"Ak-Bulun","coordinates":{"lat":"41.4508333","long":"76.2908333"}},{"country":"kg","city":"Ak-Bulun","coordinates":{"lat":"42.6333333","long":"78.8166667"}},{"country":"kg","city":"Ak-Chal","coordinates":{"lat":"40.25","long":"72.2833333"}},{"country":"kg","city":"Ak-Chaya","coordinates":{"lat":"40.2333333","long":"72.3"}},{"country":"kg","city":"Akchikarasu","coordinates":{"lat":"41.8166667","long":"72.9"}},{"country":"kg","city":"Akchi-Karasu","coordinates":{"lat":"41.8294444","long":"72.8547222"}},{"country":"kg","city":"Akchiy","coordinates":{"lat":"41.2","long":"74.8333333"}},{"country":"kg","city":"Ak-Chiy-Karasu","coordinates":{"lat":"41.8166667","long":"72.9"}},{"country":"kg","city":"Akchiy-Karasu","coordinates":{"lat":"41.8294444","long":"72.8547222"}},{"country":"kg","city":"Ak-Dyube","coordinates":{"lat":"42.4666667","long":"78.1"}},{"country":"kg","city":"Akdzhar","coordinates":{"lat":"41.6333333","long":"73.3166667"}},{"country":"kg","city":"Akdzhar","coordinates":{"lat":"41.1666667","long":"75.8"}},{"country":"kg","city":"Ak-Dzhar","coordinates":{"lat":"40.8","long":"73.45"}},{"country":"kg","city":"Ak-Dzhol","coordinates":{"lat":"42.9383333","long":"74.4886111"}},{"country":"kg","city":"Ak-Dzhol","coordinates":{"lat":"41.6","long":"72.25"}},{"country":"kg","city":"Akelëng","coordinates":{"lat":"42.3475","long":"76.1625"}},{"country":"kg","city":"Akghi-Karasu","coordinates":{"lat":"41.8294444","long":"72.8547222"}},{"country":"kg","city":"Akhchi-Karasu","coordinates":{"lat":"41.8294444","long":"72.8547222"}},{"country":"kg","city":"Akhman","coordinates":{"lat":"41.0","long":"72.8"}},{"country":"kg","city":"Ak-Ityk","coordinates":{"lat":"40.3166667","long":"72.4"}},{"country":"kg","city":"Ak-Kochkor","coordinates":{"lat":"42.4333333","long":"78.1833333"}},{"country":"kg","city":"Ak-Kuduk","coordinates":{"lat":"41.5","long":"75.3333333"}},{"country":"kg","city":"Ak-Kul'","coordinates":{"lat":"41.6833333","long":"74.1666667"}},{"country":"kg","city":"Akkyungey","coordinates":{"lat":"40.4833333","long":"73.7833333"}},{"country":"kg","city":"Akkyya","coordinates":{"lat":"41.4333333","long":"74.8333333"}},{"country":"kg","city":"Akkzu","coordinates":{"lat":"41.2505556","long":"76.1355556"}},{"country":"kg","city":"Ak-Mechet'-Aral","coordinates":{"lat":"40.8666667","long":"72.65"}},{"country":"kg","city":"Ak-Moyun","coordinates":{"lat":"41.2166667","long":"76.0513889"}},{"country":"kg","city":"Ak-Muz","coordinates":{"lat":"41.2505556","long":"76.1355556"}},{"country":"kg","city":"Ak-Olën","coordinates":{"lat":"42.3475","long":"76.1625"}},{"country":"kg","city":"Ak-Ölöng","coordinates":{"lat":"42.3475","long":"76.1625"}},{"country":"kg","city":"Ak-Osten","coordinates":{"lat":"42.45","long":"78.1666667"}},{"country":"kg","city":"Ak-Say","coordinates":{"lat":"42.1313889","long":"76.8313889"}},{"country":"kg","city":"Ak-Shirak","coordinates":{"lat":"42.4666667","long":"78.2"}},{"country":"kg","city":"Akshiyrak","coordinates":{"lat":"41.8169444","long":"78.7147222"}},{"country":"kg","city":"Akshor","coordinates":{"lat":"40.4666667","long":"72.2166667"}},{"country":"kg","city":"Ak-Shyyrak","coordinates":{"lat":"41.8169444","long":"78.7147222"}},{"country":"kg","city":"Ak-Su","coordinates":{"lat":"43.0166667","long":"74.1666667"}},{"country":"kg","city":"Ak-Su","coordinates":{"lat":"42.8166667","long":"74.0166667"}},{"country":"kg","city":"Aksu","coordinates":{"lat":"41.4666667","long":"72.05"}},{"country":"kg","city":"Ak-Suu","coordinates":{"lat":"42.8166667","long":"74.0666667"}},{"country":"kg","city":"Ak-Suu","coordinates":{"lat":"41.5","long":"75.2"}},{"country":"kg","city":"Aktala","coordinates":{"lat":"41.0833333","long":"75.6666667"}},{"country":"kg","city":"Ak-Tala","coordinates":{"lat":"41.4094444","long":"75.0597222"}},{"country":"kg","city":"Aktala","coordinates":{"lat":"39.95","long":"73.5"}},{"country":"kg","city":"Ak-Tal","coordinates":{"lat":"41.4094444","long":"75.0597222"}},{"country":"kg","city":"Aktam","coordinates":{"lat":"41.5","long":"71.1166667"}},{"country":"kg","city":"Ak-Tam","coordinates":{"lat":"41.8333333","long":"71.2"}},{"country":"kg","city":"Aktash","coordinates":{"lat":"40.05","long":"72.8333333"}},{"country":"kg","city":"Aktash","coordinates":{"lat":"41.6833333","long":"70.6166667"}},{"country":"kg","city":"Aktauk","coordinates":{"lat":"41.2166667","long":"73.1"}},{"country":"kg","city":"Aktëbë","coordinates":{"lat":"42.4666667","long":"78.1"}},{"country":"kg","city":"Ak-Terek","coordinates":{"lat":"40.9666667","long":"73.1666667"}},{"country":"kg","city":"Ak-Terek","coordinates":{"lat":"40.4136111","long":"72.7733333"}},{"country":"kg","city":"Akterek","coordinates":{"lat":"40.4","long":"73.5"}},{"country":"kg","city":"Ak-Terek","coordinates":{"lat":"42.2352778","long":"77.7325"}},{"country":"kg","city":"Akterek","coordinates":{"lat":"42.2455556","long":"76.575"}},{"country":"kg","city":"Ak-Terek","coordinates":{"lat":"42.25","long":"76.7166667"}},{"country":"kg","city":"Ak-Terek-Gave","coordinates":{"lat":"40.4","long":"73.5"}},{"country":"kg","city":"Aktersk","coordinates":{"lat":"42.25","long":"76.7166667"}},{"country":"kg","city":"Aktobe","coordinates":{"lat":"42.4666667","long":"78.1"}},{"country":"kg","city":"Aktuidu","coordinates":{"lat":"41.65","long":"72.0666667"}},{"country":"kg","city":"Ak-Turpak","coordinates":{"lat":"40.1863889","long":"71.0552778"}},{"country":"kg","city":"Ak-Tüz","coordinates":{"lat":"42.8783333","long":"76.1375"}},{"country":"kg","city":"Ak-Tyube","coordinates":{"lat":"42.4666667","long":"78.1"}},{"country":"kg","city":"Ak-Tyuz","coordinates":{"lat":"42.8783333","long":"76.1375"}},{"country":"kg","city":"Akulen","coordinates":{"lat":"42.3475","long":"76.1625"}},{"country":"kg","city":"Akusten","coordinates":{"lat":"42.45","long":"78.1666667"}},{"country":"kg","city":"Ala-Bash","coordinates":{"lat":"42.1127778","long":"76.4794444"}},{"country":"kg","city":"Ala-Buka","coordinates":{"lat":"41.3833333","long":"71.5"}},{"country":"kg","city":"Ala-Dzhida","coordinates":{"lat":"41.8","long":"73.1333333"}},{"country":"kg","city":"Alamedin","coordinates":{"lat":"42.6333333","long":"74.6166667"}},{"country":"kg","city":"Alamüdün","coordinates":{"lat":"42.8969444","long":"74.6347222"}},{"country":"kg","city":"Alash","coordinates":{"lat":"41.2666667","long":"72.6666667"}},{"country":"kg","city":"Alashan","coordinates":{"lat":"40.3333333","long":"72.35"}},{"country":"kg","city":"Alashay","coordinates":{"lat":"40.3333333","long":"72.35"}},{"country":"kg","city":"Alatay","coordinates":{"lat":"41.95","long":"72.2833333"}},{"country":"kg","city":"Aleksandrovka","coordinates":{"lat":"42.6294444","long":"71.5905556"}},{"country":"kg","city":"Aleksandrovskiy","coordinates":{"lat":"42.6294444","long":"71.5905556"}},{"country":"kg","city":"Aleksandrovskoye","coordinates":{"lat":"42.6294444","long":"71.5905556"}},{"country":"kg","city":"Alekseyevka","coordinates":{"lat":"41.8","long":"72.8333333"}},{"country":"kg","city":"Alekseyevka","coordinates":{"lat":"42.75","long":"78.0"}},{"country":"kg","city":"Alekseyevskiy","coordinates":{"lat":"41.8013889","long":"72.8088889"}},{"country":"kg","city":"Alekseyvka","coordinates":{"lat":"42.75","long":"78.0"}},{"country":"kg","city":"Alga","coordinates":{"lat":"41.6666667","long":"72.0666667"}},{"country":"kg","city":"Alga","coordinates":{"lat":"40.2333333","long":"71.4666667"}},{"country":"kg","city":"Alike","coordinates":{"lat":"40.2333333","long":"72.7833333"}},{"country":"kg","city":"Alim-Tepe","coordinates":{"lat":"40.6158333","long":"72.7683333"}},{"country":"kg","city":"Alkym","coordinates":{"lat":"42.4666667","long":"78.25"}},{"country":"kg","city":"Almalu","coordinates":{"lat":"42.7238889","long":"75.5113889"}},{"country":"kg","city":"Almalu","coordinates":{"lat":"41.9333333","long":"73.5166667"}},{"country":"kg","city":"Almaluu","coordinates":{"lat":"42.7238889","long":"75.5113889"}},{"country":"kg","city":"Altayskoye","coordinates":{"lat":"41.3666667","long":"73.9"}},{"country":"kg","city":"Altynarasan","coordinates":{"lat":"42.3666667","long":"78.6"}},{"country":"kg","city":"Altynmazar","coordinates":{"lat":"39.1833333","long":"72.2333333"}},{"country":"kg","city":"Alysh","coordinates":{"lat":"41.4447222","long":"76.1994444"}},{"country":"kg","city":"Aman-Ail","coordinates":{"lat":"41.0333333","long":"72.9666667"}},{"country":"kg","city":"Amanbayevo","coordinates":{"lat":"42.6","long":"71.2"}},{"country":"kg","city":"Anan'evo","coordinates":{"lat":"42.7363889","long":"77.6641667"}},{"country":"kg","city":"Anan'yevo","coordinates":{"lat":"42.7363889","long":"77.6641667"}},{"country":"kg","city":"Andarak","coordinates":{"lat":"39.75","long":"69.4666667"}},{"country":"kg","city":"Andarkhan","coordinates":{"lat":"40.0","long":"69.85"}},{"country":"kg","city":"Arab","coordinates":{"lat":"41.5833333","long":"70.3166667"}},{"country":"kg","city":"Aral","coordinates":{"lat":"42.9","long":"74.2666667"}},{"country":"kg","city":"Aral","coordinates":{"lat":"41.4","long":"73.9"}},{"country":"kg","city":"Aral","coordinates":{"lat":"41.8666667","long":"74.3666667"}},{"country":"kg","city":"Aral","coordinates":{"lat":"42.5333333","long":"72.6666667"}},{"country":"kg","city":"Aral-Vakhym","coordinates":{"lat":"41.0166667","long":"72.6666667"}},{"country":"kg","city":"Aravan","coordinates":{"lat":"40.515","long":"72.4991667"}},{"country":"kg","city":"Arek","coordinates":{"lat":"40.4916667","long":"72.7372222"}},{"country":"kg","city":"Arimdzhan","coordinates":{"lat":"41.0333333","long":"72.5666667"}},{"country":"kg","city":"Arkhangel'skiy","coordinates":{"lat":"41.1666667","long":"73.3333333"}},{"country":"kg","city":"Arkhangel'skoye","coordinates":{"lat":"41.1666667","long":"73.3333333"}},{"country":"kg","city":"Arkit","coordinates":{"lat":"41.8","long":"71.95"}},{"country":"kg","city":"Arpa","coordinates":{"lat":"40.75","long":"74.75"}},{"country":"kg","city":"Arpatektir","coordinates":{"lat":"40.3666667","long":"73.4"}},{"country":"kg","city":"Arslanbab","coordinates":{"lat":"41.3333333","long":"72.9333333"}},{"country":"kg","city":"Arslanbob","coordinates":{"lat":"41.3333333","long":"72.9333333"}},{"country":"kg","city":"Aryslanbob","coordinates":{"lat":"41.3333333","long":"72.9333333"}},{"country":"kg","city":"Askaly","coordinates":{"lat":"40.0833333","long":"73.5833333"}},{"country":"kg","city":"Aslam","coordinates":{"lat":"41.4333333","long":"74.15"}},{"country":"kg","city":"Atay","coordinates":{"lat":"41.3666667","long":"73.9"}},{"country":"kg","city":"At-Bashi","coordinates":{"lat":"41.1697222","long":"75.8102778"}},{"country":"kg","city":"At-Bashy","coordinates":{"lat":"41.1697222","long":"75.8102778"}},{"country":"kg","city":"Augul","coordinates":{"lat":"39.8","long":"71.0333333"}},{"country":"kg","city":"Auliye","coordinates":{"lat":"40.2","long":"72.2166667"}},{"country":"kg","city":"Aul Pyatyy","coordinates":{"lat":"42.4166667","long":"73.0"}},{"country":"kg","city":"Austan","coordinates":{"lat":"40.0166667","long":"72.0833333"}},{"country":"kg","city":"Avgandala","coordinates":{"lat":"41.2833333","long":"73.0333333"}},{"country":"kg","city":"Aygyr-Dzhal","coordinates":{"lat":"41.7333333","long":"70.9833333"}},{"country":"kg","city":"Ayratam","coordinates":{"lat":"41.1166667","long":"71.4166667"}},{"country":"kg","city":"Ayrytam","coordinates":{"lat":"41.1166667","long":"71.4166667"}},{"country":"kg","city":"Baetov","coordinates":{"lat":"41.2166667","long":"74.9"}},{"country":"kg","city":"Baglan","coordinates":{"lat":"40.2333333","long":"72.2"}},{"country":"kg","city":"Bagösh","coordinates":{"lat":"41.9833333","long":"74.9666667"}},{"country":"kg","city":"Bagysh","coordinates":{"lat":"41.0166667","long":"73.0833333"}},{"country":"kg","city":"Bagysh","coordinates":{"lat":"41.9833333","long":"74.9666667"}},{"country":"kg","city":"Balykchy","coordinates":{"lat":"42.4611111","long":"76.1802778"}},{"country":"kg","city":"Balykty","coordinates":{"lat":"41.9833333","long":"72.5833333"}},{"country":"kg","city":"Bar-Bulak","coordinates":{"lat":"42.2455556","long":"76.575"}},{"country":"kg","city":"Bardu","coordinates":{"lat":"40.3833333","long":"73.25"}},{"country":"kg","city":"Barskaun","coordinates":{"lat":"42.1561111","long":"77.6038889"}},{"country":"kg","city":"Barskon","coordinates":{"lat":"42.1561111","long":"77.6038889"}},{"country":"kg","city":"Barskoon","coordinates":{"lat":"42.1561111","long":"77.6038889"}},{"country":"kg","city":"Basbeshik","coordinates":{"lat":"42.4333333","long":"77.9472222"}},{"country":"kg","city":"Bash-Bulak","coordinates":{"lat":"40.5122222","long":"72.9658333"}},{"country":"kg","city":"Bash-Kaindy","coordinates":{"lat":"41.1536111","long":"75.9025"}},{"country":"kg","city":"Bash-Karakain","coordinates":{"lat":"41.0166667","long":"75.4833333"}},{"country":"kg","city":"Bash-Kayyngdy","coordinates":{"lat":"41.1536111","long":"75.9025"}},{"country":"kg","city":"Bashkugandy","coordinates":{"lat":"42.0166667","long":"74.15"}},{"country":"kg","city":"Baskyya","coordinates":{"lat":"41.5","long":"75.8166667"}},{"country":"kg","city":"Basteri","coordinates":{"lat":"42.6530556","long":"77.185"}},{"country":"kg","city":"Basterinovka","coordinates":{"lat":"42.6530556","long":"77.185"}},{"country":"kg","city":"Batkan-Buzhum","coordinates":{"lat":"40.0166667","long":"70.8333333"}},{"country":"kg","city":"Batken","coordinates":{"lat":"40.05","long":"70.8333333"}},{"country":"kg","city":"Bayastan","coordinates":{"lat":"41.3333333","long":"71.6"}},{"country":"kg","city":"Baybiche","coordinates":{"lat":"41.4333333","long":"75.0333333"}},{"country":"kg","city":"Baybiche","coordinates":{"lat":"40.8333333","long":"73.9666667"}},{"country":"kg","city":"Baybini","coordinates":{"lat":"40.8333333","long":"73.9666667"}},{"country":"kg","city":"Bayetovo","coordinates":{"lat":"41.2166667","long":"74.9"}},{"country":"kg","city":"Baygonchak","coordinates":{"lat":"41.3666667","long":"74.9166667"}},{"country":"kg","city":"Baygonchok","coordinates":{"lat":"41.3666667","long":"74.9166667"}},{"country":"kg","city":"Baymam-Bet","coordinates":{"lat":"40.8833333","long":"73.6666667"}},{"country":"kg","city":"Bayman-Bet","coordinates":{"lat":"40.8833333","long":"73.6666667"}},{"country":"kg","city":"Baytant","coordinates":{"lat":"40.3","long":"72.1333333"}},{"country":"kg","city":"Baytyk","coordinates":{"lat":"42.7333333","long":"74.5"}},{"country":"kg","city":"Bazar","coordinates":{"lat":"41.0333333","long":"72.75"}},{"country":"kg","city":"Bazar-Kurgan","coordinates":{"lat":"41.0333333","long":"72.75"}},{"country":"kg","city":"Bedachi","coordinates":{"lat":"42.8166667","long":"74.0666667"}},{"country":"kg","city":"Begovat","coordinates":{"lat":"40.8666667","long":"72.9666667"}},{"country":"kg","city":"Bek-Dzhar","coordinates":{"lat":"40.3666667","long":"73.0666667"}},{"country":"kg","city":"Bel'aldy","coordinates":{"lat":"41.9166667","long":"73.2333333"}},{"country":"kg","city":"Bel'","coordinates":{"lat":"40.2833333","long":"72.45"}},{"country":"kg","city":"Bel'- Kyshtak","coordinates":{"lat":"40.5602778","long":"72.6811111"}},{"country":"kg","city":"Belogorka","coordinates":{"lat":"42.6833333","long":"74.2333333"}},{"country":"kg","city":"Belogorskoye","coordinates":{"lat":"42.6833333","long":"74.2333333"}},{"country":"kg","city":"Belovodskoye","coordinates":{"lat":"42.8333333","long":"74.1"}},{"country":"kg","city":"Bel'uryuk","coordinates":{"lat":"40.2833333","long":"72.45"}},{"country":"kg","city":"Belyy Piket","coordinates":{"lat":"42.8166667","long":"75.6333333"}},{"country":"kg","city":"Bereynok","coordinates":{"lat":"41.9666667","long":"72.2833333"}},{"country":"kg","city":"Bëryu","coordinates":{"lat":"40.3391667","long":"72.9705556"}},{"country":"kg","city":"Besharal","coordinates":{"lat":"41.7","long":"70.5166667"}},{"country":"kg","city":"Besh-Aryk","coordinates":{"lat":"41.4666667","long":"72.1333333"}},{"country":"kg","city":"Beshbadam","coordinates":{"lat":"41.15","long":"72.8666667"}},{"country":"kg","city":"Beshbadom","coordinates":{"lat":"41.2166667","long":"72.9333333"}},{"country":"kg","city":"Beshburkhan","coordinates":{"lat":"40.1833333","long":"72.2666667"}},{"country":"kg","city":"Besheke","coordinates":{"lat":"42.6166667","long":"71.65"}},{"country":"kg","city":"Beshkaram","coordinates":{"lat":"40.7166667","long":"72.35"}},{"country":"kg","city":"Beshkent","coordinates":{"lat":"40.0308333","long":"69.8186111"}},{"country":"kg","city":"Beshtash","coordinates":{"lat":"41.9833333","long":"72.4833333"}},{"country":"kg","city":"Birikken","coordinates":{"lat":"42.7166667","long":"75.1666667"}},{"country":"kg","city":"Birinchi May","coordinates":{"lat":"41.1761111","long":"76.0538889"}},{"country":"kg","city":"Birlik","coordinates":{"lat":"41.2075","long":"75.9413889"}},{"country":"kg","city":"Bish-Agach","coordinates":{"lat":"41.05","long":"72.6166667"}},{"country":"kg","city":"Bishkek","coordinates":{"lat":"42.8730556","long":"74.6002778"}},{"country":"kg","city":"Blagoveshchenka","coordinates":{"lat":"40.9833333","long":"72.95"}},{"country":"kg","city":"Blagoveshchenskoye","coordinates":{"lat":"40.9833333","long":"72.95"}},{"country":"kg","city":"Bodzhoy","coordinates":{"lat":"40.0166667","long":"71.2166667"}},{"country":"kg","city":"Bogatörovka","coordinates":{"lat":"42.5333333","long":"78.1333333"}},{"country":"kg","city":"Bogatyrevka","coordinates":{"lat":"42.5333333","long":"78.1333333"}},{"country":"kg","city":"Bogatyrovka","coordinates":{"lat":"42.5333333","long":"78.1333333"}},{"country":"kg","city":"Bokombayevskoye","coordinates":{"lat":"42.1152778","long":"76.9933333"}},{"country":"kg","city":"Bökönbaev","coordinates":{"lat":"42.1152778","long":"76.9933333"}},{"country":"kg","city":"Bokonbayevo","coordinates":{"lat":"42.1152778","long":"76.9933333"}},{"country":"kg","city":"Bokonbayevskoye","coordinates":{"lat":"42.1152778","long":"76.9933333"}},{"country":"kg","city":"Bol'shevik","coordinates":{"lat":"42.1769444","long":"75.7727778"}},{"country":"kg","city":"Bol'shevik","coordinates":{"lat":"42.1194444","long":"76.8919444"}},{"country":"kg","city":"Bordaba","coordinates":{"lat":"39.5166667","long":"73.2666667"}},{"country":"kg","city":"Bor-Doba","coordinates":{"lat":"39.5166667","long":"73.2666667"}},{"country":"kg","city":"Bordunskiy","coordinates":{"lat":"42.65","long":"75.6166667"}},{"country":"kg","city":"Boroldoy","coordinates":{"lat":"42.79","long":"75.8580556"}},{"country":"kg","city":"Börü","coordinates":{"lat":"40.3391667","long":"72.9705556"}},{"country":"kg","city":"Bos-Beshik","coordinates":{"lat":"42.4333333","long":"77.9472222"}},{"country":"kg","city":"Boskorgon","coordinates":{"lat":"40.3333333","long":"73.4"}},{"country":"kg","city":"Bosteri","coordinates":{"lat":"42.6530556","long":"77.185"}},{"country":"kg","city":"Bosterinovka","coordinates":{"lat":"42.6530556","long":"77.185"}},{"country":"kg","city":"Bostrorechenskoye","coordinates":{"lat":"42.7852778","long":"75.6911111"}},{"country":"kg","city":"Boz-Beshik","coordinates":{"lat":"42.4333333","long":"77.9472222"}},{"country":"kg","city":"Bozterinovka","coordinates":{"lat":"42.6530556","long":"77.185"}},{"country":"kg","city":"Budënnyy","coordinates":{"lat":"42.5","long":"72.5833333"}},{"country":"kg","city":"Budyonnöy","coordinates":{"lat":"42.5","long":"72.5833333"}},{"country":"kg","city":"Bulakbashi","coordinates":{"lat":"39.8833333","long":"70.75"}},{"country":"kg","city":"Bulak","coordinates":{"lat":"40.6666667","long":"73.6"}},{"country":"kg","city":"Bulat","coordinates":{"lat":"40.6666667","long":"73.6"}},{"country":"kg","city":"Buma","coordinates":{"lat":"41.6166667","long":"71.8"}},{"country":"kg","city":"Bura-chatö","coordinates":{"lat":"40.3666667","long":"74.2"}},{"country":"kg","city":"Bura-Chaty","coordinates":{"lat":"40.3666667","long":"74.2"}},{"country":"kg","city":"Burana","coordinates":{"lat":"42.7333333","long":"75.3333333"}},{"country":"kg","city":"Burbash","coordinates":{"lat":"40.2666667","long":"72.3666667"}},{"country":"kg","city":"Burdalyk","coordinates":{"lat":"40.3","long":"73.55"}},{"country":"kg","city":"Burgandy","coordinates":{"lat":"41.25","long":"72.4"}},{"country":"kg","city":"Burlykiya","coordinates":{"lat":"41.9333333","long":"73.3666667"}},{"country":"kg","city":"Burlyu-Bash","coordinates":{"lat":"42.5333333","long":"78.3333333"}},{"country":"kg","city":"Burulday","coordinates":{"lat":"42.79","long":"75.8580556"}},{"country":"kg","city":"Buzhum","coordinates":{"lat":"40.0166667","long":"70.8333333"}},{"country":"kg","city":"Bystrorechenskoye","coordinates":{"lat":"42.7852778","long":"75.6911111"}},{"country":"kg","city":"Bystrovka","coordinates":{"lat":"42.7852778","long":"75.6911111"}},{"country":"kg","city":"Byul'kul'dek","coordinates":{"lat":"42.45","long":"72.2666667"}},{"country":"kg","city":"Camp Snerif","coordinates":{"lat":"40.55","long":"74.4166667"}},{"country":"kg","city":"Chaek","coordinates":{"lat":"41.9338889","long":"74.5183333"}},{"country":"kg","city":"Chagym","coordinates":{"lat":"41.0666667","long":"72.5833333"}},{"country":"kg","city":"Chagyr","coordinates":{"lat":"39.8666667","long":"73.2833333"}},{"country":"kg","city":"Chakan","coordinates":{"lat":"40.9833333","long":"72.75"}},{"country":"kg","city":"Chak","coordinates":{"lat":"39.5666667","long":"72.1166667"}},{"country":"kg","city":"Chakir","coordinates":{"lat":"40.2","long":"74.3833333"}},{"country":"kg","city":"Chalakazaki","coordinates":{"lat":"42.8333333","long":"74.5"}},{"country":"kg","city":"Chaldavar","coordinates":{"lat":"42.8333333","long":"73.5333333"}},{"country":"kg","city":"Chaldavar","coordinates":{"lat":"41.7666667","long":"72.0333333"}},{"country":"kg","city":"Chaldovar","coordinates":{"lat":"42.8333333","long":"73.5333333"}},{"country":"kg","city":"Chaldövar","coordinates":{"lat":"41.7666667","long":"72.0333333"}},{"country":"kg","city":"Chaldyrar","coordinates":{"lat":"41.7666667","long":"72.0333333"}},{"country":"kg","city":"Chaldyvar","coordinates":{"lat":"42.8333333","long":"73.5333333"}},{"country":"kg","city":"Chaldyvar","coordinates":{"lat":"41.7666667","long":"72.0333333"}},{"country":"kg","city":"Chalkaydy","coordinates":{"lat":"40.7333333","long":"73.65"}},{"country":"kg","city":"Chalkayudö","coordinates":{"lat":"40.7333333","long":"73.65"}},{"country":"kg","city":"Chalkayudy","coordinates":{"lat":"40.7333333","long":"73.65"}},{"country":"kg","city":"Chalkoydy","coordinates":{"lat":"40.7333333","long":"73.65"}},{"country":"kg","city":"Chalkuyruk","coordinates":{"lat":"39.9833333","long":"73.0166667"}},{"country":"kg","city":"Chalpan-Ata","coordinates":{"lat":"42.6563889","long":"77.0822222"}},{"country":"kg","city":"Chamyndy","coordinates":{"lat":"41.6166667","long":"74.3333333"}},{"country":"kg","city":"Chanach","coordinates":{"lat":"41.8666667","long":"71.2333333"}},{"country":"kg","city":"Changörtash","coordinates":{"lat":"40.8666667","long":"72.8333333"}},{"country":"kg","city":"Changyr-Tash","coordinates":{"lat":"40.8666667","long":"72.8333333"}},{"country":"kg","city":"Chapkul'","coordinates":{"lat":"40.9833333","long":"72.0833333"}},{"country":"kg","city":"Charbak","coordinates":{"lat":"41.25","long":"72.9833333"}},{"country":"kg","city":"Charku","coordinates":{"lat":"39.9666667","long":"70.55"}},{"country":"kg","city":"Charvak","coordinates":{"lat":"41.25","long":"72.9833333"}},{"country":"kg","city":"Chashma","coordinates":{"lat":"39.9666667","long":"71.2666667"}},{"country":"kg","city":"Chatbazar","coordinates":{"lat":"42.5","long":"72.5833333"}},{"country":"kg","city":"Chat","coordinates":{"lat":"41.5333333","long":"72.1666667"}},{"country":"kg","city":"Chatkël'","coordinates":{"lat":"42.9333333","long":"74.35"}},{"country":"kg","city":"Chatkul'","coordinates":{"lat":"42.9333333","long":"74.35"}},{"country":"kg","city":"Chatyndy","coordinates":{"lat":"39.7333333","long":"72.2"}},{"country":"kg","city":"Chatyr-Tash","coordinates":{"lat":"40.8975","long":"76.4327778"}},{"country":"kg","city":"Chaugent","coordinates":{"lat":"42.6333333","long":"71.5"}},{"country":"kg","city":"Chauvay","coordinates":{"lat":"40.1333333","long":"72.1333333"}},{"country":"kg","city":"Chayek","coordinates":{"lat":"41.9338889","long":"74.5183333"}},{"country":"kg","city":"Chekabad","coordinates":{"lat":"40.5","long":"72.45"}},{"country":"kg","city":"Chek","coordinates":{"lat":"40.9833333","long":"72.6833333"}},{"country":"kg","city":"Chelek","coordinates":{"lat":"41.1833333","long":"74.55"}},{"country":"kg","city":"Cheleke","coordinates":{"lat":"42.4333333","long":"72.8"}},{"country":"kg","city":"Cheleken-Koin","coordinates":{"lat":"41.1833333","long":"74.55"}},{"country":"kg","city":"Chelek-Koin","coordinates":{"lat":"41.1833333","long":"74.55"}},{"country":"kg","city":"Chel'pek","coordinates":{"lat":"42.45","long":"78.35"}},{"country":"kg","city":"Chemandy","coordinates":{"lat":"41.6166667","long":"74.3333333"}},{"country":"kg","city":"Chemyndy","coordinates":{"lat":"41.6166667","long":"74.3333333"}},{"country":"kg","city":"Cherik","coordinates":{"lat":"41.6166667","long":"71.7666667"}},{"country":"kg","city":"Cherpöktö","coordinates":{"lat":"42.5155556","long":"76.5819444"}},{"country":"kg","city":"Cherpykty","coordinates":{"lat":"42.5155556","long":"76.5819444"}},{"country":"kg","city":"Chetbulak","coordinates":{"lat":"41.2833333","long":"73.9833333"}},{"country":"kg","city":"Chetkoysu","coordinates":{"lat":"42.5833333","long":"76.8666667"}},{"country":"kg","city":"Chet-Malay","coordinates":{"lat":"41.05","long":"73.2"}},{"country":"kg","city":"Chichkan","coordinates":{"lat":"42.3","long":"77.7666667"}},{"country":"kg","city":"Chigir","coordinates":{"lat":"41.6166667","long":"72.25"}},{"country":"kg","city":"Chikgent","coordinates":{"lat":"42.6333333","long":"71.5"}},{"country":"kg","city":"Chilandy","coordinates":{"lat":"39.9166667","long":"72.1833333"}},{"country":"kg","city":"Chil'gazi","coordinates":{"lat":"40.1666667","long":"70.6166667"}},{"country":"kg","city":"Chil'gazy","coordinates":{"lat":"40.1666667","long":"70.6166667"}},{"country":"kg","city":"Chimkorgon","coordinates":{"lat":"42.8333333","long":"75.45"}},{"country":"kg","city":"Chim-Kurgan","coordinates":{"lat":"42.8333333","long":"75.45"}},{"country":"kg","city":"Chirak","coordinates":{"lat":"42.45","long":"78.1666667"}},{"country":"kg","city":"Chirpykty","coordinates":{"lat":"42.5155556","long":"76.5819444"}},{"country":"kg","city":"Chok-Tal","coordinates":{"lat":"42.5844444","long":"76.7411111"}},{"country":"kg","city":"Choku-Biy-Rabat","coordinates":{"lat":"41.1666667","long":"73.65"}},{"country":"kg","city":"Cholok-Kain","coordinates":{"lat":"41.1833333","long":"74.55"}},{"country":"kg","city":"Cholpan","coordinates":{"lat":"42.6333333","long":"78.4833333"}},{"country":"kg","city":"Cholpon-Ata","coordinates":{"lat":"42.6563889","long":"77.0822222"}},{"country":"kg","city":"Cholpon","coordinates":{"lat":"42.195","long":"75.4755556"}},{"country":"kg","city":"Cholpon","coordinates":{"lat":"42.6333333","long":"78.4833333"}},{"country":"kg","city":"Chomkamysh","coordinates":{"lat":"41.5666667","long":"72.1833333"}},{"country":"kg","city":"Chon-Ak-Dzhol","coordinates":{"lat":"41.6","long":"72.25"}},{"country":"kg","city":"Chon-Aryk","coordinates":{"lat":"42.8155556","long":"74.5855556"}},{"country":"kg","city":"Chonbleuli","coordinates":{"lat":"40.1666667","long":"73.65"}},{"country":"kg","city":"Chonborolbog","coordinates":{"lat":"41.5","long":"75.2333333"}},{"country":"kg","city":"Chonborolbos","coordinates":{"lat":"41.5","long":"75.2333333"}},{"country":"kg","city":"Chon-Bulak","coordinates":{"lat":"42.1666667","long":"75.7166667"}},{"country":"kg","city":"Chonbulolu","coordinates":{"lat":"40.1666667","long":"73.65"}},{"country":"kg","city":"Chon-Dzhargylchak","coordinates":{"lat":"42.1888889","long":"77.6505556"}},{"country":"kg","city":"Chong-Aryk","coordinates":{"lat":"42.8155556","long":"74.5855556"}},{"country":"kg","city":"Chongaryk","coordinates":{"lat":"41.8833333","long":"72.7333333"}},{"country":"kg","city":"Chongbulak","coordinates":{"lat":"42.1666667","long":"75.7166667"}},{"country":"kg","city":"Chong-Dzhargylchak","coordinates":{"lat":"42.1888889","long":"77.6505556"}},{"country":"kg","city":"Chongkarakël'","coordinates":{"lat":"39.9333333","long":"73.4"}},{"country":"kg","city":"Chong-Kyzylsu","coordinates":{"lat":"42.3","long":"78.0666667"}},{"country":"kg","city":"Chongolot","coordinates":{"lat":"40.6666667","long":"73.6333333"}},{"country":"kg","city":"Chong-Örüktü","coordinates":{"lat":"42.7391667","long":"77.8430556"}},{"country":"kg","city":"Chongsaray","coordinates":{"lat":"42.61","long":"76.9475"}},{"country":"kg","city":"Chong-Sary-Oy","coordinates":{"lat":"42.61","long":"76.9475"}},{"country":"kg","city":"Chongtebe","coordinates":{"lat":"41.7333333","long":"74.1333333"}},{"country":"kg","city":"Chong-Uryukty","coordinates":{"lat":"42.7391667","long":"77.8430556"}},{"country":"kg","city":"Chonkadyraly","coordinates":{"lat":"41.5","long":"75.3"}},{"country":"kg","city":"Chonkyzylsu","coordinates":{"lat":"42.3","long":"78.0666667"}},{"country":"kg","city":"Chon-Oryuktyu","coordinates":{"lat":"42.7391667","long":"77.8430556"}},{"country":"kg","city":"Chon-Saroy","coordinates":{"lat":"42.61","long":"76.9475"}},{"country":"kg","city":"Chon-Sary-Oy","coordinates":{"lat":"42.61","long":"76.9475"}},{"country":"kg","city":"Chon-Uryukty","coordinates":{"lat":"42.7391667","long":"77.8430556"}},{"country":"kg","city":"Chorku","coordinates":{"lat":"39.9666667","long":"70.55"}},{"country":"kg","city":"Chot-Nura","coordinates":{"lat":"41.6","long":"76.3166667"}},{"country":"kg","city":"Chudok","coordinates":{"lat":"42.6166667","long":"78.5333333"}},{"country":"kg","city":"Chuka-Tepe","coordinates":{"lat":"40.9","long":"73.0"}},{"country":"kg","city":"Chukurchak","coordinates":{"lat":"41.8","long":"71.1333333"}},{"country":"kg","city":"Chukur","coordinates":{"lat":"40.25","long":"72.7"}},{"country":"kg","city":"Churbek","coordinates":{"lat":"39.9833333","long":"69.9"}},{"country":"kg","city":"Chuy","coordinates":{"lat":"42.8186111","long":"75.2808333"}},{"country":"kg","city":"Chychkan","coordinates":{"lat":"42.3","long":"77.7666667"}},{"country":"kg","city":"Chyrpykty","coordinates":{"lat":"42.5155556","long":"76.5819444"}},{"country":"kg","city":"Dachnoye","coordinates":{"lat":"42.9397222","long":"74.7033333"}},{"country":"kg","city":"Danalysh","coordinates":{"lat":"42.2597222","long":"75.235"}},{"country":"kg","city":"Daraut-Korgan","coordinates":{"lat":"39.55","long":"72.1833333"}},{"country":"kg","city":"Daraut-Korgon","coordinates":{"lat":"39.55","long":"72.1833333"}},{"country":"kg","city":"Daraut-Kurgan","coordinates":{"lat":"39.55","long":"72.1833333"}},{"country":"kg","city":"Darkan","coordinates":{"lat":"42.3113889","long":"77.8847222"}},{"country":"kg","city":"Darkhan","coordinates":{"lat":"42.3113889","long":"77.8847222"}},{"country":"kg","city":"Daroot-Korgan","coordinates":{"lat":"39.55","long":"72.1833333"}},{"country":"kg","city":"Daroot-Korgon","coordinates":{"lat":"39.55","long":"72.1833333"}},{"country":"kg","city":"Dasgan","coordinates":{"lat":"39.8666667","long":"69.3333333"}},{"country":"kg","city":"Dazgan","coordinates":{"lat":"39.8666667","long":"69.3333333"}},{"country":"kg","city":"Dazgon","coordinates":{"lat":"39.8666667","long":"69.3333333"}},{"country":"kg","city":"Dëdëmël'","coordinates":{"lat":"41.45","long":"74.4"}},{"country":"kg","city":"Dën-Alysh","coordinates":{"lat":"42.2597222","long":"75.235"}},{"country":"kg","city":"Dën-Aryk","coordinates":{"lat":"42.7472222","long":"75.2188889"}},{"country":"kg","city":"Dëng-Alysh","coordinates":{"lat":"42.2597222","long":"75.235"}},{"country":"kg","city":"Dëngtala","coordinates":{"lat":"42.1252778","long":"76.5825"}},{"country":"kg","city":"Denisovka","coordinates":{"lat":"42.9666667","long":"74.8833333"}},{"country":"kg","city":"Dën-Talaa","coordinates":{"lat":"42.1252778","long":"76.5825"}},{"country":"kg","city":"Dinau","coordinates":{"lat":"39.6833333","long":"69.35"}},{"country":"kg","city":"Dmitriyevka","coordinates":{"lat":"41.1333333","long":"73.3333333"}},{"country":"kg","city":"Dmitriyevka","coordinates":{"lat":"42.5222222","long":"72.2419444"}},{"country":"kg","city":"Dmitriyevskoye","coordinates":{"lat":"41.1333333","long":"73.3333333"}},{"country":"kg","city":"Dmitriyevskoye","coordinates":{"lat":"42.5222222","long":"72.2419444"}},{"country":"kg","city":"Dodan","coordinates":{"lat":"40.3333333","long":"72.3"}},{"country":"kg","city":"Dolinka","coordinates":{"lat":"42.6322222","long":"77.0194444"}},{"country":"kg","city":"Doloko","coordinates":{"lat":"42.7","long":"78.45"}},{"country":"kg","city":"Dolona","coordinates":{"lat":"42.5","long":"72.3333333"}},{"country":"kg","city":"Dolon","coordinates":{"lat":"42.7","long":"78.45"}},{"country":"kg","city":"Dolono","coordinates":{"lat":"42.7","long":"78.45"}},{"country":"kg","city":"Donalysh","coordinates":{"lat":"42.2597222","long":"75.235"}},{"country":"kg","city":"Don-Aryk","coordinates":{"lat":"42.7472222","long":"75.2188889"}},{"country":"kg","city":"Döng-Alysh","coordinates":{"lat":"42.2597222","long":"75.235"}},{"country":"kg","city":"Döng-Aryk","coordinates":{"lat":"42.7472222","long":"75.2188889"}},{"country":"kg","city":"Döng-Talaa","coordinates":{"lat":"42.1252778","long":"76.5825"}},{"country":"kg","city":"Donguztau","coordinates":{"lat":"40.8333333","long":"73.5166667"}},{"country":"kg","city":"Donguztou","coordinates":{"lat":"40.8333333","long":"73.5166667"}},{"country":"kg","city":"Don-Tala","coordinates":{"lat":"42.1252778","long":"76.5825"}},{"country":"kg","city":"Dostuk","coordinates":{"lat":"41.3697222","long":"75.6366667"}},{"country":"kg","city":"Druzhba","coordinates":{"lat":"42.9316667","long":"74.7116667"}},{"country":"kg","city":"Dungurme","coordinates":{"lat":"41.7","long":"74.3"}},{"country":"kg","city":"Dupkur","coordinates":{"lat":"41.4666667","long":"73.95"}},{"country":"kg","city":"Durbel'jin","coordinates":{"lat":"41.2166667","long":"74.9"}},{"country":"kg","city":"Dushman","coordinates":{"lat":"40.9833333","long":"72.6833333"}},{"country":"kg","city":"Dyubeli","coordinates":{"lat":"41.45","long":"76.25"}},{"country":"kg","city":"Dyubell","coordinates":{"lat":"41.45","long":"76.25"}},{"country":"kg","city":"Dyudyumel'","coordinates":{"lat":"41.4666667","long":"74.2833333"}},{"country":"kg","city":"Dyurbel'dzhin","coordinates":{"lat":"41.2166667","long":"74.9"}},{"country":"kg","city":"Dyurbel'jin","coordinates":{"lat":"41.2166667","long":"74.9"}},{"country":"kg","city":"Dyuyshaly","coordinates":{"lat":"40.3166667","long":"73.6"}},{"country":"kg","city":"Dyykan-Kyshtak","coordinates":{"lat":"40.5141667","long":"72.7872222"}},{"country":"kg","city":"Dzhak","coordinates":{"lat":"41.8833333","long":"73.8166667"}},{"country":"kg","city":"Dzhalabek","coordinates":{"lat":"40.7333333","long":"72.3166667"}},{"country":"kg","city":"Dzhalal-Abad","coordinates":{"lat":"40.9333333","long":"73.0"}},{"country":"kg","city":"Dzhalgyzterek","coordinates":{"lat":"41.4666667","long":"75.7833333"}},{"country":"kg","city":"Dzhalimbek","coordinates":{"lat":"40.7333333","long":"72.3166667"}},{"country":"kg","city":"Dzhalpak-Sary","coordinates":{"lat":"41.15","long":"73.0833333"}},{"country":"kg","city":"Dzhaman-Kyrchin","coordinates":{"lat":"39.6","long":"72.5333333"}},{"country":"kg","city":"Dzham-Bulak","coordinates":{"lat":"41.4361111","long":"75.7336111"}},{"country":"kg","city":"Dzhanalysh","coordinates":{"lat":"42.2597222","long":"75.235"}},{"country":"kg","city":"Dzhan-Bulak","coordinates":{"lat":"41.4361111","long":"75.7336111"}},{"country":"kg","city":"Dzhanbulak","coordinates":{"lat":"42.45","long":"78.2333333"}},{"country":"kg","city":"Dzhanbulok","coordinates":{"lat":"41.4361111","long":"75.7336111"}},{"country":"kg","city":"Dzhangay-Dzhol","coordinates":{"lat":"41.6","long":"72.25"}},{"country":"kg","city":"Dzhangi-Aryk","coordinates":{"lat":"41.9833333","long":"74.9666667"}},{"country":"kg","city":"Dzhangi-Dzhol","coordinates":{"lat":"41.6","long":"72.25"}},{"country":"kg","city":"Dzhangyaryk","coordinates":{"lat":"41.9833333","long":"74.9666667"}},{"country":"kg","city":"Dzhangyaryk","coordinates":{"lat":"40.6666667","long":"73.1166667"}},{"country":"kg","city":"Dzhangybulak","coordinates":{"lat":"41.4361111","long":"75.7336111"}},{"country":"kg","city":"Dzhangyshaar","coordinates":{"lat":"39.4833333","long":"72.1833333"}},{"country":"kg","city":"Dzhangytalap","coordinates":{"lat":"41.4505556","long":"75.0141667"}},{"country":"kg","city":"Dzhangyz-Uryuk","coordinates":{"lat":"42.3166667","long":"77.95"}},{"country":"kg","city":"Dzhany-Alysh","coordinates":{"lat":"42.8075","long":"75.6075"}},{"country":"kg","city":"Dzhany-Bulak","coordinates":{"lat":"41.4361111","long":"75.7336111"}},{"country":"kg","city":"Dzhany-Dzher","coordinates":{"lat":"40.025","long":"69.9430556"}},{"country":"kg","city":"Dzhany-Kyshtak","coordinates":{"lat":"40.5369444","long":"72.7766667"}},{"country":"kg","city":"Dzhany-Shaar","coordinates":{"lat":"39.4833333","long":"72.1833333"}},{"country":"kg","city":"Dzhany-Talap","coordinates":{"lat":"41.4505556","long":"75.0141667"}},{"country":"kg","city":"Dzhapalak","coordinates":{"lat":"40.4927778","long":"72.7641667"}},{"country":"kg","city":"Dzharbashi","coordinates":{"lat":"39.5166667","long":"72.1166667"}},{"country":"kg","city":"Dzhar","coordinates":{"lat":"39.9666667","long":"69.3666667"}},{"country":"kg","city":"Dzhargalan","coordinates":{"lat":"42.6","long":"79.0333333"}},{"country":"kg","city":"Dzhargychak","coordinates":{"lat":"41.9833333","long":"72.4833333"}},{"country":"kg","city":"Dzharkapchigay","coordinates":{"lat":"41.6166667","long":"71.8"}},{"country":"kg","city":"Dzhar-Kopchugay","coordinates":{"lat":"41.6166667","long":"71.8"}},{"country":"kg","city":"Dzhas","coordinates":{"lat":"40.2333333","long":"72.4333333"}},{"country":"kg","city":"Dzhele-Dyube","coordinates":{"lat":"42.4666667","long":"78.1833333"}},{"country":"kg","city":"Dzhem-Bulak","coordinates":{"lat":"41.4361111","long":"75.7336111"}},{"country":"kg","city":"Dzhem-Bulak","coordinates":{"lat":"42.45","long":"78.2333333"}},{"country":"kg","city":"Dzhenish","coordinates":{"lat":"42.275","long":"77.785"}},{"country":"kg","city":"Dzhenychek","coordinates":{"lat":"42.8333333","long":"75.3666667"}},{"country":"kg","city":"Dzhergalan","coordinates":{"lat":"42.6","long":"79.0333333"}},{"country":"kg","city":"Dzhergel'chak","coordinates":{"lat":"42.2063889","long":"77.6927778"}},{"country":"kg","city":"Dzhergel'char","coordinates":{"lat":"42.2063889","long":"77.6927778"}},{"country":"kg","city":"Dzherges","coordinates":{"lat":"42.55","long":"78.6666667"}},{"country":"kg","city":"Dzhergetal","coordinates":{"lat":"41.1","long":"73.2166667"}},{"country":"kg","city":"Dzhergetal","coordinates":{"lat":"41.15","long":"74.3666667"}},{"country":"kg","city":"Dzhergety","coordinates":{"lat":"41.5702778","long":"75.7869444"}},{"country":"kg","city":"Dzher-Kazar","coordinates":{"lat":"42.9369444","long":"74.7288889"}},{"country":"kg","city":"Dzhetyoguz","coordinates":{"lat":"42.3166667","long":"78.2333333"}},{"country":"kg","city":"Dzheyek","coordinates":{"lat":"41.8833333","long":"73.8166667"}},{"country":"kg","city":"Dzhida","coordinates":{"lat":"40.85","long":"72.9166667"}},{"country":"kg","city":"Dzhida","coordinates":{"lat":"40.3","long":"72.4333333"}},{"country":"kg","city":"Dzhigda","coordinates":{"lat":"40.3","long":"72.4333333"}},{"country":"kg","city":"Dzhigdy","coordinates":{"lat":"40.45","long":"73.2166667"}},{"country":"kg","city":"Dzhilanaryk","coordinates":{"lat":"41.4333333","long":"75.2166667"}},{"country":"kg","city":"Dzhilandy","coordinates":{"lat":"40.8166667","long":"73.3"}},{"country":"kg","city":"Dzhilanny","coordinates":{"lat":"40.8166667","long":"73.3"}},{"country":"kg","city":"Dzhilgin-Say","coordinates":{"lat":"40.3833333","long":"72.2"}},{"country":"kg","city":"Dzhilusu","coordinates":{"lat":"42.2166667","long":"78.15"}},{"country":"kg","city":"Dzhilyandy","coordinates":{"lat":"40.8166667","long":"73.3"}},{"country":"kg","city":"Dzhirgala","coordinates":{"lat":"42.6","long":"79.0333333"}},{"country":"kg","city":"Dzhirgalan","coordinates":{"lat":"42.6","long":"79.0333333"}},{"country":"kg","city":"Dzhirgatal","coordinates":{"lat":"41.1","long":"73.2166667"}},{"country":"kg","city":"Dzhirgital","coordinates":{"lat":"41.1","long":"73.2166667"}},{"country":"kg","city":"Dzhirgital","coordinates":{"lat":"39.9833333","long":"73.4833333"}},{"country":"kg","city":"Dzhol-Golot","coordinates":{"lat":"42.45","long":"78.4333333"}},{"country":"kg","city":"Dzholkara","coordinates":{"lat":"41.8666667","long":"74.7166667"}},{"country":"kg","city":"Dzhonkungey","coordinates":{"lat":"41.1833333","long":"73.35"}},{"country":"kg","city":"Dzhusaly","coordinates":{"lat":"40.3166667","long":"73.6"}},{"country":"kg","city":"Ebenfel'd","coordinates":{"lat":"42.8","long":"75.0166667"}},{"country":"kg","city":"Egilik","coordinates":{"lat":"42.75","long":"77.75"}},{"country":"kg","city":"Ekachat","coordinates":{"lat":"41.6","long":"75.0166667"}},{"country":"kg","city":"Ekichat","coordinates":{"lat":"41.6","long":"75.0166667"}},{"country":"kg","city":"Elektor","coordinates":{"lat":"42.1666667","long":"75.9166667"}},{"country":"kg","city":"Emgekchil","coordinates":{"lat":"41.5552778","long":"75.9716667"}},{"country":"kg","city":"Emgek-Talaa","coordinates":{"lat":"41.39","long":"75.6047222"}},{"country":"kg","city":"Emgektala","coordinates":{"lat":"41.39","long":"75.6047222"}},{"country":"kg","city":"Emir-Kul'","coordinates":{"lat":"40.8833333","long":"73.7"}},{"country":"kg","city":"Engil'chek","coordinates":{"lat":"42.0166667","long":"79.0833333"}},{"country":"kg","city":"Enil'chek","coordinates":{"lat":"42.0166667","long":"79.0833333"}},{"country":"kg","city":"Entek-chil'","coordinates":{"lat":"41.5552778","long":"75.9716667"}},{"country":"kg","city":"Epkin","coordinates":{"lat":"42.1666667","long":"75.4166667"}},{"country":"kg","city":"Erke-Kashka","coordinates":{"lat":"40.4833333","long":"72.4833333"}},{"country":"kg","city":"Erkintoo","coordinates":{"lat":"40.45","long":"73.3"}},{"country":"kg","city":"Eshsay","coordinates":{"lat":"41.6833333","long":"72.5"}},{"country":"kg","city":"Eski-Nookat","coordinates":{"lat":"40.2666667","long":"72.6"}},{"country":"kg","city":"Fol'baumka","coordinates":{"lat":"42.75","long":"78.1166667"}},{"country":"kg","city":"Frunze","coordinates":{"lat":"42.8730556","long":"74.6002778"}},{"country":"kg","city":"Frunze","coordinates":{"lat":"40.1166667","long":"71.7333333"}},{"country":"kg","city":"Frunze","coordinates":{"lat":"42.7666667","long":"78.1833333"}},{"country":"kg","city":"Frunzenskoye","coordinates":{"lat":"40.1333333","long":"71.7166667"}},{"country":"kg","city":"Gaday-Aryk","coordinates":{"lat":"41.0166667","long":"73.0666667"}},{"country":"kg","city":"Galyam-alik","coordinates":{"lat":"40.85","long":"73.6333333"}},{"country":"kg","city":"Gava","coordinates":{"lat":"41.2666667","long":"72.8333333"}},{"country":"kg","city":"Gavrilovka","coordinates":{"lat":"41.05","long":"73.05"}},{"country":"kg","city":"Gaz","coordinates":{"lat":"39.8666667","long":"71.05"}},{"country":"kg","city":"Gerait","coordinates":{"lat":"40.3","long":"72.2333333"}},{"country":"kg","city":"Gerayt","coordinates":{"lat":"40.3","long":"72.2333333"}},{"country":"kg","city":"Gorno-Serafimovka","coordinates":{"lat":"42.5833333","long":"74.8333333"}},{"country":"kg","city":"Grigor'evka","coordinates":{"lat":"42.7227778","long":"77.4711111"}},{"country":"kg","city":"Grigor'yevka","coordinates":{"lat":"42.7227778","long":"77.4711111"}},{"country":"kg","city":"Groznoye","coordinates":{"lat":"42.6","long":"71.2"}},{"country":"kg","city":"Gülbaar","coordinates":{"lat":"40.4891667","long":"72.6586111"}},{"country":"kg","city":"Gul'cha","coordinates":{"lat":"40.3166667","long":"73.4333333"}},{"country":"kg","city":"Gul'ma","coordinates":{"lat":"41.0833333","long":"72.6666667"}},{"country":"kg","city":"Gultscha","coordinates":{"lat":"40.3166667","long":"73.4333333"}},{"country":"kg","city":"Guzar","coordinates":{"lat":"40.5666667","long":"73.1333333"}},{"country":"kg","city":"Gyul'bakhor","coordinates":{"lat":"40.4891667","long":"72.6586111"}},{"country":"kg","city":"Ichkebash","coordinates":{"lat":"41.6166667","long":"75.9"}},{"country":"kg","city":"Ichkedzherges","coordinates":{"lat":"42.5666667","long":"78.7"}},{"country":"kg","city":"Ichkesu","coordinates":{"lat":"41.3","long":"74.9166667"}},{"country":"kg","city":"Ichkesu","coordinates":{"lat":"42.7833333","long":"78.4166667"}},{"country":"kg","city":"Ikazak","coordinates":{"lat":"39.7333333","long":"73.7833333"}},{"country":"kg","city":"Ikazyak","coordinates":{"lat":"39.7333333","long":"73.7833333"}},{"country":"kg","city":"Ikizyak","coordinates":{"lat":"39.7333333","long":"73.7833333"}},{"country":"kg","city":"Il'chibay","coordinates":{"lat":"42.7166667","long":"78.55"}},{"country":"kg","city":"Imeni Budennova","coordinates":{"lat":"40.15","long":"73.45"}},{"country":"kg","city":"Imeni Chapayeva","coordinates":{"lat":"40.35","long":"72.6"}},{"country":"kg","city":"Imeni Chkalova","coordinates":{"lat":"41.7833333","long":"72.95"}},{"country":"kg","city":"Imeni Fëdorova","coordinates":{"lat":"40.2","long":"73.5333333"}},{"country":"kg","city":"Imeni Frunze","coordinates":{"lat":"41.65","long":"72.6666667"}},{"country":"kg","city":"Imeni Il'icha","coordinates":{"lat":"42.7666667","long":"75.9666667"}},{"country":"kg","city":"Imeni Kalinina","coordinates":{"lat":"41.0872222","long":"75.6772222"}},{"country":"kg","city":"Imeni Kalinina","coordinates":{"lat":"40.3333333","long":"74.4333333"}},{"country":"kg","city":"Imeni Karla Marksa","coordinates":{"lat":"42.7","long":"74.0333333"}},{"country":"kg","city":"Imeni Karla Marksa","coordinates":{"lat":"41.9333333","long":"72.6666667"}},{"country":"kg","city":"Imeni Karla Marksa","coordinates":{"lat":"42.7833333","long":"76.2"}},{"country":"kg","city":"Imeni Kirova","coordinates":{"lat":"41.3333333","long":"72.1666667"}},{"country":"kg","city":"Imeni Kirova","coordinates":{"lat":"42.5333333","long":"76.5833333"}},{"country":"kg","city":"Imeni Kuybysheva","coordinates":{"lat":"41.5105556","long":"75.8544444"}},{"country":"kg","city":"Imeni Mikoyana","coordinates":{"lat":"42.8261111","long":"73.8441667"}},{"country":"kg","city":"Imeni Molotova","coordinates":{"lat":"41.3166667","long":"73.8333333"}},{"country":"kg","city":"Imeni Molotova","coordinates":{"lat":"40.8833333","long":"73.5"}},{"country":"kg","city":"Imeni Pervogo Maya","coordinates":{"lat":"41.8333333","long":"73.0"}},{"country":"kg","city":"Imeni Vecheki","coordinates":{"lat":"42.7333333","long":"78.4166667"}},{"country":"kg","city":"Imeni Voroshilova","coordinates":{"lat":"42.0666667","long":"76.8666667"}},{"country":"kg","city":"Internatsional","coordinates":{"lat":"40.5541667","long":"72.8766667"}},{"country":"kg","city":"Iradan","coordinates":{"lat":"40.2666667","long":"72.1"}},{"country":"kg","city":"Irdyk","coordinates":{"lat":"42.45","long":"78.3"}},{"country":"kg","city":"Irisu","coordinates":{"lat":"41.0166667","long":"73.4"}},{"country":"kg","city":"Irisu","coordinates":{"lat":"40.4833333","long":"73.4166667"}},{"country":"kg","city":"Irke-Kashka","coordinates":{"lat":"40.4833333","long":"72.4833333"}},{"country":"kg","city":"Irkeshtam","coordinates":{"lat":"39.6833333","long":"73.9166667"}},{"country":"kg","city":"Irkishtam","coordinates":{"lat":"39.6833333","long":"73.9166667"}},{"country":"kg","city":"Isfana","coordinates":{"lat":"39.8333333","long":"69.5166667"}},{"country":"kg","city":"Isfina","coordinates":{"lat":"39.8333333","long":"69.5166667"}},{"country":"kg","city":"Ishma","coordinates":{"lat":"40.5833333","long":"73.0166667"}},{"country":"kg","city":"Ishtyk","coordinates":{"lat":"41.6016667","long":"78.2852778"}},{"country":"kg","city":"Iski-Naukat","coordinates":{"lat":"40.2666667","long":"72.6"}},{"country":"kg","city":"Issyk-Kul'","coordinates":{"lat":"42.4611111","long":"76.1802778"}},{"country":"kg","city":"Itagar","coordinates":{"lat":"41.6333333","long":"71.8666667"}},{"country":"kg","city":"Itsay","coordinates":{"lat":"41.6833333","long":"72.5"}},{"country":"kg","city":"Ivano-Alekseyevka","coordinates":{"lat":"42.5166667","long":"72.2333333"}},{"country":"kg","city":"Ivanovka","coordinates":{"lat":"42.8877778","long":"75.0838889"}},{"country":"kg","city":"Ivanovna","coordinates":{"lat":"42.8877778","long":"75.0838889"}},{"country":"kg","city":"Izym-Bay","coordinates":{"lat":"40.9","long":"73.7666667"}},{"country":"kg","city":"Jalal-Abad","coordinates":{"lat":"40.9333333","long":"73.0"}},{"country":"kg","city":"Jan-Bulak","coordinates":{"lat":"41.4361111","long":"75.7336111"}},{"country":"kg","city":"Jangy-Kyshtak","coordinates":{"lat":"40.5369444","long":"72.7766667"}},{"country":"kg","city":"Jangy-Talap","coordinates":{"lat":"41.4505556","long":"75.0141667"}},{"country":"kg","city":"Janö-bulak","coordinates":{"lat":"41.4361111","long":"75.7336111"}},{"country":"kg","city":"Jany-bulak","coordinates":{"lat":"41.4361111","long":"75.7336111"}},{"country":"kg","city":"Japalak","coordinates":{"lat":"40.4927778","long":"72.7641667"}},{"country":"kg","city":"Jar","coordinates":{"lat":"39.9666667","long":"69.3666667"}},{"country":"kg","city":"Jerges","coordinates":{"lat":"42.55","long":"78.6666667"}},{"country":"kg","city":"Jergetal","coordinates":{"lat":"41.5702778","long":"75.7869444"}},{"country":"kg","city":"Jergetö","coordinates":{"lat":"41.5702778","long":"75.7869444"}},{"country":"kg","city":"Jergety","coordinates":{"lat":"41.5702778","long":"75.7869444"}},{"country":"kg","city":"Jetö-Oguz","coordinates":{"lat":"42.4333333","long":"78.2"}},{"country":"kg","city":"Jida","coordinates":{"lat":"40.3","long":"72.4333333"}},{"country":"kg","city":"Jirgital","coordinates":{"lat":"41.1","long":"73.2166667"}},{"country":"kg","city":"Kadamdzhai","coordinates":{"lat":"40.1166667","long":"71.7333333"}},{"country":"kg","city":"Kadamdzhay","coordinates":{"lat":"40.1166667","long":"71.7333333"}},{"country":"kg","city":"Kadamjay","coordinates":{"lat":"40.1166667","long":"71.7333333"}},{"country":"kg","city":"Kadzhi-Say","coordinates":{"lat":"42.1391667","long":"77.1783333"}},{"country":"kg","city":"Kaganovich","coordinates":{"lat":"42.8666667","long":"74.3"}},{"country":"kg","city":"Kagoy","coordinates":{"lat":"41.4833333","long":"75.1166667"}},{"country":"kg","city":"Kainda","coordinates":{"lat":"42.8166667","long":"73.6833333"}},{"country":"kg","city":"Kaindy","coordinates":{"lat":"42.8166667","long":"73.6833333"}},{"country":"kg","city":"Kaindy","coordinates":{"lat":"41.7166667","long":"73.5833333"}},{"country":"kg","city":"Kaindy","coordinates":{"lat":"41.5","long":"74.45"}},{"country":"kg","city":"Kaindy","coordinates":{"lat":"42.7475","long":"76.1586111"}},{"country":"kg","city":"Kaindyn","coordinates":{"lat":"41.6166667","long":"75.1666667"}},{"country":"kg","city":"Kairagach","coordinates":{"lat":"40.05","long":"69.75"}},{"country":"kg","city":"Kairma","coordinates":{"lat":"41.9833333","long":"74.65"}},{"country":"kg","city":"Kaji-Say","coordinates":{"lat":"42.1391667","long":"77.1783333"}},{"country":"kg","city":"Kala","coordinates":{"lat":"41.45","long":"72.2"}},{"country":"kg","city":"Kalday","coordinates":{"lat":"40.0666667","long":"72.5833333"}},{"country":"kg","city":"Kalinin Atyndagy","coordinates":{"lat":"41.0872222","long":"75.6772222"}},{"country":"kg","city":"Kalinino","coordinates":{"lat":"42.4166667","long":"72.0833333"}},{"country":"kg","city":"Kalininsk","coordinates":{"lat":"42.4166667","long":"72.0833333"}},{"country":"kg","city":"Kalininskoje","coordinates":{"lat":"42.8333333","long":"73.8166667"}},{"country":"kg","city":"Kalininskoye","coordinates":{"lat":"42.8333333","long":"73.8166667"}},{"country":"kg","city":"Kalinovka","coordinates":{"lat":"42.6880556","long":"75.3555556"}},{"country":"kg","city":"Kalinovka","coordinates":{"lat":"42.4666667","long":"78.2333333"}},{"country":"kg","city":"Kalmion","coordinates":{"lat":"40.2130556","long":"71.6413889"}},{"country":"kg","city":"Kal'tak","coordinates":{"lat":"40.1","long":"71.4833333"}},{"country":"kg","city":"Kamancha","coordinates":{"lat":"40.6","long":"73.5833333"}},{"country":"kg","city":"Kamenka","coordinates":{"lat":"42.75","long":"77.75"}},{"country":"kg","city":"Kampyr-Ravat","coordinates":{"lat":"40.7833333","long":"73.1333333"}},{"country":"kg","city":"Kanduga","coordinates":{"lat":"40.7166667","long":"73.5"}},{"country":"kg","city":"Kan","coordinates":{"lat":"40.1833333","long":"71.3333333"}},{"country":"kg","city":"(( Kansalyk ))","coordinates":{"lat":"41.7794444","long":"72.925"}},{"country":"kg","city":"Kant","coordinates":{"lat":"42.8875","long":"74.8472222"}},{"country":"kg","city":"Kantsin","coordinates":{"lat":"40.0833333","long":"70.8"}},{"country":"kg","city":"Kanysh-Kiya","coordinates":{"lat":"41.75","long":"71.0833333"}},{"country":"kg","city":"Kanyshkyya","coordinates":{"lat":"41.75","long":"71.0833333"}},{"country":"kg","city":"Kara-Agach","coordinates":{"lat":"41.5833333","long":"71.7333333"}},{"country":"kg","city":"Karaalma","coordinates":{"lat":"41.1833333","long":"73.3166667"}},{"country":"kg","city":"Kara-Balta","coordinates":{"lat":"42.8261111","long":"73.8441667"}},{"country":"kg","city":"Karabaltö","coordinates":{"lat":"42.8261111","long":"73.8441667"}},{"country":"kg","city":"Kara-Balty","coordinates":{"lat":"42.8261111","long":"73.8441667"}},{"country":"kg","city":"Karabalty","coordinates":{"lat":"42.8333333","long":"73.8166667"}},{"country":"kg","city":"Karabshin","coordinates":{"lat":"39.6666667","long":"70.3333333"}},{"country":"kg","city":"Karabulak","coordinates":{"lat":"42.8333333","long":"75.6"}},{"country":"kg","city":"Karabulak","coordinates":{"lat":"41.7166667","long":"73.9333333"}},{"country":"kg","city":"Karabulak","coordinates":{"lat":"40.4333333","long":"73.6"}},{"country":"kg","city":"Karabulun","coordinates":{"lat":"41.3666667","long":"74.2"}},{"country":"kg","city":"Kara-Burga","coordinates":{"lat":"41.3","long":"74.7"}},{"country":"kg","city":"Kara-Burgen","coordinates":{"lat":"41.3","long":"74.7"}},{"country":"kg","city":"Karacha","coordinates":{"lat":"41.1","long":"72.8"}},{"country":"kg","city":"Karachi","coordinates":{"lat":"41.4166667","long":"74.1"}},{"country":"kg","city":"Karachiy","coordinates":{"lat":"41.4166667","long":"74.1"}},{"country":"kg","city":"Kara-Dëbë","coordinates":{"lat":"42.7827778","long":"75.4463889"}},{"country":"kg","city":"Kara-Dekhkan","coordinates":{"lat":"40.7666667","long":"73.4"}},{"country":"kg","city":"Kara-Döbö","coordinates":{"lat":"42.7827778","long":"75.4463889"}},{"country":"kg","city":"Kara-Dzhar","coordinates":{"lat":"42.5833333","long":"78.4333333"}},{"country":"kg","city":"Kara-Dzhegach","coordinates":{"lat":"40.1333333","long":"72.0833333"}},{"country":"kg","city":"Karadzhigach","coordinates":{"lat":"41.1333333","long":"72.3833333"}},{"country":"kg","city":"Karadzhigach","coordinates":{"lat":"40.1333333","long":"72.0833333"}},{"country":"kg","city":"Karadzhilga","coordinates":{"lat":"40.5833333","long":"73.65"}},{"country":"kg","city":"Kara-Dzhygach","coordinates":{"lat":"42.8072222","long":"74.7063889"}},{"country":"kg","city":"Karagandy","coordinates":{"lat":"39.9666667","long":"72.1833333"}},{"country":"kg","city":"Karagansay","coordinates":{"lat":"41.3166667","long":"72.2"}},{"country":"kg","city":"Karagayna","coordinates":{"lat":"42.3666667","long":"72.1333333"}},{"country":"kg","city":"Kara-Gonush","coordinates":{"lat":"40.4333333","long":"73.85"}},{"country":"kg","city":"Kara-Kashkar","coordinates":{"lat":"40.6833333","long":"73.4666667"}},{"country":"kg","city":"Kara-Kavak","coordinates":{"lat":"39.65","long":"72.7"}},{"country":"kg","city":"Karakeche","coordinates":{"lat":"41.7166667","long":"74.7666667"}},{"country":"kg","city":"Kara-Kël'","coordinates":{"lat":"41.6302778","long":"72.6727778"}},{"country":"kg","city":"Kara-Kël'","coordinates":{"lat":"40.75","long":"73.2333333"}},{"country":"kg","city":"Kara-Kesmak","coordinates":{"lat":"41.3","long":"71.2333333"}},{"country":"kg","city":"Karakichi","coordinates":{"lat":"41.7166667","long":"74.7666667"}},{"country":"kg","city":"Karakin","coordinates":{"lat":"41.4166667","long":"74.3166667"}},{"country":"kg","city":"Karako","coordinates":{"lat":"42.2105556","long":"76.6266667"}},{"country":"kg","city":"Kara-Kokty","coordinates":{"lat":"40.35","long":"72.6166667"}},{"country":"kg","city":"Karakol","coordinates":{"lat":"41.2333333","long":"73.0666667"}},{"country":"kg","city":"Kara-Köl","coordinates":{"lat":"41.6302778","long":"72.6727778"}},{"country":"kg","city":"Karakol'","coordinates":{"lat":"41.6666667","long":"72.7166667"}},{"country":"kg","city":"Kara-Köl","coordinates":{"lat":"40.75","long":"73.2333333"}},{"country":"kg","city":"Karakol","coordinates":{"lat":"42.4833333","long":"78.4"}},{"country":"kg","city":"Kara-Koo","coordinates":{"lat":"42.2105556","long":"76.6266667"}},{"country":"kg","city":"Kara-Kshtak","coordinates":{"lat":"40.1166667","long":"72.1"}},{"country":"kg","city":"Kara-Kuchkan","coordinates":{"lat":"40.4544444","long":"72.57"}},{"country":"kg","city":"Kara-Kul'dzha","coordinates":{"lat":"40.6833333","long":"73.45"}},{"country":"kg","city":"Kara-Kul'ja","coordinates":{"lat":"40.6833333","long":"73.45"}},{"country":"kg","city":"Kara-Kul'","coordinates":{"lat":"41.6302778","long":"72.6727778"}},{"country":"kg","city":"Karakul","coordinates":{"lat":"40.75","long":"73.2333333"}},{"country":"kg","city":"Karakungey","coordinates":{"lat":"42.2033333","long":"75.9169444"}},{"country":"kg","city":"Kara-Kyungey","coordinates":{"lat":"42.2033333","long":"75.9169444"}},{"country":"kg","city":"Karamart","coordinates":{"lat":"41.2166667","long":"73.1333333"}},{"country":"kg","city":"Karamurza","coordinates":{"lat":"41.4333333","long":"74.05"}},{"country":"kg","city":"Karanay","coordinates":{"lat":"40.3","long":"72.4"}},{"country":"kg","city":"Kara-Oy","coordinates":{"lat":"41.4527778","long":"75.1161111"}},{"country":"kg","city":"Kara-Sadak","coordinates":{"lat":"40.7666667","long":"73.1"}},{"country":"kg","city":"Kara-Sadanto","coordinates":{"lat":"40.7666667","long":"73.1"}},{"country":"kg","city":"Kara-Sakal","coordinates":{"lat":"41.8833333","long":"72.7333333"}},{"country":"kg","city":"Kara-Say","coordinates":{"lat":"41.5483333","long":"77.9022222"}},{"country":"kg","city":"Karashar","coordinates":{"lat":"42.3094444","long":"76.2930556"}},{"country":"kg","city":"Kara-Shivak","coordinates":{"lat":"39.5166667","long":"72.1833333"}},{"country":"kg","city":"Karasu","coordinates":{"lat":"41.65","long":"73.1833333"}},{"country":"kg","city":"Karasu","coordinates":{"lat":"41.1166667","long":"74.8666667"}},{"country":"kg","city":"Kara-Su","coordinates":{"lat":"39.55","long":"72.2333333"}},{"country":"kg","city":"Karasu","coordinates":{"lat":"40.5666667","long":"73.7333333"}},{"country":"kg","city":"Kara-Su","coordinates":{"lat":"40.7","long":"72.8666667"}},{"country":"kg","city":"Kara-Suu","coordinates":{"lat":"41.1305556","long":"75.6783333"}},{"country":"kg","city":"Karatakhta","coordinates":{"lat":"40.35","long":"73.5833333"}},{"country":"kg","city":"Kara-Talaa","coordinates":{"lat":"42.3144444","long":"76.3983333"}},{"country":"kg","city":"Karatash","coordinates":{"lat":"40.2166667","long":"72.6"}},{"country":"kg","city":"Kara-Tash","coordinates":{"lat":"40.4","long":"73.4833333"}},{"country":"kg","city":"Karatash","coordinates":{"lat":"40.55","long":"74.0"}},{"country":"kg","city":"Karatay","coordinates":{"lat":"40.5166667","long":"73.0166667"}},{"country":"kg","city":"Karatëbë","coordinates":{"lat":"41.8833333","long":"74.4666667"}},{"country":"kg","city":"Karatebe","coordinates":{"lat":"42.7475","long":"76.1586111"}},{"country":"kg","city":"Kara-Tyube","coordinates":{"lat":"42.7827778","long":"75.4463889"}},{"country":"kg","city":"Kara-Tyube","coordinates":{"lat":"41.05","long":"72.7166667"}},{"country":"kg","city":"Karatyube","coordinates":{"lat":"40.6047222","long":"72.965"}},{"country":"kg","city":"Kara-Tyube","coordinates":{"lat":"40.8833333","long":"73.9"}},{"country":"kg","city":"Karaul'","coordinates":{"lat":"40.75","long":"73.2333333"}},{"country":"kg","city":"Karaultëbë","coordinates":{"lat":"40.5363889","long":"75.9641667"}},{"country":"kg","city":"Kara-Ünkür","coordinates":{"lat":"41.7636111","long":"75.7244444"}},{"country":"kg","city":"Kara-Unkurt","coordinates":{"lat":"41.7333333","long":"75.6666667"}},{"country":"kg","city":"Kara-Unkyur","coordinates":{"lat":"41.7636111","long":"75.7244444"}},{"country":"kg","city":"Karautok","coordinates":{"lat":"39.9333333","long":"72.2833333"}},{"country":"kg","city":"Karavan","coordinates":{"lat":"41.5","long":"71.75"}},{"country":"kg","city":"Karavan","coordinates":{"lat":"40.3","long":"72.2"}},{"country":"kg","city":"Karavshin","coordinates":{"lat":"39.6666667","long":"70.3333333"}},{"country":"kg","city":"Karaynkurt","coordinates":{"lat":"41.7636111","long":"75.7244444"}},{"country":"kg","city":"Karool-Tëbë","coordinates":{"lat":"40.5363889","long":"75.9641667"}},{"country":"kg","city":"Karool-Töbö","coordinates":{"lat":"40.5363889","long":"75.9641667"}},{"country":"kg","city":"Karyn-Kur","coordinates":{"lat":"41.25","long":"71.3666667"}},{"country":"kg","city":"Kashat","coordinates":{"lat":"42.3166667","long":"75.4333333"}},{"country":"kg","city":"Kashgar","coordinates":{"lat":"40.6208333","long":"72.8305556"}},{"country":"kg","city":"Kashgarkishlak","coordinates":{"lat":"40.6208333","long":"72.8305556"}},{"country":"kg","city":"Kashgar-Kyshtak","coordinates":{"lat":"40.6208333","long":"72.8305556"}},{"country":"kg","city":"Kashkaldak","coordinates":{"lat":"40.2833333","long":"72.65"}},{"country":"kg","city":"Kash Kanchi","coordinates":{"lat":"41.0166667","long":"73.05"}},{"country":"kg","city":"Kashkar-Kyshtak","coordinates":{"lat":"40.6208333","long":"72.8305556"}},{"country":"kg","city":"Kashkasu","coordinates":{"lat":"41.3166667","long":"73.2"}},{"country":"kg","city":"Kashkasu","coordinates":{"lat":"39.9","long":"72.7333333"}},{"country":"kg","city":"Kashka-Terek","coordinates":{"lat":"41.15","long":"73.1333333"}},{"country":"kg","city":"Kashka-Terek","coordinates":{"lat":"40.7833333","long":"73.1833333"}},{"country":"kg","city":"Kasymbek","coordinates":{"lat":"41.3","long":"74.95"}},{"country":"kg","city":"(( Katar ))","coordinates":{"lat":"40.3666667","long":"72.9166667"}},{"country":"kg","city":"Katran","coordinates":{"lat":"39.8166667","long":"70.0666667"}},{"country":"kg","city":"Katranke","coordinates":{"lat":"41.2","long":"73.3166667"}},{"country":"kg","city":"Kattagan","coordinates":{"lat":"40.9166667","long":"72.2666667"}},{"country":"kg","city":"Katyrantash","coordinates":{"lat":"40.2666667","long":"73.6"}},{"country":"kg","city":"Kavak","coordinates":{"lat":"41.8666667","long":"73.5166667"}},{"country":"kg","city":"Kavak","coordinates":{"lat":"42.4833333","long":"78.15"}},{"country":"kg","city":"Kayirma","coordinates":{"lat":"41.85","long":"72.8333333"}},{"country":"kg","city":"Kayirma","coordinates":{"lat":"41.9833333","long":"74.65"}},{"country":"kg","city":"Kaynar","coordinates":{"lat":"40.6","long":"73.1166667"}},{"country":"kg","city":"Kayragach","coordinates":{"lat":"40.05","long":"69.75"}},{"country":"kg","city":"Kaytmas","coordinates":{"lat":"40.4166667","long":"73.2833333"}},{"country":"kg","city":"Kazarman","coordinates":{"lat":"41.4","long":"74.05"}},{"country":"kg","city":"Kaz","coordinates":{"lat":"41.4166667","long":"72.1833333"}},{"country":"kg","city":"Kazybek","coordinates":{"lat":"41.0313889","long":"75.5369444"}},{"country":"kg","city":"Kegeti","coordinates":{"lat":"42.6913889","long":"75.1783333"}},{"country":"kg","city":"Kegetö","coordinates":{"lat":"42.6913889","long":"75.1783333"}},{"country":"kg","city":"Kegety","coordinates":{"lat":"42.6913889","long":"75.1783333"}},{"country":"kg","city":"Keglatar","coordinates":{"lat":"40.8666667","long":"73.7"}},{"country":"kg","city":"Këk-Aygyr","coordinates":{"lat":"40.7277778","long":"75.6133333"}},{"country":"kg","city":"Këkbel'","coordinates":{"lat":"40.25","long":"72.9333333"}},{"country":"kg","city":"Këk-Dzhar","coordinates":{"lat":"42.8030556","long":"74.6511111"}},{"country":"kg","city":"Këkdzhar","coordinates":{"lat":"42.1666667","long":"75.6333333"}},{"country":"kg","city":"Këkirim","coordinates":{"lat":"41.4166667","long":"73.8666667"}},{"country":"kg","city":"Këkiyrim","coordinates":{"lat":"41.4166667","long":"73.8666667"}},{"country":"kg","city":"Këk-Moynok Pervoye","coordinates":{"lat":"42.4555556","long":"76.0497222"}},{"country":"kg","city":"Këk-Moynok Vtoroye","coordinates":{"lat":"42.4819444","long":"75.8525"}},{"country":"kg","city":"Këkoy","coordinates":{"lat":"41.4833333","long":"75.1166667"}},{"country":"kg","city":"Këksay","coordinates":{"lat":"42.5","long":"71.1166667"}},{"country":"kg","city":"Këk-Say","coordinates":{"lat":"42.0736111","long":"76.8086111"}},{"country":"kg","city":"Këk-Tash","coordinates":{"lat":"41.1833333","long":"72.4"}},{"country":"kg","city":"Këktëbe","coordinates":{"lat":"42.7666667","long":"77.6166667"}},{"country":"kg","city":"Kël'","coordinates":{"lat":"41.95","long":"72.3833333"}},{"country":"kg","city":"Kël'","coordinates":{"lat":"40.2666667","long":"73.2"}},{"country":"kg","city":"Kël'më","coordinates":{"lat":"41.45","long":"75.1"}},{"country":"kg","city":"Kel'techaty","coordinates":{"lat":"40.3333333","long":"74.4333333"}},{"country":"kg","city":"Kemin","coordinates":{"lat":"42.7852778","long":"75.6911111"}},{"country":"kg","city":"Kenbulun","coordinates":{"lat":"42.8666667","long":"75.1166667"}},{"country":"kg","city":"Kendzhilga","coordinates":{"lat":"40.3833333","long":"73.5"}},{"country":"kg","city":"Keng-Suu","coordinates":{"lat":"41.9291667","long":"75.6777778"}},{"country":"kg","city":"Kenjekul","coordinates":{"lat":"40.6388889","long":"72.8119444"}},{"country":"kg","city":"Kensu","coordinates":{"lat":"41.75","long":"74.0833333"}},{"country":"kg","city":"Kensu","coordinates":{"lat":"42.75","long":"78.7"}},{"country":"kg","city":"Kenzhekul","coordinates":{"lat":"40.6388889","long":"72.8119444"}},{"country":"kg","city":"Këpyurë","coordinates":{"lat":"42.4666667","long":"72.9666667"}},{"country":"kg","city":"Kerben","coordinates":{"lat":"41.5","long":"71.75"}},{"country":"kg","city":"Keregetash","coordinates":{"lat":"42.5166667","long":"78.5833333"}},{"country":"kg","city":"Kerki-Don","coordinates":{"lat":"40.45","long":"72.0833333"}},{"country":"kg","city":"Kesek","coordinates":{"lat":"40.4455556","long":"72.5813889"}},{"country":"kg","city":"Këtërme","coordinates":{"lat":"40.3","long":"72.3666667"}},{"country":"kg","city":"(( Ketmen'tëbë ))","coordinates":{"lat":"41.8013889","long":"72.8088889"}},{"country":"kg","city":"Ketmen-Tjube","coordinates":{"lat":"41.8013889","long":"72.8088889"}},{"country":"kg","city":"Ketmen'-Tyube","coordinates":{"lat":"41.8013889","long":"72.8088889"}},{"country":"kg","city":"Khadyrsha","coordinates":{"lat":"40.8333333","long":"73.0"}},{"country":"kg","city":"Khaidarkan","coordinates":{"lat":"39.9413889","long":"71.3458333"}},{"country":"kg","city":"Khalmion","coordinates":{"lat":"40.2130556","long":"71.6413889"}},{"country":"kg","city":"(( Khasan-Chek ))","coordinates":{"lat":"40.5666667","long":"72.8833333"}},{"country":"kg","city":"Khaydarkan","coordinates":{"lat":"39.9413889","long":"71.3458333"}},{"country":"kg","city":"Khaydarken","coordinates":{"lat":"39.9413889","long":"71.3458333"}},{"country":"kg","city":"Khazret-Ayub","coordinates":{"lat":"40.95","long":"73.0166667"}},{"country":"kg","city":"Khazret-Bau","coordinates":{"lat":"41.35","long":"71.4666667"}},{"country":"kg","city":"Khibinskoye","coordinates":{"lat":"42.45","long":"72.2666667"}},{"country":"kg","city":"Khodyrsha-Mugal'","coordinates":{"lat":"40.7333333","long":"73.1"}},{"country":"kg","city":"Khodzhaaryk","coordinates":{"lat":"40.1666667","long":"72.3666667"}},{"country":"kg","city":"Khodzha-Aryk","coordinates":{"lat":"40.2666667","long":"72.35"}},{"country":"kg","city":"Khodzhaata","coordinates":{"lat":"41.6833333","long":"72.0166667"}},{"country":"kg","city":"Khodzhanorum","coordinates":{"lat":"40.0833333","long":"71.3166667"}},{"country":"kg","city":"Khodzharabad","coordinates":{"lat":"40.95","long":"72.6166667"}},{"country":"kg","city":"Kichibulolu","coordinates":{"lat":"40.1833333","long":"73.6"}},{"country":"kg","city":"Kichi-Dzhargylchak","coordinates":{"lat":"42.2063889","long":"77.6927778"}},{"country":"kg","city":"Kichi-Dzhergylchak","coordinates":{"lat":"42.2063889","long":"77.6927778"}},{"country":"kg","city":"Kichi-Jargylchak","coordinates":{"lat":"42.2063889","long":"77.6927778"}},{"country":"kg","city":"Kichik-Alay","coordinates":{"lat":"40.0333333","long":"72.9166667"}},{"country":"kg","city":"Kichikarakol","coordinates":{"lat":"39.9333333","long":"73.4"}},{"country":"kg","city":"Kichikbleuli","coordinates":{"lat":"40.1833333","long":"73.6"}},{"country":"kg","city":"Kichi-Khaydarnen","coordinates":{"lat":"39.9166667","long":"71.45"}},{"country":"kg","city":"Kichik-Karakol","coordinates":{"lat":"39.9333333","long":"73.4"}},{"country":"kg","city":"Kichi-Oryuktyu","coordinates":{"lat":"42.7397222","long":"77.9325"}},{"country":"kg","city":"Kichitaldyk","coordinates":{"lat":"40.35","long":"73.1333333"}},{"country":"kg","city":"Kichi-Uryukty","coordinates":{"lat":"42.7397222","long":"77.9325"}},{"country":"kg","city":"Kindyn","coordinates":{"lat":"41.6166667","long":"75.1666667"}},{"country":"kg","city":"Kipchak","coordinates":{"lat":"40.7","long":"73.1"}},{"country":"kg","city":"Kirgizgava","coordinates":{"lat":"41.2","long":"72.8333333"}},{"country":"kg","city":"Kirov","coordinates":{"lat":"41.3333333","long":"72.9333333"}},{"country":"kg","city":"Kirov","coordinates":{"lat":"42.6294444","long":"71.5905556"}},{"country":"kg","city":"Kirovskoye","coordinates":{"lat":"41.3333333","long":"72.9333333"}},{"country":"kg","city":"Kirovskoye","coordinates":{"lat":"42.6294444","long":"71.5905556"}},{"country":"kg","city":"Kisek","coordinates":{"lat":"40.4455556","long":"72.5813889"}},{"country":"kg","city":"Kisyk","coordinates":{"lat":"40.0333333","long":"71.75"}},{"country":"kg","city":"Kitay","coordinates":{"lat":"42.4666667","long":"78.2333333"}},{"country":"kg","city":"Kizöl-Kiva","coordinates":{"lat":"40.2538889","long":"72.1227778"}},{"country":"kg","city":"Kizöl-Kurgan","coordinates":{"lat":"40.1833333","long":"73.5"}},{"country":"kg","city":"Kizyl-Ata","coordinates":{"lat":"41.4333333","long":"71.55"}},{"country":"kg","city":"Kizyl-Kiya","coordinates":{"lat":"40.2538889","long":"72.1227778"}},{"country":"kg","city":"Kizyl-Kurgan","coordinates":{"lat":"40.1833333","long":"73.5"}},{"country":"kg","city":"Kizyl-Su","coordinates":{"lat":"42.3","long":"78.0666667"}},{"country":"kg","city":"Kizyl-Tukay","coordinates":{"lat":"41.3833333","long":"71.3333333"}},{"country":"kg","city":"Klozin","coordinates":{"lat":"40.4666667","long":"73.6333333"}},{"country":"kg","city":"Klyuchëvka","coordinates":{"lat":"42.5666667","long":"71.8"}},{"country":"kg","city":"Klyuchevoye","coordinates":{"lat":"42.5666667","long":"71.8"}},{"country":"kg","city":"Klyuchevoy","coordinates":{"lat":"42.5666667","long":"71.8"}},{"country":"kg","city":"Klyuchevskoye","coordinates":{"lat":"42.5666667","long":"71.8"}},{"country":"kg","city":"Kochkor-Ata","coordinates":{"lat":"41.0166667","long":"72.4833333"}},{"country":"kg","city":"Kochkorka","coordinates":{"lat":"42.2127778","long":"75.7541667"}},{"country":"kg","city":"Kochkor","coordinates":{"lat":"42.2127778","long":"75.7541667"}},{"country":"kg","city":"(( Kodul' ))","coordinates":{"lat":"41.8244444","long":"72.98"}},{"country":"kg","city":"Kodul'-Su","coordinates":{"lat":"41.8244444","long":"72.98"}},{"country":"kg","city":"Kodzhokël'","coordinates":{"lat":"39.9","long":"72.9666667"}},{"country":"kg","city":"Kodzhoyar","coordinates":{"lat":"42.7294444","long":"77.5286111"}},{"country":"kg","city":"Kogoy","coordinates":{"lat":"41.4833333","long":"75.1166667"}},{"country":"kg","city":"Kok-arök","coordinates":{"lat":"42.4166667","long":"72.6666667"}},{"country":"kg","city":"Kok-Aryk","coordinates":{"lat":"42.4166667","long":"72.6666667"}},{"country":"kg","city":"Kök-Aygyr","coordinates":{"lat":"40.7277778","long":"75.6133333"}},{"country":"kg","city":"Kok-Dzhar","coordinates":{"lat":"42.1666667","long":"75.6333333"}},{"country":"kg","city":"Kokdzhar","coordinates":{"lat":"40.3","long":"72.3666667"}},{"country":"kg","city":"Kokdzhatyk","coordinates":{"lat":"40.4219444","long":"72.5841667"}},{"country":"kg","city":"Kok-Dzhetyk","coordinates":{"lat":"40.4219444","long":"72.5841667"}},{"country":"kg","city":"Kok-Irim","coordinates":{"lat":"41.4166667","long":"73.8666667"}},{"country":"kg","city":"Kok-Jengak","coordinates":{"lat":"41.0333333","long":"73.2"}},{"country":"kg","city":"Kok-Karga","coordinates":{"lat":"40.3333333","long":"72.3833333"}},{"country":"kg","city":"Kok-Magday","coordinates":{"lat":"40.2666667","long":"74.0166667"}},{"country":"kg","city":"Kok-Makday","coordinates":{"lat":"40.2666667","long":"74.0166667"}},{"country":"kg","city":"Kok-Makhday","coordinates":{"lat":"40.2666667","long":"74.0166667"}},{"country":"kg","city":"Kok-Manday","coordinates":{"lat":"40.2666667","long":"74.0166667"}},{"country":"kg","city":"Kok-Maynak","coordinates":{"lat":"42.4555556","long":"76.0497222"}},{"country":"kg","city":"Kokmoynak","coordinates":{"lat":"42.4555556","long":"76.0497222"}},{"country":"kg","city":"Kök-Moynok Eki","coordinates":{"lat":"42.4819444","long":"75.8525"}},{"country":"kg","city":"Kok-Moynok","coordinates":{"lat":"42.4555556","long":"76.0497222"}},{"country":"kg","city":"Kokmoynok","coordinates":{"lat":"42.4819444","long":"75.8525"}},{"country":"kg","city":"Kok-Say","coordinates":{"lat":"42.5","long":"71.1166667"}},{"country":"kg","city":"Kök-Tash","coordinates":{"lat":"41.1833333","long":"72.4"}},{"country":"kg","city":"Koktash","coordinates":{"lat":"41.3333333","long":"71.15"}},{"country":"kg","city":"Kok-Tundy","coordinates":{"lat":"40.8333333","long":"73.6166667"}},{"country":"kg","city":"Kok-Yangak","coordinates":{"lat":"41.0333333","long":"73.2"}},{"country":"kg","city":"Kok-Yatök","coordinates":{"lat":"40.4219444","long":"72.5841667"}},{"country":"kg","city":"Kok-Yatyk","coordinates":{"lat":"40.4219444","long":"72.5841667"}},{"country":"kg","city":"Kolaryk","coordinates":{"lat":"41.9666667","long":"74.6666667"}},{"country":"kg","city":"Kolba","coordinates":{"lat":"42.4166667","long":"72.4166667"}},{"country":"kg","city":"Kolkhoz Imeni Bokonbayeva","coordinates":{"lat":"41.8244444","long":"72.98"}},{"country":"kg","city":"Kol'","coordinates":{"lat":"41.95","long":"72.3833333"}},{"country":"kg","city":"Kol'me","coordinates":{"lat":"41.0833333","long":"72.7"}},{"country":"kg","city":"Kol'tor","coordinates":{"lat":"42.3166667","long":"75.4666667"}},{"country":"kg","city":"Kol'tsovka","coordinates":{"lat":"42.1152778","long":"76.9933333"}},{"country":"kg","city":"Kommuna Imeni Karla Marksa","coordinates":{"lat":"42.7","long":"74.0333333"}},{"country":"kg","city":"Komsomol","coordinates":{"lat":"42.2408333","long":"75.3141667"}},{"country":"kg","city":"Komsomol","coordinates":{"lat":"42.0758333","long":"76.5611111"}},{"country":"kg","city":"Komsomol'skoye","coordinates":{"lat":"42.9444444","long":"74.4688889"}},{"country":"kg","city":"Konduva","coordinates":{"lat":"40.7166667","long":"73.5"}},{"country":"kg","city":"Kongorchok","coordinates":{"lat":"41.25","long":"74.5333333"}},{"country":"kg","city":"Kongurat","coordinates":{"lat":"42.5166667","long":"78.2333333"}},{"country":"kg","city":"Kongurolëng","coordinates":{"lat":"42.1019444","long":"76.6161111"}},{"country":"kg","city":"Konorchok","coordinates":{"lat":"41.25","long":"74.5333333"}},{"country":"kg","city":"Konura","coordinates":{"lat":"42.5166667","long":"78.2333333"}},{"country":"kg","city":"Konur-Olën","coordinates":{"lat":"42.1019444","long":"76.6161111"}},{"country":"kg","city":"Konur-Ulen","coordinates":{"lat":"42.1019444","long":"76.6161111"}},{"country":"kg","city":"Kopurbashi","coordinates":{"lat":"40.345","long":"72.6144444"}},{"country":"kg","city":"Korgon","coordinates":{"lat":"39.9","long":"69.9166667"}},{"country":"kg","city":"Korgon","coordinates":{"lat":"41.8333333","long":"70.9"}},{"country":"kg","city":"Korgontëbë","coordinates":{"lat":"41.8333333","long":"70.9"}},{"country":"kg","city":"Korumdu","coordinates":{"lat":"42.6858333","long":"77.3430556"}},{"country":"kg","city":"Korumdy","coordinates":{"lat":"42.6858333","long":"77.3430556"}},{"country":"kg","city":"Koshbulak","coordinates":{"lat":"41.4666667","long":"74.4"}},{"country":"kg","city":"Koshbulak","coordinates":{"lat":"40.8333333","long":"73.6"}},{"country":"kg","city":"Kosh-Kël'","coordinates":{"lat":"42.5361111","long":"76.6144444"}},{"country":"kg","city":"Koshkenchi","coordinates":{"lat":"41.0166667","long":"73.05"}},{"country":"kg","city":"Koshkol'","coordinates":{"lat":"42.5361111","long":"76.6144444"}},{"country":"kg","city":"Koshmo","coordinates":{"lat":"41.7","long":"72.5166667"}},{"country":"kg","city":"Koshtëbë","coordinates":{"lat":"41.0833333","long":"74.25"}},{"country":"kg","city":"Kosh-Tegirmen","coordinates":{"lat":"42.7952778","long":"73.8522222"}},{"country":"kg","city":"Kotak","coordinates":{"lat":"41.55","long":"70.25"}},{"country":"kg","city":"Kovak","coordinates":{"lat":"42.4833333","long":"78.15"}},{"country":"kg","city":"Koy-Kul'","coordinates":{"lat":"42.4833333","long":"78.0666667"}},{"country":"kg","city":"Koysara","coordinates":{"lat":"42.55","long":"78.1666667"}},{"country":"kg","city":"Koysary","coordinates":{"lat":"42.55","long":"78.1666667"}},{"country":"kg","city":"Krasnaya Rechka","coordinates":{"lat":"42.9","long":"74.9666667"}},{"country":"kg","city":"Krasnooktyabr'skiy","coordinates":{"lat":"42.8333333","long":"74.3166667"}},{"country":"kg","city":"Krasnorechenskoye","coordinates":{"lat":"42.9","long":"74.9666667"}},{"country":"kg","city":"Krasnyy Most","coordinates":{"lat":"42.6","long":"75.8333333"}},{"country":"kg","city":"Krasnyy Oktyabr'","coordinates":{"lat":"42.75","long":"75.6666667"}},{"country":"kg","city":"Krasnyy Oktyabr'","coordinates":{"lat":"41.5","long":"74.8333333"}},{"country":"kg","city":"Krasnyy Stroitel'","coordinates":{"lat":"42.9366667","long":"74.5941667"}},{"country":"kg","city":"Kromkol","coordinates":{"lat":"40.3","long":"73.0333333"}},{"country":"kg","city":"Kugart","coordinates":{"lat":"41.1333333","long":"73.4"}},{"country":"kg","city":"Kugart","coordinates":{"lat":"40.3333333","long":"74.4333333"}},{"country":"kg","city":"Kuk-Karga","coordinates":{"lat":"40.3333333","long":"72.3833333"}},{"country":"kg","city":"Kuk-Tash","coordinates":{"lat":"41.3333333","long":"71.15"}},{"country":"kg","city":"Kulanak","coordinates":{"lat":"41.3577778","long":"75.5097222"}},{"country":"kg","city":"Kulat","coordinates":{"lat":"40.9833333","long":"72.7666667"}},{"country":"kg","city":"Kul'chigash","coordinates":{"lat":"41.9338889","long":"74.5183333"}},{"country":"kg","city":"Kulyugen","coordinates":{"lat":"41.1166667","long":"72.7"}},{"country":"kg","city":"Kum-Bel'","coordinates":{"lat":"41.7333333","long":"75.6666667"}},{"country":"kg","city":"Kum-Dëbë","coordinates":{"lat":"42.2152778","long":"75.5491667"}},{"country":"kg","city":"Kum-Döbö","coordinates":{"lat":"42.2152778","long":"75.5491667"}},{"country":"kg","city":"Kum-Dyube","coordinates":{"lat":"42.2152778","long":"75.5491667"}},{"country":"kg","city":"Kum-Tyube","coordinates":{"lat":"42.7666667","long":"77.6166667"}},{"country":"kg","city":"Kunchigösh","coordinates":{"lat":"42.1152778","long":"76.9933333"}},{"country":"kg","city":"Kunchigysh","coordinates":{"lat":"42.1152778","long":"76.9933333"}},{"country":"kg","city":"Kunduy","coordinates":{"lat":"42.5333333","long":"78.3333333"}},{"country":"kg","city":"Kupre","coordinates":{"lat":"42.4666667","long":"72.9666667"}},{"country":"kg","city":"(( Kurbantal-Mady ))","coordinates":{"lat":"40.5833333","long":"72.9166667"}},{"country":"kg","city":"Kurbu","coordinates":{"lat":"42.6333333","long":"78.4333333"}},{"country":"kg","city":"Kurgan-Tepe","coordinates":{"lat":"41.8333333","long":"70.9"}},{"country":"kg","city":"Kur-Kol","coordinates":{"lat":"40.25","long":"72.3333333"}},{"country":"kg","city":"Kurmentö","coordinates":{"lat":"42.7833333","long":"78.25"}},{"country":"kg","city":"Kurmenty","coordinates":{"lat":"42.7833333","long":"78.25"}},{"country":"kg","city":"Kurort Dzhety-Oguz","coordinates":{"lat":"42.3166667","long":"78.2333333"}},{"country":"kg","city":"Kurort Koy-Sara","coordinates":{"lat":"42.55","long":"78.1666667"}},{"country":"kg","city":"Kurort Koysary","coordinates":{"lat":"42.55","long":"78.1666667"}},{"country":"kg","city":"Kurpsay","coordinates":{"lat":"41.4833333","long":"72.3166667"}},{"country":"kg","city":"(( Kushchusu ))","coordinates":{"lat":"41.8441667","long":"72.7522222"}},{"country":"kg","city":"Kutarma","coordinates":{"lat":"42.9","long":"74.25"}},{"country":"kg","city":"Kutchi","coordinates":{"lat":"40.7","long":"72.9"}},{"country":"kg","city":"Kutchu","coordinates":{"lat":"40.9833333","long":"73.0333333"}},{"country":"kg","city":"Kuturga","coordinates":{"lat":"42.75","long":"78.1166667"}},{"country":"kg","city":"Kuturgan","coordinates":{"lat":"40.9333333","long":"73.4666667"}},{"country":"kg","city":"Kuybyshev Atyndagy","coordinates":{"lat":"41.5105556","long":"75.8544444"}},{"country":"kg","city":"Kyrchin","coordinates":{"lat":"39.4666667","long":"72.3333333"}},{"country":"kg","city":"Kyrgyz-Chek","coordinates":{"lat":"40.5541667","long":"72.8766667"}},{"country":"kg","city":"Kyrkkazyk","coordinates":{"lat":"41.8333333","long":"72.6833333"}},{"country":"kg","city":"Kyzart","coordinates":{"lat":"42.0166667","long":"74.95"}},{"country":"kg","city":"Kyzkol","coordinates":{"lat":"41.1","long":"73.0833333"}},{"country":"kg","city":"Kyzyl-Adyr","coordinates":{"lat":"42.6294444","long":"71.5905556"}},{"country":"kg","city":"Kyzyl-Asker","coordinates":{"lat":"42.9","long":"74.55"}},{"country":"kg","city":"Kyzyl-Asker","coordinates":{"lat":"41.3833333","long":"75.65"}},{"country":"kg","city":"Kyzylbayrak","coordinates":{"lat":"42.75","long":"76.0666667"}},{"country":"kg","city":"Kyzylbeyit","coordinates":{"lat":"41.5","long":"72.4"}},{"country":"kg","city":"Kyzyl-Bulak","coordinates":{"lat":"40.15","long":"73.45"}},{"country":"kg","city":"Kyzyl-Dëbë","coordinates":{"lat":"42.2019444","long":"75.2625"}},{"country":"kg","city":"Kyzyldezkan","coordinates":{"lat":"41.1833333","long":"75.7"}},{"country":"kg","city":"Kyzyl-Döbö","coordinates":{"lat":"42.2019444","long":"75.2625"}},{"country":"kg","city":"Kyzyl-Dzhar","coordinates":{"lat":"41.2666667","long":"72.0166667"}},{"country":"kg","city":"Kyzyldzhar","coordinates":{"lat":"40.3","long":"74.2333333"}},{"country":"kg","city":"Kyzyldzhazy","coordinates":{"lat":"41.7833333","long":"73.2833333"}},{"country":"kg","city":"Kyzyldzhildyz","coordinates":{"lat":"42.7333333","long":"78.0666667"}},{"country":"kg","city":"Kyzyl-Dzhyldyz","coordinates":{"lat":"41.5636111","long":"75.8530556"}},{"country":"kg","city":"Kyzylemgek","coordinates":{"lat":"41.95","long":"74.9333333"}},{"country":"kg","city":"Kyzyleshme","coordinates":{"lat":"39.5666667","long":"72.2666667"}},{"country":"kg","city":"Kyzylkishlak","coordinates":{"lat":"41.5166667","long":"72.2"}},{"country":"kg","city":"Kyzylkishlak","coordinates":{"lat":"40.5369444","long":"72.7766667"}},{"country":"kg","city":"Kyzyl-Kiya","coordinates":{"lat":"40.2538889","long":"72.1227778"}},{"country":"kg","city":"Kyzylkiya","coordinates":{"lat":"40.4833333","long":"73.1666667"}},{"country":"kg","city":"Kyzylkorgon","coordinates":{"lat":"40.1833333","long":"73.5"}},{"country":"kg","city":"Kyzylkurgan","coordinates":{"lat":"41.7333333","long":"74.2"}},{"country":"kg","city":"Kyzyl-Kyshtak","coordinates":{"lat":"40.5369444","long":"72.7766667"}},{"country":"kg","city":"Kyzyl-Kyya","coordinates":{"lat":"40.2538889","long":"72.1227778"}},{"country":"kg","city":"Kyzyl-Oktyabr'","coordinates":{"lat":"41.35","long":"73.9"}},{"country":"kg","city":"Kyzyl-Oktyabr'","coordinates":{"lat":"40.3","long":"73.5333333"}},{"country":"kg","city":"Kyzyloy","coordinates":{"lat":"41.9666667","long":"74.15"}},{"country":"kg","city":"Kyzylozkërush","coordinates":{"lat":"41.6333333","long":"73.4166667"}},{"country":"kg","city":"Kyzylsangir","coordinates":{"lat":"40.6333333","long":"73.1166667"}},{"country":"kg","city":"Kyzylsu","coordinates":{"lat":"41.15","long":"73.6"}},{"country":"kg","city":"Kyzyl-Suu","coordinates":{"lat":"42.3408333","long":"77.9980556"}},{"country":"kg","city":"Kyzyl-Tala","coordinates":{"lat":"39.9666667","long":"72.9666667"}},{"country":"kg","city":"Kyzyl-Tana","coordinates":{"lat":"40.35","long":"73.3833333"}},{"country":"kg","city":"Kyzyltëbë","coordinates":{"lat":"42.2019444","long":"75.2625"}},{"country":"kg","city":"Kyzyl-Tokay","coordinates":{"lat":"41.3833333","long":"71.3333333"}},{"country":"kg","city":"Kyzyltokoy","coordinates":{"lat":"41.3833333","long":"71.3333333"}},{"country":"kg","city":"Kyzylto","coordinates":{"lat":"39.6666667","long":"72.6666667"}},{"country":"kg","city":"Kyzyltu","coordinates":{"lat":"41.6166667","long":"73.3333333"}},{"country":"kg","city":"Kyzyltu","coordinates":{"lat":"41.0511111","long":"75.5544444"}},{"country":"kg","city":"Kyzyltu","coordinates":{"lat":"42.1844444","long":"76.6683333"}},{"country":"kg","city":"Kyzyl-Tuu","coordinates":{"lat":"41.0511111","long":"75.5544444"}},{"country":"kg","city":"Kyzyl-Tuu","coordinates":{"lat":"42.1844444","long":"76.6683333"}},{"country":"kg","city":"Kyzyl-Tyube","coordinates":{"lat":"42.2019444","long":"75.2625"}},{"country":"kg","city":"Kyzyltyube","coordinates":{"lat":"42.0736111","long":"76.8086111"}},{"country":"kg","city":"Kyzylungungir","coordinates":{"lat":"41.3666667","long":"73.0666667"}},{"country":"kg","city":"Kyzylunkyur","coordinates":{"lat":"41.3666667","long":"73.0666667"}},{"country":"kg","city":"Kyzyluran","coordinates":{"lat":"41.7","long":"73.3"}},{"country":"kg","city":"Kyzyluzgorysh","coordinates":{"lat":"41.6333333","long":"73.4166667"}},{"country":"kg","city":"Kyzylyak","coordinates":{"lat":"40.2666667","long":"72.05"}},{"country":"kg","city":"Kyzylzhildyz","coordinates":{"lat":"41.6666667","long":"73.4166667"}},{"country":"kg","city":"Kyzymchek-Karakash","coordinates":{"lat":"40.35","long":"73.4833333"}},{"country":"kg","city":"Kzyl-Kiya","coordinates":{"lat":"40.2538889","long":"72.1227778"}},{"country":"kg","city":"Kzyl-Kurgan","coordinates":{"lat":"40.1833333","long":"73.5"}},{"country":"kg","city":"Laylysu","coordinates":{"lat":"41.4666667","long":"75.5166667"}},{"country":"kg","city":"Lay-Tala","coordinates":{"lat":"40.6","long":"73.6166667"}},{"country":"kg","city":"Lebedinka","coordinates":{"lat":"42.8802778","long":"74.6805556"}},{"country":"kg","city":"Lebedinovka","coordinates":{"lat":"42.8802778","long":"74.6805556"}},{"country":"kg","city":"Lembur","coordinates":{"lat":"40.0666667","long":"71.1"}},{"country":"kg","city":"Lenin-Dzhol","coordinates":{"lat":"41.0666667","long":"72.6333333"}},{"country":"kg","city":"Leninjol","coordinates":{"lat":"41.0666667","long":"72.6333333"}},{"country":"kg","city":"Leninpol'","coordinates":{"lat":"42.4833333","long":"71.9166667"}},{"country":"kg","city":"Leninskoe","coordinates":{"lat":"42.9602778","long":"74.6555556"}},{"country":"kg","city":"Leninskoye","coordinates":{"lat":"42.9602778","long":"74.6555556"}},{"country":"kg","city":"Leninskoye","coordinates":{"lat":"40.6833333","long":"73.1833333"}},{"country":"kg","city":"Leninskoye","coordinates":{"lat":"42.3408333","long":"77.9980556"}},{"country":"kg","city":"Limbur","coordinates":{"lat":"40.0666667","long":"71.1"}},{"country":"kg","city":"Lipenka","coordinates":{"lat":"42.5333333","long":"78.2"}},{"country":"kg","city":"Lipenskoye","coordinates":{"lat":"42.5333333","long":"78.2"}},{"country":"kg","city":"Lizogubovka","coordinates":{"lat":"42.6666667","long":"78.8333333"}},{"country":"kg","city":"Lugovoye","coordinates":{"lat":"42.7666667","long":"78.2666667"}},{"country":"kg","city":"Lyaglan","coordinates":{"lat":"40.3166667","long":"73.1"}},{"country":"kg","city":"Lyaglyan","coordinates":{"lat":"40.3166667","long":"73.1"}},{"country":"kg","city":"Lyangar","coordinates":{"lat":"39.8","long":"72.0833333"}},{"country":"kg","city":"Lyaylyak","coordinates":{"lat":"39.9","long":"69.9166667"}},{"country":"kg","city":"Lyubinskiy","coordinates":{"lat":"41.15","long":"73.2833333"}},{"country":"kg","city":"Lyublino","coordinates":{"lat":"41.15","long":"73.2833333"}},{"country":"kg","city":"Maat-Murat","coordinates":{"lat":"39.85","long":"69.7333333"}},{"country":"kg","city":"Madaniyat","coordinates":{"lat":"40.5902778","long":"72.8663889"}},{"country":"kg","city":"Mady","coordinates":{"lat":"40.5388889","long":"72.9458333"}},{"country":"kg","city":"Maevka","coordinates":{"lat":"42.9102778","long":"74.5686111"}},{"country":"kg","city":"Mallisay","coordinates":{"lat":"41.2833333","long":"72.45"}},{"country":"kg","city":"Malovodnoye","coordinates":{"lat":"42.8333333","long":"74.3666667"}},{"country":"kg","city":"Maman","coordinates":{"lat":"42.5","long":"78.4333333"}},{"country":"kg","city":"Mama-Sadyk","coordinates":{"lat":"41.0666667","long":"73.05"}},{"country":"kg","city":"Mama-Sady","coordinates":{"lat":"41.0666667","long":"73.05"}},{"country":"kg","city":"Mamatkul","coordinates":{"lat":"42.7333333","long":"78.0666667"}},{"country":"kg","city":"Manduz","coordinates":{"lat":"41.45","long":"71.95"}},{"country":"kg","city":"Mangit","coordinates":{"lat":"40.4544444","long":"72.57"}},{"country":"kg","city":"Mangyt","coordinates":{"lat":"40.4544444","long":"72.57"}},{"country":"kg","city":"Margun","coordinates":{"lat":"40.0333333","long":"69.9333333"}},{"country":"kg","city":"Mariinskoye","coordinates":{"lat":"42.4666667","long":"78.3"}},{"country":"kg","city":"Mashan","coordinates":{"lat":"39.4833333","long":"72.1833333"}},{"country":"kg","city":"Massy","coordinates":{"lat":"41.0666667","long":"72.6333333"}},{"country":"kg","city":"Mast-Murat","coordinates":{"lat":"39.85","long":"69.7333333"}},{"country":"kg","city":"Maydan","coordinates":{"lat":"40.05","long":"72.0833333"}},{"country":"kg","city":"Mayevka","coordinates":{"lat":"42.9102778","long":"74.5686111"}},{"country":"kg","city":"Mayli-Say","coordinates":{"lat":"41.2833333","long":"72.45"}},{"country":"kg","city":"Mayli-Su","coordinates":{"lat":"41.1833333","long":"72.4"}},{"country":"kg","city":"Mayluu-Suu","coordinates":{"lat":"41.2833333","long":"72.45"}},{"country":"kg","city":"Maylysay","coordinates":{"lat":"41.2833333","long":"72.45"}},{"country":"kg","city":"Mayly-Suu","coordinates":{"lat":"41.1833333","long":"72.4"}},{"country":"kg","city":"Maymak","coordinates":{"lat":"42.7","long":"71.2166667"}},{"country":"kg","city":"Mazar-Bulak","coordinates":{"lat":"41.1166667","long":"73.2666667"}},{"country":"kg","city":"Mazar-Bulak","coordinates":{"lat":"40.3833333","long":"73.4166667"}},{"country":"kg","city":"Mazar","coordinates":{"lat":"41.9166667","long":"72.6666667"}},{"country":"kg","city":"Mazar","coordinates":{"lat":"41.6","long":"76.1666667"}},{"country":"kg","city":"Mazarsu","coordinates":{"lat":"41.9166667","long":"72.6666667"}},{"country":"kg","city":"Medrese","coordinates":{"lat":"40.3333333","long":"72.2666667"}},{"country":"kg","city":"Mekka-Turpak","coordinates":{"lat":"41.0833333","long":"72.7666667"}},{"country":"kg","city":"Mikhaylovka","coordinates":{"lat":"41.1","long":"73.2166667"}},{"country":"kg","city":"Mikhaylovka","coordinates":{"lat":"42.6166667","long":"78.3333333"}},{"country":"kg","city":"Millyanfan","coordinates":{"lat":"42.9666667","long":"74.8"}},{"country":"kg","city":"Milyanfan","coordinates":{"lat":"42.9666667","long":"74.8"}},{"country":"kg","city":"Min-Bulak","coordinates":{"lat":"41.4761111","long":"75.8508333"}},{"country":"kg","city":"Mineral'nyy Istochnik Altyn-Arasan","coordinates":{"lat":"42.3666667","long":"78.6"}},{"country":"kg","city":"Ming-Bulak","coordinates":{"lat":"41.4761111","long":"75.8508333"}},{"country":"kg","city":"Mingteke","coordinates":{"lat":"41.95","long":"74.3833333"}},{"country":"kg","city":"Min-Kush","coordinates":{"lat":"41.6833333","long":"74.4666667"}},{"country":"kg","city":"Minteke","coordinates":{"lat":"41.95","long":"74.3833333"}},{"country":"kg","city":"Mirza-Aki","coordinates":{"lat":"40.75","long":"73.4166667"}},{"country":"kg","city":"Mogila Samay","coordinates":{"lat":"42.5666667","long":"78.7"}},{"country":"kg","city":"Mogol","coordinates":{"lat":"41.3","long":"73.0333333"}},{"country":"kg","city":"Molotovabad","coordinates":{"lat":"40.2333333","long":"72.0666667"}},{"country":"kg","city":"Molotovskiy","coordinates":{"lat":"42.8166667","long":"73.6833333"}},{"country":"kg","city":"Molotovsk","coordinates":{"lat":"42.8166667","long":"73.6833333"}},{"country":"kg","city":"Monchak-Tepe","coordinates":{"lat":"41.3","long":"71.3166667"}},{"country":"kg","city":"Mukur","coordinates":{"lat":"41.5333333","long":"71.8833333"}},{"country":"kg","city":"Munduz","coordinates":{"lat":"42.45","long":"78.1333333"}},{"country":"kg","city":"Murakinskoye","coordinates":{"lat":"42.75","long":"74.0"}},{"country":"kg","city":"Murdash","coordinates":{"lat":"40.15","long":"73.45"}},{"country":"kg","city":"Murkut","coordinates":{"lat":"40.3","long":"72.2"}},{"country":"kg","city":"Musabek","coordinates":{"lat":"41.7166667","long":"70.7666667"}},{"country":"kg","city":"Muvabek","coordinates":{"lat":"41.7166667","long":"70.7666667"}},{"country":"kg","city":"Muztor","coordinates":{"lat":"41.8294444","long":"72.8547222"}},{"country":"kg","city":"Mykach","coordinates":{"lat":"42.9305556","long":"74.6536111"}},{"country":"kg","city":"Mykan","coordinates":{"lat":"42.9305556","long":"74.6536111"}},{"country":"kg","city":"Naiza","coordinates":{"lat":"41.5833333","long":"70.3833333"}},{"country":"kg","city":"Nariman","coordinates":{"lat":"40.5541667","long":"72.7911111"}},{"country":"kg","city":"Naron","coordinates":{"lat":"41.43","long":"76.0"}},{"country":"kg","city":"Naryn","coordinates":{"lat":"41.3458333","long":"72.21"}},{"country":"kg","city":"Naryn","coordinates":{"lat":"41.43","long":"76.0"}},{"country":"kg","city":"Naukent","coordinates":{"lat":"41.05","long":"72.5666667"}},{"country":"kg","city":"Nayman","coordinates":{"lat":"40.2833333","long":"72.3333333"}},{"country":"kg","city":"Nayza","coordinates":{"lat":"41.5833333","long":"70.3833333"}},{"country":"kg","city":"Nazar-Makhram","coordinates":{"lat":"40.6666667","long":"72.0666667"}},{"country":"kg","city":"Nazyk","coordinates":{"lat":"39.95","long":"73.4666667"}},{"country":"kg","city":"Nichke","coordinates":{"lat":"41.7166667","long":"73.4166667"}},{"country":"kg","city":"Nikolaevskoye","coordinates":{"lat":"42.7","long":"78.3"}},{"country":"kg","city":"Nikolayevka","coordinates":{"lat":"42.8","long":"73.6833333"}},{"country":"kg","city":"Nikolayevka","coordinates":{"lat":"42.7","long":"78.3"}},{"country":"kg","city":"Nikolayevskoye","coordinates":{"lat":"42.7","long":"78.3"}},{"country":"kg","city":"Niyaz","coordinates":{"lat":"41.0166667","long":"72.95"}},{"country":"kg","city":"Nizhniy Norus","coordinates":{"lat":"42.9236111","long":"74.7433333"}},{"country":"kg","city":"Nizhniy Orok","coordinates":{"lat":"42.8083333","long":"74.5358333"}},{"country":"kg","city":"Nizhnyaya Ala-Archa","coordinates":{"lat":"42.9188889","long":"74.5675"}},{"country":"kg","city":"Noruskel'","coordinates":{"lat":"39.6166667","long":"72.3333333"}},{"country":"kg","city":"Novokonstantinovka","coordinates":{"lat":"42.55","long":"78.6666667"}},{"country":"kg","city":"Novo Konstantinovka","coordinates":{"lat":"42.6","long":"78.7333333"}},{"country":"kg","city":"Novo-Mikhaylovka","coordinates":{"lat":"42.8166667","long":"75.5333333"}},{"country":"kg","city":"Novopavlovka","coordinates":{"lat":"42.8705556","long":"74.4866667"}},{"country":"kg","city":"Novopokrovka","coordinates":{"lat":"42.8658333","long":"74.7361111"}},{"country":"kg","city":"Novopokrovskoye","coordinates":{"lat":"42.8658333","long":"74.7361111"}},{"country":"kg","city":"Novo-Pokrovskoye","coordinates":{"lat":"42.3408333","long":"77.9980556"}},{"country":"kg","city":"Novorossiyka","coordinates":{"lat":"42.735","long":"76.0791667"}},{"country":"kg","city":"Novorssiyskoye","coordinates":{"lat":"42.735","long":"76.0791667"}},{"country":"kg","city":"Novo-Troitskoye","coordinates":{"lat":"42.8333333","long":"74.3166667"}},{"country":"kg","city":"Novovoznesenovka","coordinates":{"lat":"42.6","long":"78.7333333"}},{"country":"kg","city":"Novo-Voznesenskoye","coordinates":{"lat":"42.6","long":"78.7333333"}},{"country":"kg","city":"Novoye Pokrovskoye","coordinates":{"lat":"42.8658333","long":"74.7361111"}},{"country":"kg","city":"Nov Pokrovka","coordinates":{"lat":"42.3408333","long":"77.9980556"}},{"country":"kg","city":"Noygut","coordinates":{"lat":"40.0166667","long":"71.2166667"}},{"country":"kg","city":"Nura","coordinates":{"lat":"40.9","long":"73.1833333"}},{"country":"kg","city":"Nura","coordinates":{"lat":"39.6333333","long":"73.8666667"}},{"country":"kg","city":"Okhna","coordinates":{"lat":"40.05","long":"71.7"}},{"country":"kg","city":"Oktyabr'","coordinates":{"lat":"41.8166667","long":"73.0333333"}},{"country":"kg","city":"Oktyabr'","coordinates":{"lat":"40.6833333","long":"73.4666667"}},{"country":"kg","city":"Oktyabr'skiy","coordinates":{"lat":"42.8","long":"75.35"}},{"country":"kg","city":"Oktyabr'skoye","coordinates":{"lat":"41.05","long":"73.1"}},{"country":"kg","city":"Oktyabr'skoye","coordinates":{"lat":"42.5","long":"78.4333333"}},