[{"country":"ve","city":"1 Beneficio","coordinates":{"lat":"11.0","long":"-70.6666667"}},{"country":"ve","city":"Abajo Higuerón","coordinates":{"lat":"7.3916667","long":"-71.6394444"}},{"country":"ve","city":"Abasacapán","coordinates":{"lat":"5.7166667","long":"-62.3"}},{"country":"ve","city":"Abati","coordinates":{"lat":"7.2","long":"-61.05"}},{"country":"ve","city":"Abejales","coordinates":{"lat":"7.6","long":"-71.5166667"}},{"country":"ve","city":"Abelera","coordinates":{"lat":"7.35","long":"-67.15"}},{"country":"ve","city":"Abrea","coordinates":{"lat":"7.8833333","long":"-67.95"}},{"country":"ve","city":"Abreu","coordinates":{"lat":"10.3172222","long":"-66.5505556"}},{"country":"ve","city":"Abudure","coordinates":{"lat":"11.8","long":"-70.0166667"}},{"country":"ve","city":"Acaboa","coordinates":{"lat":"12.0075","long":"-70.1472222"}},{"country":"ve","city":"Acaoba","coordinates":{"lat":"12.1","long":"-70.1666667"}},{"country":"ve","city":"Acapral","coordinates":{"lat":"9.2833333","long":"-67.5666667"}},{"country":"ve","city":"Acapralito","coordinates":{"lat":"9.2666667","long":"-65.7"}},{"country":"ve","city":"Acapulco","coordinates":{"lat":"9.9666667","long":"-65.1666667"}},{"country":"ve","city":"Acarigua","coordinates":{"lat":"11.3088889","long":"-69.4527778"}},{"country":"ve","city":"Acarigua","coordinates":{"lat":"11.05","long":"-63.9166667"}},{"country":"ve","city":"Acarigua","coordinates":{"lat":"9.5597222","long":"-69.2019444"}},{"country":"ve","city":"Acarigua","coordinates":{"lat":"10.2333333","long":"-63.9"}},{"country":"ve","city":"Aceite","coordinates":{"lat":"8.8833333","long":"-67.2666667"}},{"country":"ve","city":"Aceites","coordinates":{"lat":"7.0166667","long":"-67.4"}},{"country":"ve","city":"Aceitico","coordinates":{"lat":"7.0166667","long":"-67.4"}},{"country":"ve","city":"Aceitico","coordinates":{"lat":"6.5691667","long":"-66.9775"}},{"country":"ve","city":"Aceitico","coordinates":{"lat":"8.5","long":"-67.4166667"}},{"country":"ve","city":"Aceituna de Coromoto","coordinates":{"lat":"10.975","long":"-70.7333333"}},{"country":"ve","city":"Aceituno","coordinates":{"lat":"8.25","long":"-69.9833333"}},{"country":"ve","city":"Aceituno","coordinates":{"lat":"9.9666667","long":"-70.4166667"}},{"country":"ve","city":"Aceituno","coordinates":{"lat":"10.7666667","long":"-71.5666667"}},{"country":"ve","city":"Acequias","coordinates":{"lat":"8.4302778","long":"-71.2419444"}},{"country":"ve","city":"Acequioncito","coordinates":{"lat":"8.96","long":"-68.9466667"}},{"country":"ve","city":"Acetico","coordinates":{"lat":"7.0166667","long":"-67.4"}},{"country":"ve","city":"Acevedo","coordinates":{"lat":"10.4","long":"-66.3"}},{"country":"ve","city":"Achaguas","coordinates":{"lat":"7.7666667","long":"-68.2333333"}},{"country":"ve","city":"Acorote","coordinates":{"lat":"11.3433333","long":"-70.2325"}},{"country":"ve","city":"Acueducto","coordinates":{"lat":"10.5425","long":"-71.7041667"}},{"country":"ve","city":"Acurigua","coordinates":{"lat":"11.3088889","long":"-69.4527778"}},{"country":"ve","city":"Acurigüita","coordinates":{"lat":"11.385","long":"-69.3144444"}},{"country":"ve","city":"Adaro","coordinates":{"lat":"11.7666667","long":"-70.2166667"}},{"country":"ve","city":"Adaure","coordinates":{"lat":"11.8863889","long":"-69.9866667"}},{"country":"ve","city":"Adícora","coordinates":{"lat":"11.9455556","long":"-69.8022222"}},{"country":"ve","city":"Adjuntas","coordinates":{"lat":"10.05","long":"-67.7666667"}},{"country":"ve","city":"Adjuntas","coordinates":{"lat":"9.4166667","long":"-69.9333333"}},{"country":"ve","city":"Adrián","coordinates":{"lat":"8.2083333","long":"-66.2666667"}},{"country":"ve","city":"Aduana","coordinates":{"lat":"10.5666667","long":"-69.68"}},{"country":"ve","city":"Aduazero","coordinates":{"lat":"8.75","long":"-69.8333333"}},{"country":"ve","city":"Aeropuerto Barrio","coordinates":{"lat":"8.4883333","long":"-68.3672222"}},{"country":"ve","city":"África","coordinates":{"lat":"7.6833333","long":"-69.1166667"}},{"country":"ve","city":"Agarroba","coordinates":{"lat":"7.8333333","long":"-67.7666667"}},{"country":"ve","city":"Agua","coordinates":{"lat":"8.7372222","long":"-70.3394444"}},{"country":"ve","city":"Agua","coordinates":{"lat":"10.75","long":"-68.4333333"}},{"country":"ve","city":"Agua Amarilla","coordinates":{"lat":"8.7166667","long":"-64.8"}},{"country":"ve","city":"Agua Amarilla","coordinates":{"lat":"9.8333333","long":"-68.7166667"}},{"country":"ve","city":"Agua Amarilla","coordinates":{"lat":"8.8294444","long":"-65.025"}},{"country":"ve","city":"Agua Amarilla","coordinates":{"lat":"9.4588889","long":"-69.6338889"}},{"country":"ve","city":"Agua Amarilla","coordinates":{"lat":"10.0352778","long":"-66.8472222"}},{"country":"ve","city":"Agua Amarillo","coordinates":{"lat":"10.1833333","long":"-67.1166667"}},{"country":"ve","city":"Agua Azul","coordinates":{"lat":"10.1611111","long":"-69.175"}},{"country":"ve","city":"Agua Azul","coordinates":{"lat":"9.1516667","long":"-71.1466667"}},{"country":"ve","city":"Agua Azul","coordinates":{"lat":"10.1633333","long":"-69.1783333"}},{"country":"ve","city":"Agua Blanca","coordinates":{"lat":"5.4847222","long":"-67.6052778"}},{"country":"ve","city":"Agua Blanca","coordinates":{"lat":"7.9494444","long":"-65.3872222"}},{"country":"ve","city":"Agua Blanca","coordinates":{"lat":"8.8302778","long":"-70.1627778"}},{"country":"ve","city":"Agua Blanca","coordinates":{"lat":"7.5988889","long":"-62.3755556"}},{"country":"ve","city":"Agua Blanca","coordinates":{"lat":"10.0369444","long":"-67.8461111"}},{"country":"ve","city":"Agua Blanca","coordinates":{"lat":"11.1333333","long":"-68.6333333"}},{"country":"ve","city":"Agua Blanca","coordinates":{"lat":"8.7916667","long":"-66.6683333"}},{"country":"ve","city":"Agua Blanca","coordinates":{"lat":"10.0583333","long":"-70.4177778"}},{"country":"ve","city":"Agua Blanca","coordinates":{"lat":"8.2083333","long":"-71.3763889"}},{"country":"ve","city":"Agua Blanca","coordinates":{"lat":"10.0602778","long":"-66.4655556"}},{"country":"ve","city":"Agua Blanca","coordinates":{"lat":"10.0277778","long":"-63.3113889"}},{"country":"ve","city":"Agua Blanca","coordinates":{"lat":"9.6672222","long":"-69.0988889"}},{"country":"ve","city":"Agua Blanca","coordinates":{"lat":"10.2333333","long":"-63.8166667"}},{"country":"ve","city":"Agua Blanca","coordinates":{"lat":"7.7586111","long":"-72.2936111"}},{"country":"ve","city":"Agua Blanca","coordinates":{"lat":"9.4213889","long":"-70.5880556"}},{"country":"ve","city":"Agua Blanca","coordinates":{"lat":"10.2538889","long":"-68.7622222"}},{"country":"ve","city":"Agua Blanca","coordinates":{"lat":"9.9416667","long":"-71.0288889"}},{"country":"ve","city":"Agua Blanca La Palma","coordinates":{"lat":"10.0369444","long":"-67.8461111"}},{"country":"ve","city":"Agua Blanquita","coordinates":{"lat":"6.4611111","long":"-67.0630556"}},{"country":"ve","city":"Agua Buena","coordinates":{"lat":"10.5738889","long":"-69.7405556"}},{"country":"ve","city":"Agua Buena","coordinates":{"lat":"10.2133333","long":"-66.2352778"}},{"country":"ve","city":"Agua Caliente","coordinates":{"lat":"10.0333333","long":"-65.3333333"}},{"country":"ve","city":"Agua Caliente","coordinates":{"lat":"8.5166667","long":"-70.4"}},{"country":"ve","city":"Agua Caliente","coordinates":{"lat":"10.3033333","long":"-67.6905556"}},{"country":"ve","city":"Agua Caliente","coordinates":{"lat":"8.235","long":"-71.6763889"}},{"country":"ve","city":"Agua Caliente","coordinates":{"lat":"10.1666667","long":"-67.0666667"}},{"country":"ve","city":"Agua Caliente","coordinates":{"lat":"10.3205556","long":"-63.5605556"}},{"country":"ve","city":"Agua Caliente","coordinates":{"lat":"7.9180556","long":"-72.4294444"}},{"country":"ve","city":"Agua Caliente","coordinates":{"lat":"9.6272222","long":"-70.5947222"}},{"country":"ve","city":"Agua Caliente","coordinates":{"lat":"10.0977778","long":"-68.8027778"}},{"country":"ve","city":"Agua Caliente","coordinates":{"lat":"8.7166667","long":"-72.4666667"}},{"country":"ve","city":"Agua Calientica","coordinates":{"lat":"10.0333333","long":"-65.3166667"}},{"country":"ve","city":"Aguacatal","coordinates":{"lat":"10.4538889","long":"-67.2694444"}},{"country":"ve","city":"Aguacate","coordinates":{"lat":"10.0666667","long":"-67.4333333"}},{"country":"ve","city":"Aguacate","coordinates":{"lat":"10.35","long":"-67.75"}},{"country":"ve","city":"Aguacates","coordinates":{"lat":"9.85","long":"-67.8833333"}},{"country":"ve","city":"Aguacates","coordinates":{"lat":"11.3","long":"-68.6333333"}},{"country":"ve","city":"Aguacates","coordinates":{"lat":"10.3333333","long":"-70.6666667"}},{"country":"ve","city":"Aguacatico","coordinates":{"lat":"9.8777778","long":"-67.8783333"}},{"country":"ve","city":"Aguacatico","coordinates":{"lat":"9.85","long":"-67.8833333"}},{"country":"ve","city":"Aguacerito","coordinates":{"lat":"11.2766667","long":"-69.4455556"}},{"country":"ve","city":"Aguacero","coordinates":{"lat":"8.75","long":"-69.8333333"}},{"country":"ve","city":"Agua Chiquita","coordinates":{"lat":"11.0166667","long":"-70.735"}},{"country":"ve","city":"Agua Clara","coordinates":{"lat":"8.7833333","long":"-64.5166667"}},{"country":"ve","city":"Agua Clara","coordinates":{"lat":"10.0697222","long":"-67.6522222"}},{"country":"ve","city":"Agua Clara","coordinates":{"lat":"7.2338889","long":"-62.1583333"}},{"country":"ve","city":"Agua Clara","coordinates":{"lat":"11.1627778","long":"-69.9783333"}},{"country":"ve","city":"Agua Clara","coordinates":{"lat":"9.4527778","long":"-69.9738889"}},{"country":"ve","city":"Agua Clara","coordinates":{"lat":"10.3583333","long":"-64.115"}},{"country":"ve","city":"Agua Clara","coordinates":{"lat":"7.6805556","long":"-71.6788889"}},{"country":"ve","city":"Agua Clara","coordinates":{"lat":"9.2730556","long":"-70.6341667"}},{"country":"ve","city":"Agua Clara","coordinates":{"lat":"10.3422222","long":"-71.3675"}},{"country":"ve","city":"Agua Clarita","coordinates":{"lat":"8.9066667","long":"-62.8261111"}},{"country":"ve","city":"Agua Clarita","coordinates":{"lat":"10.4138889","long":"-63.3"}},{"country":"ve","city":"Agua Colorada","coordinates":{"lat":"8.3091667","long":"-70.7491667"}},{"country":"ve","city":"Agua Colorada","coordinates":{"lat":"10.6925","long":"-69.0766667"}},{"country":"ve","city":"Agua Colorada","coordinates":{"lat":"10.2444444","long":"-69.1394444"}},{"country":"ve","city":"Agua Colorada","coordinates":{"lat":"9.0666667","long":"-71.2372222"}},{"country":"ve","city":"Agua Colorada","coordinates":{"lat":"10.4333333","long":"-66.2"}},{"country":"ve","city":"Agua Colorada","coordinates":{"lat":"10.2405556","long":"-64.415"}},{"country":"ve","city":"Agua Colorada","coordinates":{"lat":"9.0697222","long":"-71.2344444"}},{"country":"ve","city":"Aguada de Arenales","coordinates":{"lat":"9.7905556","long":"-70.085"}},{"country":"ve","city":"Aguada de Infante","coordinates":{"lat":"9.8005556","long":"-70.1372222"}},{"country":"ve","city":"Aguada del Calvario","coordinates":{"lat":"9.3033333","long":"-65.8872222"}},{"country":"ve","city":"Aguada del Cielo","coordinates":{"lat":"9.7133333","long":"-65.9416667"}},{"country":"ve","city":"Aguada del Muerto","coordinates":{"lat":"9.65","long":"-65.7055556"}},{"country":"ve","city":"Aguada del Rosario","coordinates":{"lat":"9.1888889","long":"-67.1333333"}},{"country":"ve","city":"Aguada de San Antonio","coordinates":{"lat":"9.5833333","long":"-67.4266667"}},{"country":"ve","city":"Aguada Grande","coordinates":{"lat":"10.5861111","long":"-69.4777778"}},{"country":"ve","city":"Agua de Angel","coordinates":{"lat":"8.875","long":"-69.95"}},{"country":"ve","city":"Agua de Hierro","coordinates":{"lat":"10.7680556","long":"-69.2647222"}},{"country":"ve","city":"Aguadela","coordinates":{"lat":"8.27","long":"-69.5569444"}},{"country":"ve","city":"Agua de Las Flores","coordinates":{"lat":"8.9888889","long":"-70.6211111"}},{"country":"ve","city":"Agua del Medio","coordinates":{"lat":"9.3083333","long":"-66.4188889"}},{"country":"ve","city":"Agua del Tigre","coordinates":{"lat":"10.7605556","long":"-71.22"}},{"country":"ve","city":"Agua de Obispo","coordinates":{"lat":"10.1925","long":"-68.3438889"}},{"country":"ve","city":"Agua de Obispo","coordinates":{"lat":"9.7038889","long":"-70.1072222"}},{"country":"ve","city":"Agua de Urao","coordinates":{"lat":"8.5011111","long":"-71.3919444"}},{"country":"ve","city":"Agua de Vaca","coordinates":{"lat":"11.0133333","long":"-63.9666667"}},{"country":"ve","city":"Aguadía","coordinates":{"lat":"8.1455556","long":"-71.985"}},{"country":"ve","city":"Agua Dulce","coordinates":{"lat":"9.3738889","long":"-64.7811111"}},{"country":"ve","city":"Agua Dulce","coordinates":{"lat":"8.8416667","long":"-70.3955556"}},{"country":"ve","city":"Agua Dulce","coordinates":{"lat":"9.6166667","long":"-68.65"}},{"country":"ve","city":"Agua Dulce","coordinates":{"lat":"10.8538889","long":"-69.2441667"}},{"country":"ve","city":"Agua Dulce","coordinates":{"lat":"10.4027778","long":"-69.3205556"}},{"country":"ve","city":"Agua Dulce","coordinates":{"lat":"8.5372222","long":"-71.2625"}},{"country":"ve","city":"Agua Dulce","coordinates":{"lat":"10.4583333","long":"-66.6972222"}},{"country":"ve","city":"Agua Dulce","coordinates":{"lat":"10.0116667","long":"-63.6611111"}},{"country":"ve","city":"Agua Dulce","coordinates":{"lat":"10.6583333","long":"-63.0005556"}},{"country":"ve","city":"Agua Dulce","coordinates":{"lat":"7.6541667","long":"-72.1916667"}},{"country":"ve","city":"Agua Dulce","coordinates":{"lat":"9.8769444","long":"-68.8572222"}},{"country":"ve","city":"Agua Fría Abajo","coordinates":{"lat":"10.4544444","long":"-63.2805556"}},{"country":"ve","city":"Agua Fría","coordinates":{"lat":"8.7275","long":"-63.5663889"}},{"country":"ve","city":"Agua Fria","coordinates":{"lat":"10.1","long":"-67.1666667"}},{"country":"ve","city":"Agua Fría","coordinates":{"lat":"8.8516667","long":"-70.4788889"}},{"country":"ve","city":"Agua Fría","coordinates":{"lat":"10.2394444","long":"-69.0977778"}},{"country":"ve","city":"Agua Fria","coordinates":{"lat":"10.3286111","long":"-66.8875"}},{"country":"ve","city":"Agua Fría","coordinates":{"lat":"10.1611111","long":"-63.8"}},{"country":"ve","city":"Agua Fría","coordinates":{"lat":"7.7811111","long":"-71.6288889"}},{"country":"ve","city":"Agua Fría","coordinates":{"lat":"9.2461111","long":"-70.1077778"}},{"country":"ve","city":"Agua Fría","coordinates":{"lat":"10.1244444","long":"-68.7116667"}},{"country":"ve","city":"Agua Fría Arriba","coordinates":{"lat":"10.4616667","long":"-63.2627778"}},{"country":"ve","city":"Agua Grande","coordinates":{"lat":"8.7822222","long":"-65.3616667"}},{"country":"ve","city":"Agua Grande","coordinates":{"lat":"10.5861111","long":"-69.4777778"}},{"country":"ve","city":"Agua Grande","coordinates":{"lat":"10.4","long":"-66.3"}},{"country":"ve","city":"Agua Hedionda","coordinates":{"lat":"9.9261111","long":"-67.8916667"}},{"country":"ve","city":"Agua Hedionda","coordinates":{"lat":"9.7888889","long":"-67.4155556"}},{"country":"ve","city":"Agua Larga","coordinates":{"lat":"8.3269444","long":"-69.6072222"}},{"country":"ve","city":"Agua Larga","coordinates":{"lat":"10.8922222","long":"-69.7244444"}},{"country":"ve","city":"Agua Larga","coordinates":{"lat":"8.9172222","long":"-70.7905556"}},{"country":"ve","city":"Agua Larga de Dolores","coordinates":{"lat":"8.3194444","long":"-69.5327778"}},{"country":"ve","city":"Agua Larga de Libertad","coordinates":{"lat":"8.3269444","long":"-69.6072222"}},{"country":"ve","city":"Agua Linda","coordinates":{"lat":"5.5666667","long":"-67.1166667"}},{"country":"ve","city":"Agua Linda","coordinates":{"lat":"6.9333333","long":"-67.8666667"}},{"country":"ve","city":"Agua Linda","coordinates":{"lat":"7.3166667","long":"-70.8666667"}},{"country":"ve","city":"Agua Linda","coordinates":{"lat":"7.8505556","long":"-63.805"}},{"country":"ve","city":"Agua Linda","coordinates":{"lat":"9.9538889","long":"-68.1477778"}},{"country":"ve","city":"Agua Linda","coordinates":{"lat":"10.3955556","long":"-68.4433333"}},{"country":"ve","city":"Agua Linda","coordinates":{"lat":"10.0944444","long":"-70.1166667"}},{"country":"ve","city":"Agua Linda","coordinates":{"lat":"7.4363889","long":"-72.0986111"}},{"country":"ve","city":"Agua Linda","coordinates":{"lat":"9.1655556","long":"-70.0875"}},{"country":"ve","city":"Agua Linda","coordinates":{"lat":"9.9755556","long":"-68.6916667"}},{"country":"ve","city":"Agua Linda","coordinates":{"lat":"10.1675","long":"-70.7027778"}},{"country":"ve","city":"Agua Mansa","coordinates":{"lat":"8.2808333","long":"-71.8988889"}},{"country":"ve","city":"Aguamare","coordinates":{"lat":"10.0836111","long":"-66.0455556"}},{"country":"ve","city":"Agua María","coordinates":{"lat":"11.0130556","long":"-69.1163889"}},{"country":"ve","city":"Agua Marsa","coordinates":{"lat":"8.2808333","long":"-71.8988889"}},{"country":"ve","city":"Agua Negra","coordinates":{"lat":"8.6061111","long":"-69.8888889"}},{"country":"ve","city":"Agua Negra","coordinates":{"lat":"7.2608333","long":"-66.4963889"}},{"country":"ve","city":"Agua Negra","coordinates":{"lat":"9.85","long":"-68.5166667"}},{"country":"ve","city":"Agua Negra","coordinates":{"lat":"11.1719444","long":"-70.41"}},{"country":"ve","city":"Agua Negra","coordinates":{"lat":"9.1383333","long":"-65.5211111"}},{"country":"ve","city":"Agua Negra","coordinates":{"lat":"10.0563889","long":"-69.165"}},{"country":"ve","city":"Agua Negra","coordinates":{"lat":"9.9833333","long":"-65.8"}},{"country":"ve","city":"Agua Negra","coordinates":{"lat":"9.605","long":"-69.4516667"}},{"country":"ve","city":"Agua Negra","coordinates":{"lat":"10.0572222","long":"-69.1622222"}},{"country":"ve","city":"Agua Negra","coordinates":{"lat":"9.9069444","long":"-70.9758333"}},{"country":"ve","city":"Agua Nieve","coordinates":{"lat":"7.5155556","long":"-65.6788889"}},{"country":"ve","city":"Aguanta Callado","coordinates":{"lat":"7.5455556","long":"-71.5277778"}},{"country":"ve","city":"Agua Nueva","coordinates":{"lat":"9.3083333","long":"-66.4188889"}},{"country":"ve","city":"Agua Rosada","coordinates":{"lat":"10.7466667","long":"-69.1394444"}},{"country":"ve","city":"Aguaruca","coordinates":{"lat":"10.1294444","long":"-68.965"}},{"country":"ve","city":"Aguaruca Arriba","coordinates":{"lat":"10.1322222","long":"-68.9769444"}},{"country":"ve","city":"Agua Salada","coordinates":{"lat":"9.4819444","long":"-64.7438889"}},{"country":"ve","city":"Agua Salada","coordinates":{"lat":"7.2","long":"-62.05"}},{"country":"ve","city":"Agua Salada","coordinates":{"lat":"10.7719444","long":"-69.5666667"}},{"country":"ve","city":"Agua Salada","coordinates":{"lat":"9.1633333","long":"-65.775"}},{"country":"ve","city":"Agua Salada","coordinates":{"lat":"10.1555556","long":"-69.9466667"}},{"country":"ve","city":"Aguasal","coordinates":{"lat":"10.4666667","long":"-66.1166667"}},{"country":"ve","city":"Agua Salud","coordinates":{"lat":"10.2627778","long":"-66.0852778"}},{"country":"ve","city":"Agua Santa","coordinates":{"lat":"9.5438889","long":"-64.7141667"}},{"country":"ve","city":"Agua Santa","coordinates":{"lat":"10.2905556","long":"-69.275"}},{"country":"ve","city":"Agua Santa","coordinates":{"lat":"10.35","long":"-64.11"}},{"country":"ve","city":"Agua Santa","coordinates":{"lat":"9.5166667","long":"-70.6666667"}},{"country":"ve","city":"Agua Santa","coordinates":{"lat":"10.4108333","long":"-71.1288889"}},{"country":"ve","city":"Aguasay","coordinates":{"lat":"9.4277778","long":"-63.7297222"}},{"country":"ve","city":"Aguas Calientes","coordinates":{"lat":"7.7727778","long":"-71.4777778"}},{"country":"ve","city":"Aguas Calientes","coordinates":{"lat":"7.9180556","long":"-72.4294444"}},{"country":"ve","city":"Aguas Claras","coordinates":{"lat":"7.3833333","long":"-69.9833333"}},{"country":"ve","city":"Aguas Coloradas","coordinates":{"lat":"10.2883333","long":"-70.3"}},{"country":"ve","city":"Aguas Muertas","coordinates":{"lat":"8.0716667","long":"-66.6766667"}},{"country":"ve","city":"Aguas Muertas","coordinates":{"lat":"9.3333333","long":"-71.75"}},{"country":"ve","city":"Agua Sola","coordinates":{"lat":"9.3266667","long":"-64.6583333"}},{"country":"ve","city":"Aguas Termales","coordinates":{"lat":"10.3077778","long":"-68.0872222"}},{"country":"ve","city":"Agua Sucia","coordinates":{"lat":"9.0694444","long":"-69.8433333"}},{"country":"ve","city":"Agua Turbia","coordinates":{"lat":"9.6338889","long":"-69.8833333"}},{"country":"ve","city":"Agua Verde","coordinates":{"lat":"8.0166667","long":"-69.55"}},{"country":"ve","city":"Agua Verde","coordinates":{"lat":"7.0372222","long":"-63.2444444"}},{"country":"ve","city":"Agua Verde","coordinates":{"lat":"7.9105556","long":"-67.195"}},{"country":"ve","city":"Agua Vieja","coordinates":{"lat":"10.3583333","long":"-69.7872222"}},{"country":"ve","city":"Agua Viva","coordinates":{"lat":"8.3175","long":"-69.6061111"}},{"country":"ve","city":"Agua Viva","coordinates":{"lat":"10.7088889","long":"-70.9672222"}},{"country":"ve","city":"Aguaviva","coordinates":{"lat":"11.1166667","long":"-68.65"}},{"country":"ve","city":"Agua Viva","coordinates":{"lat":"11.2719444","long":"-69.9608333"}},{"country":"ve","city":"Agua Viva","coordinates":{"lat":"10.025","long":"-69.2872222"}},{"country":"ve","city":"Agua Viva","coordinates":{"lat":"9.1538889","long":"-69.1961111"}},{"country":"ve","city":"Agua Viva","coordinates":{"lat":"9.5586111","long":"-70.6494444"}},{"country":"ve","city":"Agua Viva","coordinates":{"lat":"10.6641667","long":"-68.6602778"}},{"country":"ve","city":"Agua Viva","coordinates":{"lat":"8.8916667","long":"-71.6205556"}},{"country":"ve","city":"Agüeda","coordinates":{"lat":"10.2166667","long":"-68.1333333"}},{"country":"ve","city":"Agüerito","coordinates":{"lat":"7.5947222","long":"-66.3813889"}},{"country":"ve","city":"Agüide","coordinates":{"lat":"11.35","long":"-68.6833333"}},{"country":"ve","city":"Agüima","coordinates":{"lat":"11.4333333","long":"-69.0166667"}},{"country":"ve","city":"Aguirre","coordinates":{"lat":"10.2436111","long":"-68.2658333"}},{"country":"ve","city":"Aguirre","coordinates":{"lat":"9.7752778","long":"-68.7830556"}},{"country":"ve","city":"Aguita de Dios","coordinates":{"lat":"10.1213889","long":"-68.1933333"}},{"country":"ve","city":"Agusay","coordinates":{"lat":"9.4277778","long":"-63.7297222"}},{"country":"ve","city":"Ahogamula","coordinates":{"lat":"10.1755556","long":"-69.1216667"}},{"country":"ve","city":"Ahorcados","coordinates":{"lat":"10.0666667","long":"-71.2333333"}},{"country":"ve","city":"Aipiapá","coordinates":{"lat":"11.7841667","long":"-71.4502778"}},{"country":"ve","city":"Ají","coordinates":{"lat":"5.7833333","long":"-61.45"}},{"country":"ve","city":"Ajíes","coordinates":{"lat":"10.45","long":"-63.1"}},{"country":"ve","city":"Ajotejana","coordinates":{"lat":"8.7141667","long":"-60.9452778"}},{"country":"ve","city":"Alacran","coordinates":{"lat":"9.0883333","long":"-65.0683333"}},{"country":"ve","city":"Alambique","coordinates":{"lat":"10.6333333","long":"-68.5166667"}},{"country":"ve","city":"Albargatón","coordinates":{"lat":"10.4666667","long":"-68.25"}},{"country":"ve","city":"Albarical","coordinates":{"lat":"5.9833333","long":"-67.4"}},{"country":"ve","city":"Albarical","coordinates":{"lat":"8.2830556","long":"-72.0333333"}},{"country":"ve","city":"Albaricales","coordinates":{"lat":"8.7386111","long":"-72.5616667"}},{"country":"ve","city":"Albarico","coordinates":{"lat":"7.6472222","long":"-72.1216667"}},{"country":"ve","city":"Albarico","coordinates":{"lat":"10.4008333","long":"-68.6911111"}},{"country":"ve","city":"Albelera","coordinates":{"lat":"7.35","long":"-67.15"}},{"country":"ve","city":"Alcabala","coordinates":{"lat":"9.5888889","long":"-69.1880556"}},{"country":"ve","city":"Alcabala","coordinates":{"lat":"10.3977778","long":"-64.2333333"}},{"country":"ve","city":"Alcabala","coordinates":{"lat":"10.6175","long":"-71.4169444"}},{"country":"ve","city":"Alcarabanes","coordinates":{"lat":"10.6666667","long":"-71.7833333"}},{"country":"ve","city":"Alcaral","coordinates":{"lat":"8.7283333","long":"-65.5630556"}},{"country":"ve","city":"Alcaravanes","coordinates":{"lat":"10.6666667","long":"-71.7833333"}},{"country":"ve","city":"Alcornocal","coordinates":{"lat":"9.0333333","long":"-66.3611111"}},{"country":"ve","city":"Alcornocalito","coordinates":{"lat":"7.1455556","long":"-67.2061111"}},{"country":"ve","city":"Alcornoque Largo","coordinates":{"lat":"9.0277778","long":"-66.3461111"}},{"country":"ve","city":"Alcornoquito","coordinates":{"lat":"8.775","long":"-65.3772222"}},{"country":"ve","city":"Alcornoquito Blanco","coordinates":{"lat":"8.4088889","long":"-64.6666667"}},{"country":"ve","city":"Aldea General Salóm","coordinates":{"lat":"7.8333333","long":"-72.3333333"}},{"country":"ve","city":"Aldea Rivas","coordinates":{"lat":"8.1","long":"-72.25"}},{"country":"ve","city":"Aldea San Antonio","coordinates":{"lat":"7.95","long":"-68.4333333"}},{"country":"ve","city":"Alegría","coordinates":{"lat":"9.5333333","long":"-65.7833333"}},{"country":"ve","city":"Alegría","coordinates":{"lat":"10.2683333","long":"-63.6055556"}},{"country":"ve","city":"Alegria","coordinates":{"lat":"10.4238889","long":"-71.7555556"}},{"country":"ve","city":"Alejandría","coordinates":{"lat":"10.1833333","long":"-65.6833333"}},{"country":"ve","city":"Alemán","coordinates":{"lat":"10.1738889","long":"-70.1166667"}},{"country":"ve","city":"Alemán","coordinates":{"lat":"9.1180556","long":"-72.1683333"}},{"country":"ve","city":"Alemania","coordinates":{"lat":"7.6666667","long":"-64.8666667"}},{"country":"ve","city":"Alemania","coordinates":{"lat":"10.1738889","long":"-70.1166667"}},{"country":"ve","city":"Algarí","coordinates":{"lat":"10.1583333","long":"-69.3916667"}},{"country":"ve","city":"Algarroba","coordinates":{"lat":"7.8","long":"-61.95"}},{"country":"ve","city":"Algarrobal","coordinates":{"lat":"10.0272222","long":"-68.1875"}},{"country":"ve","city":"Algarrobal","coordinates":{"lat":"11.3366667","long":"-69.2605556"}},{"country":"ve","city":"Algarrobito","coordinates":{"lat":"11.3383333","long":"-69.3016667"}},{"country":"ve","city":"Algarrobo","coordinates":{"lat":"8.5916667","long":"-64.0288889"}},{"country":"ve","city":"Algarrobo","coordinates":{"lat":"7.2166667","long":"-68.4833333"}},{"country":"ve","city":"Algarrobo","coordinates":{"lat":"8.5169444","long":"-70.5902778"}},{"country":"ve","city":"Algarrobo","coordinates":{"lat":"9.85","long":"-67.8"}},{"country":"ve","city":"Algarrobo","coordinates":{"lat":"9.1666667","long":"-68.3166667"}},{"country":"ve","city":"Algarrobo","coordinates":{"lat":"9.75","long":"-66.2833333"}},{"country":"ve","city":"Algarrobol","coordinates":{"lat":"10.0272222","long":"-68.1875"}},{"country":"ve","city":"Algarrobote","coordinates":{"lat":"7.2833333","long":"-67.6"}},{"country":"ve","city":"Algodonal","coordinates":{"lat":"8.7166667","long":"-68.15"}},{"country":"ve","city":"Algodonal","coordinates":{"lat":"9.6241667","long":"-69.1438889"}},{"country":"ve","city":"Algodonal","coordinates":{"lat":"10.3861111","long":"-71.2425"}},{"country":"ve","city":"Algodones","coordinates":{"lat":"11.3666667","long":"-70.15"}},{"country":"ve","city":"Algodones","coordinates":{"lat":"10.6138889","long":"-69.8138889"}},{"country":"ve","city":"Algorrobo","coordinates":{"lat":"8.7572222","long":"-70.1152778"}},{"country":"ve","city":"Alineadero","coordinates":{"lat":"7.6975","long":"-72.3"}},{"country":"ve","city":"Alineaderos","coordinates":{"lat":"7.6975","long":"-72.3"}},{"country":"ve","city":"Alitain","coordinates":{"lat":"11.3316667","long":"-72.0291667"}},{"country":"ve","city":"Aliviadero","coordinates":{"lat":"10.7944444","long":"-66.955"}},{"country":"ve","city":"Aliviadero","coordinates":{"lat":"10.9205556","long":"-72.1666667"}},{"country":"ve","city":"Alma","coordinates":{"lat":"7.3","long":"-62.1333333"}},{"country":"ve","city":"Almacén","coordinates":{"lat":"8.0669444","long":"-63.8475"}},{"country":"ve","city":"Almacenes","coordinates":{"lat":"8.0669444","long":"-63.8475"}},{"country":"ve","city":"Almorzadero","coordinates":{"lat":"7.2816667","long":"-70.8238889"}},{"country":"ve","city":"Almorzadero","coordinates":{"lat":"7.6666667","long":"-71.05"}},{"country":"ve","city":"Almorzadero","coordinates":{"lat":"8.885","long":"-70.8008333"}},{"country":"ve","city":"Alpanate","coordinates":{"lat":"11.1958333","long":"-72.0077778"}},{"country":"ve","city":"Alpargatón","coordinates":{"lat":"10.4644444","long":"-68.2552778"}},{"country":"ve","city":"Alquitrana","coordinates":{"lat":"7.6397222","long":"-72.3241667"}},{"country":"ve","city":"Altagracia","coordinates":{"lat":"8.5647222","long":"-64.0661111"}},{"country":"ve","city":"Altagracia","coordinates":{"lat":"7.4","long":"-67.45"}},{"country":"ve","city":"Altagracia","coordinates":{"lat":"7.8666667","long":"-65.55"}},{"country":"ve","city":"Altagracia","coordinates":{"lat":"8.34","long":"-67.4133333"}},{"country":"ve","city":"Altagracia","coordinates":{"lat":"10.3361111","long":"-70.1977778"}},{"country":"ve","city":"Altagracia","coordinates":{"lat":"10.1333333","long":"-67.05"}},{"country":"ve","city":"Altagracia","coordinates":{"lat":"11.0955556","long":"-63.9433333"}},{"country":"ve","city":"Altagracia","coordinates":{"lat":"10.61","long":"-62.3244444"}},{"country":"ve","city":"Altagracia","coordinates":{"lat":"10.1166667","long":"-71.2333333"}},{"country":"ve","city":"Altagracia de La Montaña","coordinates":{"lat":"10.1333333","long":"-67.05"}},{"country":"ve","city":"Altagracia de Orituco","coordinates":{"lat":"9.8622222","long":"-66.3805556"}},{"country":"ve","city":"Altamira","coordinates":{"lat":"9.9916667","long":"-64.2061111"}},{"country":"ve","city":"Altamira","coordinates":{"lat":"8.8327778","long":"-70.5244444"}},{"country":"ve","city":"Altamira","coordinates":{"lat":"7.5","long":"-63.25"}},{"country":"ve","city":"Altamira","coordinates":{"lat":"10.0061111","long":"-67.7802778"}},{"country":"ve","city":"Altamira","coordinates":{"lat":"9.5166667","long":"-68.3333333"}},{"country":"ve","city":"Altamira","coordinates":{"lat":"8.5872222","long":"-65.5691667"}},{"country":"ve","city":"Altamira","coordinates":{"lat":"10.6194444","long":"-69.17"}},{"country":"ve","city":"Altamira","coordinates":{"lat":"10.5111111","long":"-66.85"}},{"country":"ve","city":"Altamira","coordinates":{"lat":"10.2361111","long":"-63.5088889"}},{"country":"ve","city":"Altamira","coordinates":{"lat":"9.4783333","long":"-69.9861111"}},{"country":"ve","city":"Altamira","coordinates":{"lat":"7.6333333","long":"-72.3166667"}},{"country":"ve","city":"Altamira","coordinates":{"lat":"9.1583333","long":"-70.3644444"}},{"country":"ve","city":"Altamira","coordinates":{"lat":"10.3902778","long":"-68.8936111"}},{"country":"ve","city":"Altamira","coordinates":{"lat":"10.0016667","long":"-70.7027778"}},{"country":"ve","city":"Altamizal","coordinates":{"lat":"8.5333333","long":"-68.1166667"}},{"country":"ve","city":"Alto Alegre","coordinates":{"lat":"9.1166667","long":"-64.8333333"}},{"country":"ve","city":"Alto Amara","coordinates":{"lat":"10.5905556","long":"-62.5372222"}},{"country":"ve","city":"Alto Amundarai","coordinates":{"lat":"10.02","long":"-63.8688889"}},{"country":"ve","city":"Alto Barinas","coordinates":{"lat":"8.5944444","long":"-70.2222222"}},{"country":"ve","city":"Alto Barrieño","coordinates":{"lat":"10.0166667","long":"-64.0861111"}},{"country":"ve","city":"Alto Blascoa","coordinates":{"lat":"10.4511111","long":"-63.6202778"}},{"country":"ve","city":"Alto Cachimbo","coordinates":{"lat":"8.8388889","long":"-65.7061111"}},{"country":"ve","city":"Alto Caribe","coordinates":{"lat":"9.9333333","long":"-64.5611111"}},{"country":"ve","city":"Alto Castillero","coordinates":{"lat":"10.0422222","long":"-64.4833333"}},{"country":"ve","city":"Alto Clarindero","coordinates":{"lat":"9.6722222","long":"-64.7061111"}},{"country":"ve","city":"Alto Coruma","coordinates":{"lat":"10.2913889","long":"-66.8141667"}},{"country":"ve","city":"Alto de Cañafístola","coordinates":{"lat":"10.0480556","long":"-68.1041667"}},{"country":"ve","city":"Alto de Colmenares","coordinates":{"lat":"9.53","long":"-68.1788889"}},{"country":"ve","city":"Alto de Isnarún","coordinates":{"lat":"9.2580556","long":"-70.5786111"}},{"country":"ve","city":"Alto de Jesus","coordinates":{"lat":"10.425","long":"-70.6"}},{"country":"ve","city":"Alto de La Aguada","coordinates":{"lat":"8.6197222","long":"-70.6769444"}},{"country":"ve","city":"Alto de La Cruz","coordinates":{"lat":"10.4430556","long":"-63.5102778"}},{"country":"ve","city":"Alto de la Cruz","coordinates":{"lat":"9.2383333","long":"-70.6694444"}},{"country":"ve","city":"Alto de La Iguana","coordinates":{"lat":"9.9672222","long":"-63.35"}},{"country":"ve","city":"Alto de La Loma","coordinates":{"lat":"10.3783333","long":"-66.875"}},{"country":"ve","city":"Alto del Arenal","coordinates":{"lat":"8.9516667","long":"-70.6227778"}},{"country":"ve","city":"Alto de La Represa","coordinates":{"lat":"10.28","long":"-66.725"}},{"country":"ve","city":"Alto de Las Cruces","coordinates":{"lat":"8.85","long":"-70.4666667"}},{"country":"ve","city":"Alto del Ébano","coordinates":{"lat":"10.7591667","long":"-71.8913889"}},{"country":"ve","city":"Alto del Ebanos","coordinates":{"lat":"10.7572222","long":"-71.8933333"}},{"country":"ve","city":"Alto del Majonal","coordinates":{"lat":"8.8","long":"-66.5333333"}},{"country":"ve","city":"Alto de Los Godos","coordinates":{"lat":"9.7269444","long":"-63.2141667"}},{"country":"ve","city":"Alto del Río","coordinates":{"lat":"10.2194444","long":"-68.9361111"}},{"country":"ve","city":"Alto del Salobre","coordinates":{"lat":"9.9813889","long":"-63.3461111"}},{"country":"ve","city":"Alto del Sitio","coordinates":{"lat":"10.05","long":"-66.0"}},{"country":"ve","city":"Alto del Viento","coordinates":{"lat":"9.7","long":"-69.6005556"}},{"country":"ve","city":"Alto de Majonal","coordinates":{"lat":"8.8","long":"-66.5333333"}},{"country":"ve","city":"Alto de Merecure","coordinates":{"lat":"10.3716667","long":"-66.375"}},{"country":"ve","city":"Alto de Niño","coordinates":{"lat":"8.1402778","long":"-72.0583333"}},{"country":"ve","city":"Alto de Piedra","coordinates":{"lat":"9.165","long":"-70.1280556"}},{"country":"ve","city":"Alto de Reyes","coordinates":{"lat":"10.1586111","long":"-68.2838889"}},{"country":"ve","city":"Alto de Rincón","coordinates":{"lat":"9.4833333","long":"-68.1833333"}},{"country":"ve","city":"Alto de San Juan","coordinates":{"lat":"9.9141667","long":"-63.8958333"}},{"country":"ve","city":"Alto de San Pedro","coordinates":{"lat":"8.1922222","long":"-72.0208333"}},{"country":"ve","city":"Alto de Santo Domingo","coordinates":{"lat":"8.8061111","long":"-70.8222222"}},{"country":"ve","city":"Alto de Tomón","coordinates":{"lat":"9.1994444","long":"-70.7230556"}},{"country":"ve","city":"Alto de Villa Nueva","coordinates":{"lat":"9.3644444","long":"-70.2583333"}},{"country":"ve","city":"Alto Domingo","coordinates":{"lat":"9.95","long":"-64.75"}},{"country":"ve","city":"Alto Grande","coordinates":{"lat":"7.72","long":"-72.4458333"}},{"country":"ve","city":"Alto La Aguada","coordinates":{"lat":"8.6197222","long":"-70.6769444"}},{"country":"ve","city":"Alto La Cuesta","coordinates":{"lat":"10.1705556","long":"-63.8155556"}},{"country":"ve","city":"Alto La Vera","coordinates":{"lat":"9.4683333","long":"-66.1983333"}},{"country":"ve","city":"Alto Los Barbascos","coordinates":{"lat":"8.9011111","long":"-65.675"}},{"country":"ve","city":"Alto Maderero","coordinates":{"lat":"9.3716667","long":"-66.2666667"}},{"country":"ve","city":"Alto Merecure","coordinates":{"lat":"10.3152778","long":"-66.3622222"}},{"country":"ve","city":"Alto Monte","coordinates":{"lat":"10.2963889","long":"-66.8319444"}},{"country":"ve","city":"Alto Nacacual","coordinates":{"lat":"9.7266667","long":"-64.74"}},{"country":"ve","city":"Alto Ña Paula","coordinates":{"lat":"10.4027778","long":"-66.8166667"}},{"country":"ve","city":"Alto Parasol","coordinates":{"lat":"10.6838889","long":"-62.2611111"}},{"country":"ve","city":"Alto Pele El Ojo","coordinates":{"lat":"10.1222222","long":"-64.0944444"}},{"country":"ve","city":"Alto Quintana","coordinates":{"lat":"10.3583333","long":"-66.7416667"}},{"country":"ve","city":"Alto Raimundo","coordinates":{"lat":"9.4333333","long":"-67.4166667"}},{"country":"ve","city":"Altosano","coordinates":{"lat":"10.4833333","long":"-71.1666667"}},{"country":"ve","city":"Altos Casarapa","coordinates":{"lat":"10.2130556","long":"-66.5811111"}},{"country":"ve","city":"Altos de Castro","coordinates":{"lat":"9.815","long":"-63.3616667"}},{"country":"ve","city":"Altos de Isidra","coordinates":{"lat":"9.9594444","long":"-63.6366667"}},{"country":"ve","city":"Altos de Jalisco","coordinates":{"lat":"10.32","long":"-72.3416667"}},{"country":"ve","city":"Altos de Quebrada Seca","coordinates":{"lat":"10.3294444","long":"-63.9588889"}},{"country":"ve","city":"Altos de San Juan","coordinates":{"lat":"10.1972222","long":"-66.5813889"}},{"country":"ve","city":"Alto Turgua","coordinates":{"lat":"10.1016667","long":"-66.4"}},{"country":"ve","city":"Alto Uchire","coordinates":{"lat":"9.9938889","long":"-65.6316667"}},{"country":"ve","city":"Alto Viento","coordinates":{"lat":"7.6105556","long":"-72.4538889"}},{"country":"ve","city":"Alto Viento","coordinates":{"lat":"9.6333333","long":"-70.9638889"}},{"country":"ve","city":"Alto Viento","coordinates":{"lat":"9.6394444","long":"-70.9675"}},{"country":"ve","city":"Altozano","coordinates":{"lat":"9.2166667","long":"-64.9833333"}},{"country":"ve","city":"Altozano","coordinates":{"lat":"9.37","long":"-63.6266667"}},{"country":"ve","city":"Alvarenga","coordinates":{"lat":"10.2652778","long":"-66.8488889"}},{"country":"ve","city":"Álvarez","coordinates":{"lat":"8.95","long":"-64.7833333"}},{"country":"ve","city":"Álvarez","coordinates":{"lat":"7.8311111","long":"-66.8572222"}},{"country":"ve","city":"Amador","coordinates":{"lat":"9.8361111","long":"-68.1816667"}},{"country":"ve","city":"Amador","coordinates":{"lat":"9.0572222","long":"-62.3586111"}},{"country":"ve","city":"Amaita","coordinates":{"lat":"10.15","long":"-63.5333333"}},{"country":"ve","city":"Amana Abajo","coordinates":{"lat":"9.6486111","long":"-63.1394444"}},{"country":"ve","city":"Amana","coordinates":{"lat":"10.0694444","long":"-64.0555556"}},{"country":"ve","city":"Amana","coordinates":{"lat":"9.65","long":"-63.1333333"}},{"country":"ve","city":"Amana del Tamarindo","coordinates":{"lat":"9.6477778","long":"-63.1222222"}},{"country":"ve","city":"Amanauo","coordinates":{"lat":"4.9","long":"-61.5"}},{"country":"ve","city":"Amanita","coordinates":{"lat":"9.8555556","long":"-65.1041667"}},{"country":"ve","city":"Amanita","coordinates":{"lat":"10.15","long":"-63.5333333"}},{"country":"ve","city":"Aman-tepué","coordinates":{"lat":"4.9333333","long":"-61.1"}},{"country":"ve","city":"Aman-tepuí","coordinates":{"lat":"4.9333333","long":"-61.1"}},{"country":"ve","city":"Amantepuy","coordinates":{"lat":"4.9333333","long":"-61.1"}},{"country":"ve","city":"Amapola","coordinates":{"lat":"10.0480556","long":"-67.7377778"}},{"country":"ve","city":"Amaraya","coordinates":{"lat":"11.89","long":"-70.0680556"}},{"country":"ve","city":"Amarilis","coordinates":{"lat":"9.6425","long":"-63.3380556"}},{"country":"ve","city":"Amarillo","coordinates":{"lat":"10.4","long":"-66.5666667"}},{"country":"ve","city":"Amataima-ta","coordinates":{"lat":"4.75","long":"-61.0"}},{"country":"ve","city":"Amataima-te","coordinates":{"lat":"4.75","long":"-61.0"}},{"country":"ve","city":"Amauaca","coordinates":{"lat":"3.15","long":"-65.5333333"}},{"country":"ve","city":"Amauca","coordinates":{"lat":"3.15","long":"-65.5333333"}},{"country":"ve","city":"Amauruc","coordinates":{"lat":"5.2333333","long":"-61.6833333"}},{"country":"ve","city":"Ambrosio","coordinates":{"lat":"10.4272222","long":"-71.4558333"}},{"country":"ve","city":"Amoay","coordinates":{"lat":"11.7758333","long":"-70.2388889"}},{"country":"ve","city":"Amogral","coordinates":{"lat":"8.1294444","long":"-71.8777778"}},{"country":"ve","city":"Amoroso","coordinates":{"lat":"9.3","long":"-67.8166667"}},{"country":"ve","city":"Amparo","coordinates":{"lat":"7.1047222","long":"-70.7566667"}},{"country":"ve","city":"Amparo","coordinates":{"lat":"9.2833333","long":"-68.7666667"}},{"country":"ve","city":"Amparo","coordinates":{"lat":"11.9333333","long":"-69.925"}},{"country":"ve","city":"Amuay","coordinates":{"lat":"11.7758333","long":"-70.2388889"}},{"country":"ve","city":"Amuñol","coordinates":{"lat":"11.4413889","long":"-71.9875"}},{"country":"ve","city":"Amunor","coordinates":{"lat":"11.4413889","long":"-71.9875"}},{"country":"ve","city":"Amurug","coordinates":{"lat":"5.2333333","long":"-61.6833333"}},{"country":"ve","city":"Amuruipa","coordinates":{"lat":"11.3108333","long":"-72.0158333"}},{"country":"ve","city":"Anacadiña","coordinates":{"lat":"4.55","long":"-65.1666667"}},{"country":"ve","city":"Anacadinya","coordinates":{"lat":"4.55","long":"-65.1666667"}},{"country":"ve","city":"Anaco Abajo","coordinates":{"lat":"9.42","long":"-64.6872222"}},{"country":"ve","city":"Anaco","coordinates":{"lat":"9.4375","long":"-64.4730556"}},{"country":"ve","city":"Anacoco","coordinates":{"lat":"6.735","long":"-61.1311111"}},{"country":"ve","city":"Anamuren","coordinates":{"lat":"10.0833333","long":"-71.0"}},{"country":"ve","city":"Anaquito","coordinates":{"lat":"9.4705556","long":"-64.47"}},{"country":"ve","city":"Anare","coordinates":{"lat":"10.6166667","long":"-66.65"}},{"country":"ve","city":"Anaricapay","coordinates":{"lat":"6.0","long":"-62.2166667"}},{"country":"ve","city":"Anaro","coordinates":{"lat":"7.8105556","long":"-70.2877778"}},{"country":"ve","city":"Anauco","coordinates":{"lat":"9.7644444","long":"-64.3794444"}},{"country":"ve","city":"Ancón","coordinates":{"lat":"10.05","long":"-67.4666667"}},{"country":"ve","city":"Ancón","coordinates":{"lat":"6.7833333","long":"-61.1"}},{"country":"ve","city":"Ancón de Iturbe","coordinates":{"lat":"10.7913889","long":"-71.4444444"}},{"country":"ve","city":"Ancón de Iturre","coordinates":{"lat":"10.7913889","long":"-71.4444444"}},{"country":"ve","city":"Ancón de Yturre","coordinates":{"lat":"10.7913889","long":"-71.4444444"}},{"country":"ve","city":"Andalucía","coordinates":{"lat":"9.6216667","long":"-69.9788889"}},{"country":"ve","city":"Andaluz","coordinates":{"lat":"9.0833333","long":"-65.9166667"}},{"country":"ve","city":"Andaluz","coordinates":{"lat":"10.5","long":"-71.7666667"}},{"country":"ve","city":"Andarreal","coordinates":{"lat":"10.9622222","long":"-70.7166667"}},{"country":"ve","city":"Andrés","coordinates":{"lat":"10.7833333","long":"-71.7333333"}},{"country":"ve","city":"André Tapo","coordinates":{"lat":"1.8977778","long":"-66.6263889"}},{"country":"ve","city":"Anduecera","coordinates":{"lat":"8.7455556","long":"-69.86"}},{"country":"ve","city":"Anduezero","coordinates":{"lat":"8.75","long":"-69.8333333"}},{"country":"ve","city":"Anegadizo","coordinates":{"lat":"4.5402778","long":"-67.5852778"}},{"country":"ve","city":"Angaraveca","coordinates":{"lat":"7.9897222","long":"-72.1438889"}},{"country":"ve","city":"Ángel Costodio","coordinates":{"lat":"7.3166667","long":"-61.7"}},{"country":"ve","city":"Angel Custodio","coordinates":{"lat":"7.3166667","long":"-61.7"}},{"country":"ve","city":"Angoleta","coordinates":{"lat":"11.3383333","long":"-69.6194444"}},{"country":"ve","city":"Angostura","coordinates":{"lat":"10.0833333","long":"-64.5833333"}},{"country":"ve","city":"Angostura","coordinates":{"lat":"8.1222222","long":"-63.5497222"}},{"country":"ve","city":"Angostura","coordinates":{"lat":"9.4211111","long":"-65.7283333"}},{"country":"ve","city":"Angostura","coordinates":{"lat":"10.2077778","long":"-66.5408333"}},{"country":"ve","city":"Angostura","coordinates":{"lat":"9.1333333","long":"-69.4505556"}},{"country":"ve","city":"Angostura","coordinates":{"lat":"7.99","long":"-72.2477778"}},{"country":"ve","city":"Angosturita","coordinates":{"lat":"8.1766667","long":"-63.4177778"}},{"country":"ve","city":"Angulo","coordinates":{"lat":"9.3166667","long":"-68.6166667"}},{"country":"ve","city":"Aniagua","coordinates":{"lat":"10.1044444","long":"-66.9677778"}},{"country":"ve","city":"Aniagüita","coordinates":{"lat":"10.0936111","long":"-66.9683333"}},{"country":"ve","city":"Aniagüita Arriba","coordinates":{"lat":"10.0913889","long":"-66.9777778"}},{"country":"ve","city":"Animas","coordinates":{"lat":"8.4166667","long":"-70.5666667"}},{"country":"ve","city":"Anime Alto","coordinates":{"lat":"8.4611111","long":"-70.605"}},{"country":"ve","city":"Anime","coordinates":{"lat":"8.4166667","long":"-70.5666667"}},{"country":"ve","city":"Anselmito","coordinates":{"lat":"10.3361111","long":"-68.3372222"}},{"country":"ve","city":"Anselmo","coordinates":{"lat":"10.8166667","long":"-72.1166667"}},{"country":"ve","city":"Anteojos","coordinates":{"lat":"9.2525","long":"-70.9044444"}},{"country":"ve","city":"Antigua Carolina","coordinates":{"lat":"7.0666667","long":"-63.9166667"}},{"country":"ve","city":"Antillano","coordinates":{"lat":"9.9561111","long":"-69.3863889"}},{"country":"ve","city":"Antímano","coordinates":{"lat":"10.4666667","long":"-66.9833333"}},{"country":"ve","city":"Antoñico","coordinates":{"lat":"9.1733333","long":"-67.0438889"}},{"country":"ve","city":"Antonio","coordinates":{"lat":"10.9477778","long":"-71.0166667"}},{"country":"ve","city":"Antonio María","coordinates":{"lat":"7.45","long":"-68.4833333"}},{"country":"ve","city":"Antúnez","coordinates":{"lat":"9.9166667","long":"-67.1333333"}},{"country":"ve","city":"Antuni","coordinates":{"lat":"12.0138889","long":"-70.0061111"}},{"country":"ve","city":"Anuáripa","coordinates":{"lat":"11.7166667","long":"-71.5833333"}},{"country":"ve","city":"Anzoátegui","coordinates":{"lat":"9.6027778","long":"-69.8916667"}},{"country":"ve","city":"Apamatal","coordinates":{"lat":"9.035","long":"-69.7338889"}},{"country":"ve","city":"Apamate","coordinates":{"lat":"9.1833333","long":"-64.9"}},{"country":"ve","city":"Apamate","coordinates":{"lat":"8.9666667","long":"-66.0666667"}},{"country":"ve","city":"Apamatico","coordinates":{"lat":"9.95","long":"-67.3166667"}},{"country":"ve","city":"Apamatico","coordinates":{"lat":"9.5544444","long":"-63.0133333"}},{"country":"ve","city":"Apamato","coordinates":{"lat":"10.1561111","long":"-64.5355556"}},{"country":"ve","city":"Apara","coordinates":{"lat":"10.1666667","long":"-66.8833333"}},{"country":"ve","city":"Aparai","coordinates":{"lat":"10.1666667","long":"-66.8833333"}},{"country":"ve","city":"Aparay","coordinates":{"lat":"10.1666667","long":"-66.8833333"}},{"country":"ve","city":"Apariciero","coordinates":{"lat":"9.0833333","long":"-63.1"}},{"country":"ve","city":"Aparicio","coordinates":{"lat":"10.015","long":"-63.5677778"}},{"country":"ve","city":"Aparición","coordinates":{"lat":"8.9166667","long":"-69.7666667"}},{"country":"ve","city":"Aparición de La Coromoto","coordinates":{"lat":"8.95","long":"-69.7666667"}},{"country":"ve","city":"Apartadero","coordinates":{"lat":"9.65","long":"-68.9"}},{"country":"ve","city":"Apartadero","coordinates":{"lat":"8.8061111","long":"-70.8447222"}},{"country":"ve","city":"Apartaderos","coordinates":{"lat":"9.6880556","long":"-68.9441667"}},{"country":"ve","city":"Apartaderos","coordinates":{"lat":"8.8061111","long":"-70.8447222"}},{"country":"ve","city":"Apartaderos","coordinates":{"lat":"7.8002778","long":"-72.3827778"}},{"country":"ve","city":"Aparurén","coordinates":{"lat":"5.1","long":"-62.1333333"}},{"country":"ve","city":"Apisa","coordinates":{"lat":"9.56","long":"-69.0202778"}},{"country":"ve","city":"Apiyai-copué","coordinates":{"lat":"4.8166667","long":"-61.1166667"}},{"country":"ve","city":"Apiyaicupué","coordinates":{"lat":"4.8166667","long":"-61.1166667"}},{"country":"ve","city":"Apoipó","coordinates":{"lat":"4.75","long":"-61.4833333"}},{"country":"ve","city":"Aponte","coordinates":{"lat":"10.4088889","long":"-67.7638889"}},{"country":"ve","city":"Aponte","coordinates":{"lat":"10.2172222","long":"-66.4577778"}},{"country":"ve","city":"Apostadero","coordinates":{"lat":"11.0183333","long":"-63.8133333"}},{"country":"ve","city":"Apoypué","coordinates":{"lat":"4.7166667","long":"-61.4666667"}},{"country":"ve","city":"Apure","coordinates":{"lat":"4.9591667","long":"-67.6438889"}},{"country":"ve","city":"Apure","coordinates":{"lat":"7.9166667","long":"-68.7333333"}},{"country":"ve","city":"Apurito","coordinates":{"lat":"7.9333333","long":"-68.45"}},{"country":"ve","city":"Apururén","coordinates":{"lat":"5.1","long":"-62.1333333"}},{"country":"ve","city":"Aqua Clara","coordinates":{"lat":"11.1627778","long":"-69.9783333"}},{"country":"ve","city":"Aqua Santa","coordinates":{"lat":"9.5166667","long":"-70.6666667"}},{"country":"ve","city":"Arabelo","coordinates":{"lat":"4.9166667","long":"-64.2166667"}},{"country":"ve","city":"Arabeto","coordinates":{"lat":"4.9166667","long":"-64.2166667"}},{"country":"ve","city":"Arabopó","coordinates":{"lat":"5.1","long":"-60.7333333"}},{"country":"ve","city":"Aracaicu","coordinates":{"lat":"8.0166667","long":"-63.75"}},{"country":"ve","city":"Aracay","coordinates":{"lat":"8.575","long":"-65.8527778"}},{"country":"ve","city":"Aracay","coordinates":{"lat":"8.9183333","long":"-70.6055556"}},{"country":"ve","city":"Aracay Norte","coordinates":{"lat":"8.6166667","long":"-65.85"}},{"country":"ve","city":"Aracua","coordinates":{"lat":"10.985","long":"-69.5875"}},{"country":"ve","city":"Aragtogba","coordinates":{"lat":"9.56","long":"-72.9288889"}},{"country":"ve","city":"Aragua","coordinates":{"lat":"9.4591667","long":"-64.8275"}},{"country":"ve","city":"Aragua","coordinates":{"lat":"10.1166667","long":"-65.9833333"}},{"country":"ve","city":"Aragua","coordinates":{"lat":"9.9705556","long":"-63.4872222"}},{"country":"ve","city":"Araguabisi","coordinates":{"lat":"9.1841667","long":"-61.0880556"}},{"country":"ve","city":"Aragua de Barcelona","coordinates":{"lat":"9.4591667","long":"-64.8275"}},{"country":"ve","city":"Aragua de Maturín","coordinates":{"lat":"9.9705556","long":"-63.4872222"}},{"country":"ve","city":"Araguaimujo","coordinates":{"lat":"8.7175","long":"-61.5552778"}},{"country":"ve","city":"Araguán","coordinates":{"lat":"11.2666667","long":"-68.9333333"}},{"country":"ve","city":"Araguao","coordinates":{"lat":"9.1666667","long":"-61.0833333"}},{"country":"ve","city":"Araguasa","coordinates":{"lat":"11.1","long":"-68.8"}},{"country":"ve","city":"Araguata","coordinates":{"lat":"10.1333333","long":"-68.4333333"}},{"country":"ve","city":"Araguatos","coordinates":{"lat":"9.05","long":"-63.85"}},{"country":"ve","city":"Aragüeños","coordinates":{"lat":"9.4333333","long":"-67.3833333"}},{"country":"ve","city":"Araguita Abajo","coordinates":{"lat":"9.75","long":"-67.85"}},{"country":"ve","city":"Aragüita","coordinates":{"lat":"10.0833333","long":"-64.5666667"}},{"country":"ve","city":"Araguita","coordinates":{"lat":"10.0416667","long":"-68.7994444"}},{"country":"ve","city":"Araguita","coordinates":{"lat":"9.7666667","long":"-67.7833333"}},{"country":"ve","city":"Aragüita","coordinates":{"lat":"10.1286111","long":"-66.9005556"}},{"country":"ve","city":"Aragüita","coordinates":{"lat":"8.9","long":"-69.7166667"}},{"country":"ve","city":"Araguita Arriba","coordinates":{"lat":"9.7666667","long":"-67.85"}},{"country":"ve","city":"Araguito Abajo","coordinates":{"lat":"9.75","long":"-67.85"}},{"country":"ve","city":"Araibel","coordinates":{"lat":"9.1886111","long":"-64.1780556"}},{"country":"ve","city":"Araica","coordinates":{"lat":"10.8461111","long":"-69.7377778"}},{"country":"ve","city":"Araira","coordinates":{"lat":"10.4516667","long":"-66.485"}},{"country":"ve","city":"Araiuama-quen","coordinates":{"lat":"5.05","long":"-61.5166667"}},{"country":"ve","city":"Araiuana-quen","coordinates":{"lat":"5.05","long":"-61.5166667"}},{"country":"ve","city":"Araiuma-quen","coordinates":{"lat":"5.05","long":"-61.5166667"}},{"country":"ve","city":"Arajó","coordinates":{"lat":"11.3833333","long":"-70.1333333"}},{"country":"ve","city":"Arajú","coordinates":{"lat":"10.915","long":"-69.5608333"}},{"country":"ve","city":"Aramachón","coordinates":{"lat":"11.2438889","long":"-71.9311111"}},{"country":"ve","city":"Aramare","coordinates":{"lat":"5.05","long":"-66.3"}},{"country":"ve","city":"Aramaya","coordinates":{"lat":"8.4261111","long":"-62.6066667"}},{"country":"ve","city":"Aramina","coordinates":{"lat":"10.3833333","long":"-66.2833333"}},{"country":"ve","city":"Araminita","coordinates":{"lat":"10.3866667","long":"-66.2944444"}},{"country":"ve","city":"Araña","coordinates":{"lat":"4.4341667","long":"-67.5458333"}},{"country":"ve","city":"Aranima","coordinates":{"lat":"10.3833333","long":"-66.2833333"}},{"country":"ve","city":"Aranta-merú","coordinates":{"lat":"5.05","long":"-61.1666667"}},{"country":"ve","city":"Arapaco","coordinates":{"lat":"7.2333333","long":"-61.6166667"}},{"country":"ve","city":"Arapariquén","coordinates":{"lat":"5.6333333","long":"-61.5166667"}},{"country":"ve","city":"Arapito","coordinates":{"lat":"10.2444444","long":"-64.475"}},{"country":"ve","city":"Arapo","coordinates":{"lat":"10.2333333","long":"-64.4833333"}},{"country":"ve","city":"Arapué-ta","coordinates":{"lat":"4.8333333","long":"-61.2166667"}},{"country":"ve","city":"Arapuey","coordinates":{"lat":"9.265","long":"-70.9488889"}},{"country":"ve","city":"Araquero","coordinates":{"lat":"7.9444444","long":"-67.2322222"}},{"country":"ve","city":"Araquita","coordinates":{"lat":"8.7083333","long":"-69.6572222"}},{"country":"ve","city":"Arasme","coordinates":{"lat":"10.6333333","long":"-64.0833333"}},{"country":"ve","city":"Arataña","coordinates":{"lat":"4.4833333","long":"-64.9333333"}},{"country":"ve","city":"Arauca","coordinates":{"lat":"5.5166667","long":"-63.6"}},{"country":"ve","city":"Araujo","coordinates":{"lat":"10.915","long":"-69.5608333"}},{"country":"ve","city":"Araujo","coordinates":{"lat":"9.35","long":"-70.4333333"}},{"country":"ve","city":"Arauquita","coordinates":{"lat":"7.1963889","long":"-66.9922222"}},{"country":"ve","city":"Arauquita","coordinates":{"lat":"8.7083333","long":"-69.6572222"}},{"country":"ve","city":"Araure","coordinates":{"lat":"9.5666667","long":"-69.2166667"}},{"country":"ve","city":"Araurima Abajo","coordinates":{"lat":"10.9161111","long":"-68.725"}},{"country":"ve","city":"Araurima","coordinates":{"lat":"10.9380556","long":"-68.6658333"}},{"country":"ve","city":"Arauta-merú","coordinates":{"lat":"5.05","long":"-61.1666667"}},{"country":"ve","city":"Arautaña","coordinates":{"lat":"4.4833333","long":"-64.9333333"}},{"country":"ve","city":"Aravinquén","coordinates":{"lat":"5.0333333","long":"-61.5"}},{"country":"ve","city":"Arawibisi","coordinates":{"lat":"9.1438889","long":"-61.1066667"}},{"country":"ve","city":"Araya","coordinates":{"lat":"10.5666667","long":"-64.25"}},{"country":"ve","city":"Arbelera","coordinates":{"lat":"7.35","long":"-67.15"}},{"country":"ve","city":"Arbolitas","coordinates":{"lat":"7.85","long":"-65.2333333"}},{"country":"ve","city":"Arbolito","coordinates":{"lat":"7.85","long":"-65.2333333"}},{"country":"ve","city":"Arbolito","coordinates":{"lat":"10.4666667","long":"-67.1666667"}},{"country":"ve","city":"Arcos","coordinates":{"lat":"10.2666667","long":"-66.8833333"}},{"country":"ve","city":"Arecifral","coordinates":{"lat":"1.9094444","long":"-66.6161111"}},{"country":"ve","city":"Aregora","coordinates":{"lat":"11.5372222","long":"-71.9766667"}},{"country":"ve","city":"Aregue","coordinates":{"lat":"10.2444444","long":"-70.0277778"}},{"country":"ve","city":"Areguito","coordinates":{"lat":"10.8475","long":"-69.2475"}},{"country":"ve","city":"Arehuará","coordinates":{"lat":"11.5372222","long":"-71.9766667"}},{"country":"ve","city":"Arena","coordinates":{"lat":"9.8397222","long":"-63.2844444"}},{"country":"ve","city":"Arenal","coordinates":{"lat":"11.2666667","long":"-69.2666667"}},{"country":"ve","city":"Arenal","coordinates":{"lat":"10.2625","long":"-63.2138889"}},{"country":"ve","city":"Arenales","coordinates":{"lat":"8.9536111","long":"-64.5822222"}},{"country":"ve","city":"Arenales","coordinates":{"lat":"8.5583333","long":"-70.3561111"}},{"country":"ve","city":"Arenales","coordinates":{"lat":"10.9833333","long":"-70.0872222"}},{"country":"ve","city":"Arenales","coordinates":{"lat":"10.15","long":"-69.8977778"}},{"country":"ve","city":"Arenas","coordinates":{"lat":"9.7833333","long":"-65.55"}},{"country":"ve","city":"Arenas","coordinates":{"lat":"6.7327778","long":"-66.7080556"}},{"country":"ve","city":"Arenas","coordinates":{"lat":"11.0833333","long":"-68.7"}},{"country":"ve","city":"Arenas","coordinates":{"lat":"10.1833333","long":"-65.75"}},{"country":"ve","city":"Arenas","coordinates":{"lat":"10.9666667","long":"-64.4"}},{"country":"ve","city":"Arenas","coordinates":{"lat":"10.2833333","long":"-63.9333333"}},{"country":"ve","city":"Arenaza","coordinates":{"lat":"10.3738889","long":"-66.6461111"}},{"country":"ve","city":"Arenilla","coordinates":{"lat":"10.5877778","long":"-69.3377778"}},{"country":"ve","city":"Arenita","coordinates":{"lat":"9.4811111","long":"-65.7683333"}},{"country":"ve","city":"Arenitas","coordinates":{"lat":"9.6766667","long":"-68.1027778"}},{"country":"ve","city":"Arenitas","coordinates":{"lat":"9.8166667","long":"-66.0166667"}},{"country":"ve","city":"Arenitas","coordinates":{"lat":"10.1583333","long":"-65.9016667"}},{"country":"ve","city":"Arenosa Antigua","coordinates":{"lat":"8.2","long":"-72.3666667"}},{"country":"ve","city":"Arenosa","coordinates":{"lat":"8.6061111","long":"-70.2836111"}},{"country":"ve","city":"Arenosa","coordinates":{"lat":"8.2","long":"-72.3666667"}},{"country":"ve","city":"Arenosa","coordinates":{"lat":"9.5666667","long":"-70.4666667"}},{"country":"ve","city":"Arenota","coordinates":{"lat":"9.875","long":"-65.9638889"}},{"country":"ve","city":"Areo","coordinates":{"lat":"6.75","long":"-63.8111111"}},{"country":"ve","city":"Areo","coordinates":{"lat":"10.55","long":"-63.3833333"}},{"country":"ve","city":"Arepeta","coordinates":{"lat":"11.3661111","long":"-72.0394444"}},{"country":"ve","city":"Arepital","coordinates":{"lat":"6.6333333","long":"-66.7"}},{"country":"ve","city":"Aresal","coordinates":{"lat":"7.4486111","long":"-66.1855556"}},{"country":"ve","city":"Argas Merey","coordinates":{"lat":"9.8833333","long":"-70.4833333"}},{"country":"ve","city":"Argoronal","coordinates":{"lat":"8.7166667","long":"-68.15"}},{"country":"ve","city":"Ariama","coordinates":{"lat":"10.95","long":"-69.0666667"}},{"country":"ve","city":"Ariamito","coordinates":{"lat":"11.0333333","long":"-69.0666667"}},{"country":"ve","city":"Arianito","coordinates":{"lat":"11.0333333","long":"-69.0666667"}},{"country":"ve","city":"Aribí","coordinates":{"lat":"8.5833333","long":"-64.7666667"}},{"country":"ve","city":"Aribí","coordinates":{"lat":"9.2938889","long":"-63.7644444"}},{"country":"ve","city":"Aricagua","coordinates":{"lat":"7.5172222","long":"-65.0727778"}},{"country":"ve","city":"Aricagua","coordinates":{"lat":"8.2258333","long":"-71.1430556"}},{"country":"ve","city":"Aricagua","coordinates":{"lat":"10.58","long":"-66.23"}},{"country":"ve","city":"Aricagua","coordinates":{"lat":"11.1166667","long":"-63.8666667"}},{"country":"ve","city":"Aricagua","coordinates":{"lat":"10.2333333","long":"-63.9"}},{"country":"ve","city":"Arichuna","coordinates":{"lat":"7.7172222","long":"-67.1147222"}},{"country":"ve","city":"Arichunita","coordinates":{"lat":"7.7116667","long":"-67.1416667"}},{"country":"ve","city":"Arícula","coordinates":{"lat":"11.9455556","long":"-69.8022222"}},{"country":"ve","city":"Ariguapa","coordinates":{"lat":"11.1658333","long":"-71.8936111"}},{"country":"ve","city":"Arimacare","coordinates":{"lat":"7.6611111","long":"-64.3883333"}},{"country":"ve","city":"Arimagua","coordinates":{"lat":"7.75","long":"-62.9166667"}},{"country":"ve","city":"Arimpia","coordinates":{"lat":"10.3166667","long":"-72.3833333"}},{"country":"ve","city":"Arincón","coordinates":{"lat":"10.4","long":"-72.25"}},{"country":"ve","city":"Ariota","coordinates":{"lat":"10.5122222","long":"-63.7444444"}},{"country":"ve","city":"Aripao","coordinates":{"lat":"7.3666667","long":"-65.0833333"}},{"country":"ve","city":"Aripia","coordinates":{"lat":"10.3166667","long":"-72.3833333"}},{"country":"ve","city":"Arire","coordinates":{"lat":"10.4394444","long":"-69.1166667"}},{"country":"ve","city":"Arismendi","coordinates":{"lat":"8.4833333","long":"-68.3666667"}},{"country":"ve","city":"Arismendi","coordinates":{"lat":"11.0833333","long":"-63.9333333"}},{"country":"ve","city":"Aristosteles","coordinates":{"lat":"10.2416667","long":"-70.0683333"}},{"country":"ve","city":"Arjona","coordinates":{"lat":"7.8275","long":"-72.1958333"}},{"country":"ve","city":"Armadillo","coordinates":{"lat":"8.6333333","long":"-70.0333333"}},{"country":"ve","city":"Aroa","coordinates":{"lat":"10.4766667","long":"-67.6433333"}},{"country":"ve","city":"Aroa","coordinates":{"lat":"8.66","long":"-71.6322222"}},{"country":"ve","city":"Aroa","coordinates":{"lat":"10.4386111","long":"-68.8941667"}},{"country":"ve","city":"Aroíta","coordinates":{"lat":"9.7338889","long":"-68.9263889"}},{"country":"ve","city":"Arorouata","coordinates":{"lat":"4.85","long":"-61.0833333"}},{"country":"ve","city":"Arorouta","coordinates":{"lat":"4.85","long":"-61.0833333"}},{"country":"ve","city":"Arrastradero","coordinates":{"lat":"7.5883333","long":"-64.93"}},{"country":"ve","city":"Arratia","coordinates":{"lat":"8.6833333","long":"-66.4833333"}},{"country":"ve","city":"Arratia","coordinates":{"lat":"10.1833333","long":"-66.7166667"}},{"country":"ve","city":"Arrecifal","coordinates":{"lat":"1.9094444","long":"-66.6161111"}},{"country":"ve","city":"Arrecifal","coordinates":{"lat":"7.0594444","long":"-66.8658333"}},{"country":"ve","city":"Arrecife","coordinates":{"lat":"7.8361111","long":"-66.2622222"}},{"country":"ve","city":"Arrecife","coordinates":{"lat":"10.5833333","long":"-67.0833333"}},{"country":"ve","city":"Arrecifes","coordinates":{"lat":"10.5833333","long":"-67.0833333"}},{"country":"ve","city":"Arrecostón","coordinates":{"lat":"8.2413889","long":"-72.3027778"}},{"country":"ve","city":"Arrendajo","coordinates":{"lat":"9.2133333","long":"-65.3572222"}},{"country":"ve","city":"Arrenoso","coordinates":{"lat":"9.1527778","long":"-71.0216667"}},{"country":"ve","city":"Arriba Boconó","coordinates":{"lat":"8.4016667","long":"-71.9"}},{"country":"ve","city":"Arriba Guatopo","coordinates":{"lat":"10.01","long":"-66.4483333"}},{"country":"ve","city":"Arriba Quebrada","coordinates":{"lat":"8.0516667","long":"-71.86"}},{"country":"ve","city":"Arroyo Honda","coordinates":{"lat":"11.0894444","long":"-70.9422222"}},{"country":"ve","city":"Arroyo Hondo","coordinates":{"lat":"10.0511111","long":"-68.335"}},{"country":"ve","city":"Arroyo Hondo","coordinates":{"lat":"11.0894444","long":"-70.9422222"}},{"country":"ve","city":"Arrozal","coordinates":{"lat":"8.1361111","long":"-62.6563889"}},{"country":"ve","city":"Artahona","coordinates":{"lat":"7.3833333","long":"-68.6333333"}},{"country":"ve","city":"Artigas","coordinates":{"lat":"10.5","long":"-66.9416667"}},{"country":"ve","city":"Arubap","coordinates":{"lat":"1.9225","long":"-66.6075"}},{"country":"ve","city":"Arubapi","coordinates":{"lat":"1.9225","long":"-66.6075"}},{"country":"ve","city":"Aruca","coordinates":{"lat":"5.5166667","long":"-63.6"}},{"country":"ve","city":"Aruco","coordinates":{"lat":"8.3477778","long":"-64.3263889"}},{"country":"ve","city":"Aruguasa","coordinates":{"lat":"11.1","long":"-68.8"}},{"country":"ve","city":"Ascanio","coordinates":{"lat":"10.15","long":"-66.9"}},{"country":"ve","city":"Asentamiento Campesino Los Culies","coordinates":{"lat":"8.2805556","long":"-62.4730556"}},{"country":"ve","city":"Asentamiento Carrizalito","coordinates":{"lat":"9.625","long":"-67.5894444"}},{"country":"ve","city":"Asentamiento La Esperanza","coordinates":{"lat":"9.8272222","long":"-62.9777778"}},{"country":"ve","city":"Aserradero","coordinates":{"lat":"7.7877778","long":"-70.27"}},{"country":"ve","city":"Aserradero","coordinates":{"lat":"6.6","long":"-61.5166667"}},{"country":"ve","city":"Aserradero","coordinates":{"lat":"10.2388889","long":"-64.4088889"}},{"country":"ve","city":"Asiasito","coordinates":{"lat":"4.1666667","long":"-62.95"}},{"country":"ve","city":"Asiento Viejo","coordinates":{"lat":"9.2833333","long":"-66.6666667"}},{"country":"ve","city":"Asiento Viejo Coco de Mono","coordinates":{"lat":"9.7727778","long":"-64.8794444"}},{"country":"ve","city":"Asiento Viejo El Burro","coordinates":{"lat":"9.3927778","long":"-66.2166667"}},{"country":"ve","city":"Asiento Viejo El Peñón","coordinates":{"lat":"9.5938889","long":"-66.1461111"}},{"country":"ve","city":"Asiento Viejo El Zurrón","coordinates":{"lat":"9.4833333","long":"-65.7427778"}},{"country":"ve","city":"Asiento Viejo La Fundación","coordinates":{"lat":"9.3841667","long":"-65.1175"}},{"country":"ve","city":"Asiento Viejo La Perdida","coordinates":{"lat":"9.7466667","long":"-66.125"}},{"country":"ve","city":"Asiento Viejo Quebrada Nueva","coordinates":{"lat":"9.64","long":"-65.9883333"}},{"country":"ve","city":"Asiento Viejo Taparito","coordinates":{"lat":"9.5916667","long":"-66.0083333"}},{"country":"ve","city":"Asoleao","coordinates":{"lat":"10.8166667","long":"-72.1166667"}},{"country":"ve","city":"Astrología","coordinates":{"lat":"7.965","long":"-65.7566667"}},{"country":"ve","city":"Astromelia","coordinates":{"lat":"8.7519444","long":"-63.5641667"}},{"country":"ve","city":"Asunción","coordinates":{"lat":"8.4386111","long":"-61.6044444"}},{"country":"ve","city":"Atamaica Abajo","coordinates":{"lat":"7.4833333","long":"-67.35"}},{"country":"ve","city":"Atamaica Arriba","coordinates":{"lat":"7.5166667","long":"-67.3666667"}},{"country":"ve","city":"Atamaica","coordinates":{"lat":"7.5166667","long":"-67.3666667"}},{"country":"ve","city":"Atamaiquita","coordinates":{"lat":"7.55","long":"-67.45"}},{"country":"ve","city":"Atamo","coordinates":{"lat":"11.0166667","long":"-63.8333333"}},{"country":"ve","city":"Atamo Sur","coordinates":{"lat":"11.0266667","long":"-63.8372222"}},{"country":"ve","city":"Atapirire","coordinates":{"lat":"8.4383333","long":"-64.3697222"}},{"country":"ve","city":"Atarigua","coordinates":{"lat":"10.11","long":"-69.8038889"}},{"country":"ve","city":"Atascadero","coordinates":{"lat":"10.455","long":"-68.9708333"}},{"country":"ve","city":"Atascoso","coordinates":{"lat":"8.9666667","long":"-72.075"}},{"country":"ve","city":"Atenas","coordinates":{"lat":"7.5333333","long":"-61.5833333"}},{"country":"ve","city":"Atravesado","coordinates":{"lat":"10.3677778","long":"-67.3144444"}},{"country":"ve","city":"Auarada","coordinates":{"lat":"4.5833333","long":"-61.1333333"}},{"country":"ve","city":"Aullamita","coordinates":{"lat":"11.1333333","long":"-69.8333333"}},{"country":"ve","city":"Auredie-pue","coordinates":{"lat":"5.4666667","long":"-61.2166667"}},{"country":"ve","city":"Auricia","coordinates":{"lat":"11.2077778","long":"-70.4233333"}},{"country":"ve","city":"Aurita","coordinates":{"lat":"9.6172222","long":"-69.7705556"}},{"country":"ve","city":"Aurora","coordinates":{"lat":"7.6","long":"-65.1333333"}},{"country":"ve","city":"Auyamal","coordinates":{"lat":"9.2166667","long":"-67.45"}},{"country":"ve","city":"Auyamal","coordinates":{"lat":"9.9822222","long":"-69.5216667"}},{"country":"ve","city":"Auyamitas","coordinates":{"lat":"11.1333333","long":"-69.8333333"}},{"country":"ve","city":"Auyamiti","coordinates":{"lat":"11.1333333","long":"-69.8333333"}},{"country":"ve","city":"Auyarito","coordinates":{"lat":"10.4522222","long":"-66.5611111"}},{"country":"ve","city":"Avaria","coordinates":{"lat":"10.8666667","long":"-70.4666667"}},{"country":"ve","city":"Ave Chica","coordinates":{"lat":"7.1","long":"-62.0166667"}},{"country":"ve","city":"Ave María","coordinates":{"lat":"7.7666667","long":"-70.9"}},{"country":"ve","city":"Ave María","coordinates":{"lat":"9.0333333","long":"-68.2833333"}},{"country":"ve","city":"Ave Maria","coordinates":{"lat":"8.8686111","long":"-69.8330556"}},{"country":"ve","city":"Ave Maria","coordinates":{"lat":"10.6288889","long":"-71.855"}},{"country":"ve","city":"Avendañero","coordinates":{"lat":"8.2494444","long":"-69.6141667"}},{"country":"ve","city":"Aventazón","coordinates":{"lat":"8.7633333","long":"-64.2122222"}},{"country":"ve","city":"Avetui","coordinates":{"lat":"7.2833333","long":"-62.55"}},{"country":"ve","city":"Aviagua","coordinates":{"lat":"11.0166667","long":"-70.5361111"}},{"country":"ve","city":"Avilanes","coordinates":{"lat":"10.4","long":"-67.1333333"}},{"country":"ve","city":"Avinca","coordinates":{"lat":"10.2097222","long":"-67.89"}},{"country":"ve","city":"Avispero","coordinates":{"lat":"9.5944444","long":"-69.81"}},{"country":"ve","city":"Ayacucho","coordinates":{"lat":"8.3788889","long":"-64.6966667"}},{"country":"ve","city":"Ayacucho","coordinates":{"lat":"8.5166667","long":"-69.8666667"}},{"country":"ve","city":"Ayacucho","coordinates":{"lat":"8.8127778","long":"-65.8511111"}},{"country":"ve","city":"Ayajuy","coordinates":{"lat":"11.4158333","long":"-71.9805556"}},{"country":"ve","city":"Ayala","coordinates":{"lat":"10.5044444","long":"-66.7633333"}},{"country":"ve","city":"Ayari","coordinates":{"lat":"7.5377778","long":"-71.8894444"}},{"country":"ve","city":"Ayuquita","coordinates":{"lat":"7.5","long":"-67.9833333"}},{"country":"ve","city":"Ayuquito","coordinates":{"lat":"7.5","long":"-67.9833333"}},{"country":"ve","city":"Aza","coordinates":{"lat":"6.3477778","long":"-63.3205556"}},{"country":"ve","city":"Azagua","coordinates":{"lat":"10.0355556","long":"-63.1038889"}},{"country":"ve","city":"Azaro","coordinates":{"lat":"11.9747222","long":"-69.9372222"}},{"country":"ve","city":"Azúa","coordinates":{"lat":"7.7094444","long":"-72.2683333"}},{"country":"ve","city":"Azubure","coordinates":{"lat":"12.0666667","long":"-69.85"}},{"country":"ve","city":"Azulita","coordinates":{"lat":"8.2944444","long":"-72.0938889"}},{"country":"ve","city":"Babilla","coordinates":{"lat":"6.1330556","long":"-67.4813889"}},{"country":"ve","city":"Babuquena","coordinates":{"lat":"8.11","long":"-71.9727778"}},{"country":"ve","city":"Bacalao","coordinates":{"lat":"8.7233333","long":"-69.7366667"}},{"country":"ve","city":"Bacalao","coordinates":{"lat":"7.5833333","long":"-63.3"}},{"country":"ve","city":"Bachaquero","coordinates":{"lat":"8.7227778","long":"-71.4322222"}},{"country":"ve","city":"Bachaquero","coordinates":{"lat":"10.2616667","long":"-66.6888889"}},{"country":"ve","city":"Bachaquero","coordinates":{"lat":"9.9683333","long":"-71.1161111"}},{"country":"ve","city":"Bachaquero Grande","coordinates":{"lat":"9.9383333","long":"-72.1394444"}},{"country":"ve","city":"Bachaquito","coordinates":{"lat":"9.9833333","long":"-65.1166667"}},{"country":"ve","city":"Bachiller","coordinates":{"lat":"10.2","long":"-65.8666667"}},{"country":"ve","city":"Báez","coordinates":{"lat":"10.1277778","long":"-69.9038889"}},{"country":"ve","city":"Bagasú","coordinates":{"lat":"7.95","long":"-67.5666667"}},{"country":"ve","city":"Bagre","coordinates":{"lat":"10.15","long":"-66.8833333"}},{"country":"ve","city":"Bagres","coordinates":{"lat":"10.4158333","long":"-66.1708333"}},{"country":"ve","city":"Bailadoras","coordinates":{"lat":"10.5833333","long":"-71.3666667"}},{"country":"ve","city":"Bailador","coordinates":{"lat":"10.5833333","long":"-71.3666667"}},{"country":"ve","city":"Bailadores","coordinates":{"lat":"8.2561111","long":"-71.8266667"}},{"country":"ve","city":"Bailón","coordinates":{"lat":"9.8666667","long":"-67.8"}},{"country":"ve","city":"Baisnespa","coordinates":{"lat":"9.2866667","long":"-65.5838889"}},{"country":"ve","city":"Baitoita","coordinates":{"lat":"10.61","long":"-70.1180556"}},{"country":"ve","city":"Bajada la Chaguarama","coordinates":{"lat":"9.345","long":"-64.0333333"}},{"country":"ve","city":"Bajada La Chaguarama","coordinates":{"lat":"9.3444444","long":"-64.0325"}},{"country":"ve","city":"Bajaragua","coordinates":{"lat":"12.1016667","long":"-69.9705556"}},{"country":"ve","city":"Bajarigua","coordinates":{"lat":"12.1166667","long":"-70.0833333"}},{"country":"ve","city":"Bajial","coordinates":{"lat":"7.4861111","long":"-71.1155556"}},{"country":"ve","city":"Bajo Anaco","coordinates":{"lat":"9.7027778","long":"-65.1305556"}},{"country":"ve","city":"Bajo Aragua","coordinates":{"lat":"10.0","long":"-64.15"}},{"country":"ve","city":"Bajo Areo","coordinates":{"lat":"9.9183333","long":"-63.9158333"}},{"country":"ve","city":"Bajo Aroa","coordinates":{"lat":"12.1888889","long":"-70.025"}},{"country":"ve","city":"Bajo Blascoa","coordinates":{"lat":"10.4425","long":"-63.6208333"}},{"country":"ve","city":"Bajo Borbón","coordinates":{"lat":"7.9311111","long":"-64.125"}},{"country":"ve","city":"Bajo Camoruco","coordinates":{"lat":"9.725","long":"-65.0333333"}},{"country":"ve","city":"Bajo Carujo","coordinates":{"lat":"9.7916667","long":"-65.1055556"}},{"country":"ve","city":"Bajo Chaguaramal","coordinates":{"lat":"9.8877778","long":"-63.91"}},{"country":"ve","city":"Bajo Chiquito","coordinates":{"lat":"10.5333333","long":"-71.6333333"}},{"country":"ve","city":"Bajo Coquito","coordinates":{"lat":"9.8916667","long":"-65.9"}},{"country":"ve","city":"Bajo de Barrancas","coordinates":{"lat":"9.7938889","long":"-63.38"}},{"country":"ve","city":"Bajo de la Cruz","coordinates":{"lat":"9.72","long":"-64.9461111"}},{"country":"ve","city":"Bajo de La Toscana","coordinates":{"lat":"9.8","long":"-63.3422222"}},{"country":"ve","city":"Bajo Dividive","coordinates":{"lat":"9.6866667","long":"-64.7394444"}},{"country":"ve","city":"Bajo el Burro","coordinates":{"lat":"9.775","long":"-65.1069444"}},{"country":"ve","city":"Bajo el Cacho","coordinates":{"lat":"9.7288889","long":"-64.9733333"}},{"country":"ve","city":"Bajo El Roble","coordinates":{"lat":"9.1933333","long":"-66.8533333"}},{"country":"ve","city":"Bajo el Toro","coordinates":{"lat":"9.6761111","long":"-64.7183333"}},{"country":"ve","city":"Bajo el Vegón","coordinates":{"lat":"9.7777778","long":"-65.2930556"}},{"country":"ve","city":"Bajo Grande","coordinates":{"lat":"10.1333333","long":"-64.4166667"}},{"country":"ve","city":"Bajo Grande","coordinates":{"lat":"9.17","long":"-65.4066667"}},{"country":"ve","city":"Bajo Grande","coordinates":{"lat":"9.8372222","long":"-63.6038889"}},{"country":"ve","city":"Bajo Grande","coordinates":{"lat":"10.2188889","long":"-63.7377778"}},{"country":"ve","city":"Bajo Grande","coordinates":{"lat":"10.5","long":"-71.6333333"}},{"country":"ve","city":"Bajo Hondo","coordinates":{"lat":"8.8833333","long":"-63.4333333"}},{"country":"ve","city":"Bajo Juan José","coordinates":{"lat":"9.7105556","long":"-64.735"}},{"country":"ve","city":"Bajo La Muerta","coordinates":{"lat":"9.42","long":"-65.5555556"}},{"country":"ve","city":"Bajo Las Cruces","coordinates":{"lat":"9.7166667","long":"-65.2194444"}},{"country":"ve","city":"Bajo las Mariposas","coordinates":{"lat":"9.8805556","long":"-65.3138889"}},{"country":"ve","city":"Bajo Lindo","coordinates":{"lat":"9.4225","long":"-64.735"}},{"country":"ve","city":"Bajo Negro","coordinates":{"lat":"10.1666667","long":"-64.35"}},{"country":"ve","city":"Bajo Parate Buena","coordinates":{"lat":"9.4105556","long":"-66.0833333"}},{"country":"ve","city":"Bajo Redondo","coordinates":{"lat":"9.72","long":"-64.7388889"}},{"country":"ve","city":"Bajos Caño Macual","coordinates":{"lat":"9.6722222","long":"-65.1611111"}},{"country":"ve","city":"Bajos de Jabillar","coordinates":{"lat":"9.3722222","long":"-65.9766667"}},{"country":"ve","city":"Bajos del Mono","coordinates":{"lat":"9.8152778","long":"-65.1805556"}},{"country":"ve","city":"Bajos de Macuare","coordinates":{"lat":"9.9361111","long":"-65.2833333"}},{"country":"ve","city":"Bajos de San Bartolo","coordinates":{"lat":"8.7777778","long":"-64.6916667"}},{"country":"ve","city":"Bajo Seco","coordinates":{"lat":"10.1333333","long":"-66.9666667"}},{"country":"ve","city":"Bajo Seco","coordinates":{"lat":"10.2544444","long":"-64.1166667"}},{"country":"ve","city":"Bajo Sin Tripa","coordinates":{"lat":"9.745","long":"-65.0416667"}},{"country":"ve","city":"Balavaneda","coordinates":{"lat":"10.15","long":"-66.9"}},{"country":"ve","city":"Balchises","coordinates":{"lat":"7.35","long":"-62.4666667"}},{"country":"ve","city":"Balcón","coordinates":{"lat":"10.6666667","long":"-70.3166667"}},{"country":"ve","city":"Balconcito","coordinates":{"lat":"7.2391667","long":"-72.0205556"}},{"country":"ve","city":"Balcones","coordinates":{"lat":"10.6666667","long":"-70.3166667"}},{"country":"ve","city":"Baldallero","coordinates":{"lat":"7.2544444","long":"-70.66"}},{"country":"ve","city":"Baldallero","coordinates":{"lat":"7.3125","long":"-70.6997222"}},{"country":"ve","city":"Ballenato","coordinates":{"lat":"10.1666667","long":"-71.0333333"}},{"country":"ve","city":"Balona","coordinates":{"lat":"9.4558333","long":"-69.3377778"}},{"country":"ve","city":"Balsa","coordinates":{"lat":"7.6855556","long":"-67.5722222"}},{"country":"ve","city":"Balsa","coordinates":{"lat":"7.9533333","long":"-67.9727778"}},{"country":"ve","city":"Balsamar","coordinates":{"lat":"10.7838889","long":"-68.4672222"}},{"country":"ve","city":"Balsamar","coordinates":{"lat":"10.1988889","long":"-69.6672222"}},{"country":"ve","city":"Balsamito","coordinates":{"lat":"10.125","long":"-69.9727778"}},{"country":"ve","city":"Baltasara","coordinates":{"lat":"10.3266667","long":"-64.1361111"}},{"country":"ve","city":"Baltasar","coordinates":{"lat":"3.4733333","long":"-67.37"}},{"country":"ve","city":"Baltazar","coordinates":{"lat":"3.4733333","long":"-67.37"}},{"country":"ve","city":"Bañadero","coordinates":{"lat":"10.0394444","long":"-69.8166667"}},{"country":"ve","city":"Bancada del Cuarenta","coordinates":{"lat":"8.9561111","long":"-71.7394444"}},{"country":"ve","city":"Bancada de Limones","coordinates":{"lat":"8.8222222","long":"-71.7261111"}},{"country":"ve","city":"Bancada de Papelon","coordinates":{"lat":"8.75","long":"-71.9194444"}},{"country":"ve","city":"Banco Alegre","coordinates":{"lat":"9.3166667","long":"-69.15"}},{"country":"ve","city":"Banco Alto","coordinates":{"lat":"7.65","long":"-70.3333333"}},{"country":"ve","city":"Banco Arañero","coordinates":{"lat":"8.5925","long":"-70.0883333"}},{"country":"ve","city":"Banco","coordinates":{"lat":"9.6","long":"-68.15"}},{"country":"ve","city":"Banco","coordinates":{"lat":"9.3166667","long":"-69.15"}},{"country":"ve","city":"Banco Bonito","coordinates":{"lat":"9.9911111","long":"-68.6961111"}},{"country":"ve","city":"Banco Caraballero","coordinates":{"lat":"8.6666667","long":"-69.6833333"}},{"country":"ve","city":"Banco Cavadallero","coordinates":{"lat":"8.6666667","long":"-69.6833333"}},{"country":"ve","city":"Banco de Buchi","coordinates":{"lat":"9.4958333","long":"-69.3194444"}},{"country":"ve","city":"Banco de Canagua","coordinates":{"lat":"8.0266667","long":"-70.0086111"}},{"country":"ve","city":"Banco de Jobo","coordinates":{"lat":"8.3597222","long":"-70.5925"}},{"country":"ve","city":"Banco de las Cocuizas","coordinates":{"lat":"9.2811111","long":"-69.2122222"}},{"country":"ve","city":"Banco del Medio","coordinates":{"lat":"7.1666667","long":"-69.3833333"}},{"country":"ve","city":"Banco del Pueblo","coordinates":{"lat":"9.3638889","long":"-69.1786111"}},{"country":"ve","city":"Banco de Morrones","coordinates":{"lat":"8.6891667","long":"-69.3761111"}},{"country":"ve","city":"Banco El Jobo","coordinates":{"lat":"8.3597222","long":"-70.5925"}},{"country":"ve","city":"Banco Largo","coordinates":{"lat":"7.95","long":"-68.6"}},{"country":"ve","city":"Banco Largo","coordinates":{"lat":"10.1644444","long":"-68.2519444"}},{"country":"ve","city":"Banco las Piñas","coordinates":{"lat":"7.4666667","long":"-71.3116667"}},{"country":"ve","city":"Banco Maginero","coordinates":{"lat":"8.735","long":"-69.1627778"}},{"country":"ve","city":"Banco Morales","coordinates":{"lat":"9.1633333","long":"-69.1383333"}},{"country":"ve","city":"Bancos del Boral","coordinates":{"lat":"8.0197222","long":"-68.4422222"}},{"country":"ve","city":"Bancos de San Pedro","coordinates":{"lat":"8.75","long":"-67.5322222"}},{"country":"ve","city":"Bancote","coordinates":{"lat":"7.92","long":"-68.72"}},{"country":"ve","city":"Banco Telésforo","coordinates":{"lat":"8.9333333","long":"-65.8705556"}},{"country":"ve","city":"Banco Tieso","coordinates":{"lat":"7.2763889","long":"-70.4747222"}},{"country":"ve","city":"Banco Tieso","coordinates":{"lat":"8.6488889","long":"-66.1508333"}},{"country":"ve","city":"Banderita","coordinates":{"lat":"2.2672222","long":"-67.2036111"}},{"country":"ve","city":"Bango del Medio","coordinates":{"lat":"7.3530556","long":"-69.1836111"}},{"country":"ve","city":"Bañul","coordinates":{"lat":"10.3972222","long":"-66.9833333"}},{"country":"ve","city":"Baquira","coordinates":{"lat":"9.25","long":"-67.4833333"}},{"country":"ve","city":"Baquira","coordinates":{"lat":"10.1622222","long":"-68.7277778"}},{"country":"ve","city":"Barabaguite","coordinates":{"lat":"2.0166667","long":"-66.7"}},{"country":"ve","city":"Baracharo","coordinates":{"lat":"8.0833333","long":"-69.8333333"}},{"country":"ve","city":"Baragua","coordinates":{"lat":"10.15","long":"-69.6833333"}},{"country":"ve","city":"Baraguita","coordinates":{"lat":"10.2922222","long":"-69.4372222"}},{"country":"ve","city":"Baraived","coordinates":{"lat":"11.8877778","long":"-69.8491667"}},{"country":"ve","city":"Baraja","coordinates":{"lat":"10.9833333","long":"-70.9"}},{"country":"ve","city":"Barajola","coordinates":{"lat":"9.3811111","long":"-65.68"}},{"country":"ve","city":"Baral","coordinates":{"lat":"10.1655556","long":"-64.3388889"}},{"country":"ve","city":"Barandancu","coordinates":{"lat":"9.6863889","long":"-72.9197222"}},{"country":"ve","city":"Barandas","coordinates":{"lat":"9.7","long":"-68.9333333"}},{"country":"ve","city":"Baraquigua","coordinates":{"lat":"10.0644444","long":"-70.1433333"}},{"country":"ve","city":"Barbacal","coordinates":{"lat":"8.3666667","long":"-68.1"}},{"country":"ve","city":"Barbacoas","coordinates":{"lat":"10.0333333","long":"-64.6166667"}},{"country":"ve","city":"Barbacoas","coordinates":{"lat":"9.4825","long":"-66.975"}},{"country":"ve","city":"Barbacoas","coordinates":{"lat":"9.8266667","long":"-70.0488889"}},{"country":"ve","city":"Barbacoas","coordinates":{"lat":"10.3833333","long":"-64.3"}},{"country":"ve","city":"Barba de Tigre","coordinates":{"lat":"6.9833333","long":"-70.15"}},{"country":"ve","city":"Barba de Tigre","coordinates":{"lat":"7.9666667","long":"-68.7333333"}},{"country":"ve","city":"Barbas","coordinates":{"lat":"10.1944444","long":"-63.7766667"}},{"country":"ve","city":"Barbascal","coordinates":{"lat":"8.3666667","long":"-68.1"}},{"country":"ve","city":"Barbascal","coordinates":{"lat":"9.5444444","long":"-66.4416667"}},{"country":"ve","city":"Barbascal","coordinates":{"lat":"10.2333333","long":"-63.5833333"}},{"country":"ve","city":"Barbasco","coordinates":{"lat":"9.0533333","long":"-68.1472222"}},{"country":"ve","city":"Barbas de Oro","coordinates":{"lat":"7.4705556","long":"-61.9216667"}},{"country":"ve","city":"Barba Tigre","coordinates":{"lat":"6.9833333","long":"-70.15"}},{"country":"ve","city":"Bárbula","coordinates":{"lat":"10.3","long":"-68.0333333"}},{"country":"ve","city":"Barcelona","coordinates":{"lat":"10.1333333","long":"-64.7"}},{"country":"ve","city":"Barcelona","coordinates":{"lat":"7.5666667","long":"-67.2"}},{"country":"ve","city":"Barcelona","coordinates":{"lat":"9.9683333","long":"-70.7411111"}},{"country":"ve","city":"Barcelona","coordinates":{"lat":"10.6516667","long":"-63.1633333"}},{"country":"ve","city":"Barcelonita","coordinates":{"lat":"10.0761111","long":"-63.5722222"}},{"country":"ve","city":"Barebare","coordinates":{"lat":"7.8063889","long":"-72.1758333"}},{"country":"ve","city":"Barigua Abajo","coordinates":{"lat":"11.4166667","long":"-69.5"}},{"country":"ve","city":"Barigua Arriba","coordinates":{"lat":"11.3963889","long":"-69.4897222"}},{"country":"ve","city":"Barimismal","coordinates":{"lat":"11.3811111","long":"-69.1266667"}},{"country":"ve","city":"Barinas","coordinates":{"lat":"8.6291667","long":"-70.2072222"}},{"country":"ve","city":"Barinitas","coordinates":{"lat":"8.7622222","long":"-70.4111111"}},{"country":"ve","city":"Barinitas","coordinates":{"lat":"8.5016667","long":"-71.9311111"}},{"country":"ve","city":"Bariquía","coordinates":{"lat":"10.5727778","long":"-69.6672222"}},{"country":"ve","city":"Bariquillo","coordinates":{"lat":"10.5727778","long":"-69.6672222"}},{"country":"ve","city":"Bariquis","coordinates":{"lat":"11.4333333","long":"-69.35"}},{"country":"ve","city":"Bariquizal","coordinates":{"lat":"11.4166667","long":"-69.4"}},{"country":"ve","city":"Bariro","coordinates":{"lat":"10.8","long":"-70.75"}},{"country":"ve","city":"Barisiguas","coordinates":{"lat":"10.7611111","long":"-71.4183333"}},{"country":"ve","city":"Barlovento","coordinates":{"lat":"10.1833333","long":"-64.5333333"}},{"country":"ve","city":"Barlovento","coordinates":{"lat":"11.7975","long":"-69.9519444"}},{"country":"ve","city":"Barlovento","coordinates":{"lat":"10.4333333","long":"-66.7666667"}},{"country":"ve","city":"Barlovento","coordinates":{"lat":"9.0297222","long":"-63.2072222"}},{"country":"ve","city":"Barlovento","coordinates":{"lat":"10.5216667","long":"-68.7908333"}},{"country":"ve","city":"Baronero","coordinates":{"lat":"8.7769444","long":"-69.8788889"}},{"country":"ve","city":"Barotal","coordinates":{"lat":"7.9933333","long":"-68.4916667"}},{"country":"ve","city":"Barquero","coordinates":{"lat":"8.9188889","long":"-65.6227778"}},{"country":"ve","city":"Barquia","coordinates":{"lat":"10.5727778","long":"-69.6672222"}},{"country":"ve","city":"Barqui","coordinates":{"lat":"12.0333333","long":"-70.0833333"}},{"country":"ve","city":"Barquís","coordinates":{"lat":"9.8927778","long":"-70.8963889"}},{"country":"ve","city":"Barquisimeto","coordinates":{"lat":"10.0738889","long":"-69.3227778"}},{"country":"ve","city":"Barquisimito","coordinates":{"lat":"10.0738889","long":"-69.3227778"}},{"country":"ve","city":"Barquito","coordinates":{"lat":"8.91","long":"-69.18"}},{"country":"ve","city":"Barquitos","coordinates":{"lat":"8.7666667","long":"-67.4333333"}},{"country":"ve","city":"Barragan","coordinates":{"lat":"8.7905556","long":"-72.4488889"}},{"country":"ve","city":"Barragancito","coordinates":{"lat":"8.7777778","long":"-70.4416667"}},{"country":"ve","city":"Barranca Amarilla","coordinates":{"lat":"7.5166667","long":"-66.6"}},{"country":"ve","city":"Barranca Amarilla","coordinates":{"lat":"9.9808333","long":"-68.9191667"}},{"country":"ve","city":"Barranca","coordinates":{"lat":"9.3380556","long":"-64.1161111"}},{"country":"ve","city":"Barranca","coordinates":{"lat":"7.1166667","long":"-65.05"}},{"country":"ve","city":"Barranca","coordinates":{"lat":"8.7783333","long":"-66.3830556"}},{"country":"ve","city":"Barranca","coordinates":{"lat":"9.7833333","long":"-63.35"}},{"country":"ve","city":"Barranca","coordinates":{"lat":"7.5977778","long":"-71.7694444"}},{"country":"ve","city":"Barranca","coordinates":{"lat":"9.0833333","long":"-72.7"}},{"country":"ve","city":"Barranca Blanca","coordinates":{"lat":"10.8033333","long":"-64.175"}},{"country":"ve","city":"Barrancas","coordinates":{"lat":"8.15","long":"-65.3666667"}},{"country":"ve","city":"Barrancas","coordinates":{"lat":"8.7713889","long":"-70.1077778"}},{"country":"ve","city":"Barrancas","coordinates":{"lat":"7.1166667","long":"-65.05"}},{"country":"ve","city":"Barrancas","coordinates":{"lat":"10.65","long":"-70.8833333"}},{"country":"ve","city":"Barrancas","coordinates":{"lat":"8.7019444","long":"-62.1952778"}},{"country":"ve","city":"Barrancas","coordinates":{"lat":"10.9333333","long":"-64.25"}},{"country":"ve","city":"Barrancas","coordinates":{"lat":"10.3472222","long":"-64.1427778"}},{"country":"ve","city":"Barrancas","coordinates":{"lat":"7.8013889","long":"-72.2363889"}},{"country":"ve","city":"Barrancas","coordinates":{"lat":"10.5644444","long":"-71.5280556"}},{"country":"ve","city":"Barranco Amarillo","coordinates":{"lat":"9.6533333","long":"-69.1255556"}},{"country":"ve","city":"Barranco","coordinates":{"lat":"9.9333333","long":"-65.2333333"}},{"country":"ve","city":"Barranco","coordinates":{"lat":"10.5388889","long":"-71.8988889"}},{"country":"ve","city":"Barranco Blanco","coordinates":{"lat":"4.9283333","long":"-67.6747222"}},{"country":"ve","city":"Barranco Colorado","coordinates":{"lat":"5.5244444","long":"-67.4205556"}},{"country":"ve","city":"Barrancón","coordinates":{"lat":"7.0875","long":"-70.7838889"}},{"country":"ve","city":"Barrancones","coordinates":{"lat":"9.9333333","long":"-65.2333333"}},{"country":"ve","city":"Barrancones","coordinates":{"lat":"7.0875","long":"-70.7838889"}},{"country":"ve","city":"Barrancones","coordinates":{"lat":"9.9583333","long":"-66.9172222"}},{"country":"ve","city":"Barrancones","coordinates":{"lat":"8.925","long":"-69.7838889"}},{"country":"ve","city":"Barrancos","coordinates":{"lat":"9.7833333","long":"-63.35"}},{"country":"ve","city":"Barrancos Colorados","coordinates":{"lat":"8.39","long":"-62.6825"}},{"country":"ve","city":"Barrancos de Guaritico","coordinates":{"lat":"8.85","long":"-62.0333333"}},{"country":"ve","city":"Barrancote","coordinates":{"lat":"8.9083333","long":"-65.38"}},{"country":"ve","city":"Barrancudo","coordinates":{"lat":"9.0833333","long":"-72.7"}},{"country":"ve","city":"Barranquilla","coordinates":{"lat":"9.175","long":"-61.0955556"}},{"country":"ve","city":"Barranquilla","coordinates":{"lat":"10.0444444","long":"-70.26"}},{"country":"ve","city":"Barranquilla","coordinates":{"lat":"7.6744444","long":"-72.0133333"}},{"country":"ve","city":"Barranquilla","coordinates":{"lat":"9.0688889","long":"-71.3291667"}},{"country":"ve","city":"Barranquín","coordinates":{"lat":"10.3833333","long":"-64.0833333"}},{"country":"ve","city":"Barranquita","coordinates":{"lat":"9.9833333","long":"-72.0333333"}},{"country":"ve","city":"Barranquitas","coordinates":{"lat":"11.5236111","long":"-69.2886111"}},{"country":"ve","city":"Barranquitas","coordinates":{"lat":"9.9833333","long":"-72.0333333"}},{"country":"ve","city":"Barranquitas de Culebra","coordinates":{"lat":"11.1225","long":"-70.3144444"}},{"country":"ve","city":"Barranquito","coordinates":{"lat":"9.9833333","long":"-72.0333333"}},{"country":"ve","city":"Barratia","coordinates":{"lat":"10.1666667","long":"-66.7"}},{"country":"ve","city":"Barrenas","coordinates":{"lat":"10.1","long":"-68.1833333"}},{"country":"ve","city":"Barrera Abajo","coordinates":{"lat":"10.0955556","long":"-68.1591667"}},{"country":"ve","city":"Barrera Arriba","coordinates":{"lat":"10.1127778","long":"-68.1722222"}},{"country":"ve","city":"Barrera","coordinates":{"lat":"10.1127778","long":"-68.1722222"}},{"country":"ve","city":"Barreras","coordinates":{"lat":"10.1127778","long":"-68.1722222"}},{"country":"ve","city":"Barrerita","coordinates":{"lat":"10.0427778","long":"-68.0808333"}},{"country":"ve","city":"Barreto","coordinates":{"lat":"9.45","long":"-68.7166667"}},{"country":"ve","city":"Barriaino","coordinates":{"lat":"9.8833333","long":"-67.7666667"}},{"country":"ve","city":"Barrialito","coordinates":{"lat":"11.2505556","long":"-70.0130556"}},{"country":"ve","city":"Barrialito","coordinates":{"lat":"8.82","long":"-65.1116667"}},{"country":"ve","city":"Barrialito","coordinates":{"lat":"10.5527778","long":"-70.1466667"}},{"country":"ve","city":"Barrialito","coordinates":{"lat":"10.1052778","long":"-66.8133333"}},{"country":"ve","city":"Barrialito","coordinates":{"lat":"8.7852778","long":"-69.8247222"}},{"country":"ve","city":"Barrialón","coordinates":{"lat":"7.5033333","long":"-65.6677778"}},{"country":"ve","city":"Barrialote","coordinates":{"lat":"9.4780556","long":"-64.8275"}},{"country":"ve","city":"Barrialote","coordinates":{"lat":"10.2238889","long":"-67.2705556"}},{"country":"ve","city":"Barriatera","coordinates":{"lat":"7.6461111","long":"-69.7127778"}},{"country":"ve","city":"Barriero","coordinates":{"lat":"9.0166667","long":"-69.4666667"}},{"country":"ve","city":"Barrio Aduana","coordinates":{"lat":"10.13","long":"-64.6783333"}},{"country":"ve","city":"Barrio Ajuro","coordinates":{"lat":"9.6111111","long":"-69.3308333"}},{"country":"ve","city":"Barrio Andrés Eloy Blanco","coordinates":{"lat":"11.6833333","long":"-70.2"}},{"country":"ve","city":"Barrio Beisbol","coordinates":{"lat":"10.27","long":"-67.175"}},{"country":"ve","city":"Barrio Blanco","coordinates":{"lat":"9.2333333","long":"-64.9166667"}},{"country":"ve","city":"Barrio Buenos Aires","coordinates":{"lat":"10.1366667","long":"-64.7022222"}},{"country":"ve","city":"Barrio Cayaurima","coordinates":{"lat":"10.1311111","long":"-64.7"}},{"country":"ve","city":"Barrio Colombia","coordinates":{"lat":"11.4522222","long":"-69.5533333"}},{"country":"ve","city":"Barrio Coromoto","coordinates":{"lat":"10.2636111","long":"-67.6227778"}},{"country":"ve","city":"Barrio Democracia","coordinates":{"lat":"10.2552778","long":"-67.6041667"}},{"country":"ve","city":"Barrio El Bajo","coordinates":{"lat":"8.8333333","long":"-64.7333333"}},{"country":"ve","city":"Barrio El Bolivariano","coordinates":{"lat":"10.4333333","long":"-64.1666667"}},{"country":"ve","city":"Barrio El Dique","coordinates":{"lat":"10.475","long":"-64.1872222"}},{"country":"ve","city":"Barrio ElGuafal","coordinates":{"lat":"9.3444444","long":"-69.1288889"}},{"country":"ve","city":"Barrio El Matadero","coordinates":{"lat":"10.36","long":"-67.0666667"}},{"country":"ve","city":"Barrio El Milagro","coordinates":{"lat":"10.65","long":"-71.6"}},{"country":"ve","city":"Barrio El Mulato","coordinates":{"lat":"9.6933333","long":"-63.6022222"}},{"country":"ve","city":"Barrio El Pajón","coordinates":{"lat":"10.8391667","long":"-69.2730556"}},{"country":"ve","city":"Barrio El Paraíso","coordinates":{"lat":"10.2033333","long":"-64.6572222"}},{"country":"ve","city":"Barrio Guamachito","coordinates":{"lat":"10.1416667","long":"-64.675"}},{"country":"ve","city":"Barrio Guayabal","coordinates":{"lat":"5.3216667","long":"-66.0683333"}},{"country":"ve","city":"Barrio J. Felix Ribas","coordinates":{"lat":"10.7016667","long":"-71.675"}},{"country":"ve","city":"Barrio La Primavera","coordinates":{"lat":"10.4122222","long":"-67.9083333"}},{"country":"ve","city":"Barrio Leonardo Ruíz Pineda","coordinates":{"lat":"10.2605556","long":"-67.1844444"}},{"country":"ve","city":"Barrio Miramara","coordinates":{"lat":"11.7166667","long":"-70.2"}},{"country":"ve","city":"Barrio Miramar","coordinates":{"lat":"11.7166667","long":"-70.2"}},{"country":"ve","city":"Barrio Mundo Nuevo","coordinates":{"lat":"10.4666667","long":"-64.1666667"}},{"country":"ve","city":"Barrio Nuevo","coordinates":{"lat":"10.7616667","long":"-69.6355556"}},{"country":"ve","city":"Barrio Nuevo","coordinates":{"lat":"10.38","long":"-69.0716667"}},{"country":"ve","city":"Barrio Nuevo","coordinates":{"lat":"9.9475","long":"-69.1305556"}},{"country":"ve","city":"Barrio Obrero","coordinates":{"lat":"9.6866667","long":"-63.6144444"}},{"country":"ve","city":"Barrio San José","coordinates":{"lat":"10.2416667","long":"-67.575"}},{"country":"ve","city":"Barrio Sucre","coordinates":{"lat":"10.155","long":"-64.6705556"}},{"country":"ve","city":"Barrio Trujillo","coordinates":{"lat":"10.3416667","long":"-72.3144444"}},{"country":"ve","city":"Barrio Unión","coordinates":{"lat":"10.1811111","long":"-71.2955556"}},{"country":"ve","city":"Barrio Zulia","coordinates":{"lat":"10.6833333","long":"-71.6872222"}},{"country":"ve","city":"Barrito","coordinates":{"lat":"9.45","long":"-68.7166667"}},{"country":"ve","city":"Barro Negro","coordinates":{"lat":"7.7666667","long":"-71.15"}},{"country":"ve","city":"Barro Negro","coordinates":{"lat":"9.7141667","long":"-68.6055556"}},{"country":"ve","city":"Barro Negro","coordinates":{"lat":"10.85","long":"-70.85"}},{"country":"ve","city":"Barro Negro","coordinates":{"lat":"9.6933333","long":"-69.6144444"}},{"country":"ve","city":"Barro Unión","coordinates":{"lat":"9.0644444","long":"-69.7311111"}},{"country":"ve","city":"Bartolome de Las Casas","coordinates":{"lat":"9.6294444","long":"-72.5872222"}},{"country":"ve","city":"Barua","coordinates":{"lat":"9.6638889","long":"-70.9361111"}},{"country":"ve","city":"Barúa","coordinates":{"lat":"9.6566667","long":"-70.9277778"}},{"country":"ve","city":"Baruche","coordinates":{"lat":"11.1994444","long":"-70.5669444"}},{"country":"ve","city":"Baruno","coordinates":{"lat":"11.85","long":"-70.0333333"}},{"country":"ve","city":"Barunú","coordinates":{"lat":"11.8638889","long":"-70.0169444"}},{"country":"ve","city":"Baruta","coordinates":{"lat":"10.4333333","long":"-66.8833333"}},{"country":"ve","city":"Baruta","coordinates":{"lat":"9.435","long":"-63.0183333"}},{"country":"ve","city":"Barutal","coordinates":{"lat":"9.1222222","long":"-65.0361111"}},{"country":"ve","city":"Barzan","coordinates":{"lat":"10.78","long":"-71.2311111"}},{"country":"ve","city":"Baschi","coordinates":{"lat":"6.9833333","long":"-62.2833333"}},{"country":"ve","city":"Bastardero","coordinates":{"lat":"8.5944444","long":"-66.0583333"}},{"country":"ve","city":"Bastian","coordinates":{"lat":"9.8572222","long":"-70.2372222"}},{"country":"ve","city":"Bastidas","coordinates":{"lat":"10.4005556","long":"-70.3061111"}},{"country":"ve","city":"Basura","coordinates":{"lat":"9.8666667","long":"-65.45"}},{"country":"ve","city":"Batalal","coordinates":{"lat":"9.3166667","long":"-70.15"}},{"country":"ve","city":"Batatal","coordinates":{"lat":"8.2","long":"-70.1166667"}},{"country":"ve","city":"Batatal","coordinates":{"lat":"10.335","long":"-69.0644444"}},{"country":"ve","city":"Batatal","coordinates":{"lat":"10.0","long":"-65.9666667"}},{"country":"ve","city":"Batatal","coordinates":{"lat":"9.3166667","long":"-70.15"}},{"country":"ve","city":"Batatuy","coordinates":{"lat":"8.1805556","long":"-70.8461111"}},{"country":"ve","city":"Baulito","coordinates":{"lat":"9.9666667","long":"-67.5"}},{"country":"ve","city":"Baulito","coordinates":{"lat":"8.775","long":"-67.7816667"}},{"country":"ve","city":"Bayona","coordinates":{"lat":"8.0666667","long":"-65.0666667"}},{"country":"ve","city":"Bebedero","coordinates":{"lat":"8.0938889","long":"-64.5655556"}},{"country":"ve","city":"Bebedero","coordinates":{"lat":"10.2522222","long":"-63.8966667"}},{"country":"ve","city":"Befenero","coordinates":{"lat":"8.7833333","long":"-70.1333333"}},{"country":"ve","city":"Begonia","coordinates":{"lat":"7.8575","long":"-66.5166667"}},{"country":"ve","city":"Begonia","coordinates":{"lat":"10.2666667","long":"-66.35"}},{"country":"ve","city":"Bejaranito","coordinates":{"lat":"10.3833333","long":"-66.95"}},{"country":"ve","city":"Bejarano","coordinates":{"lat":"10.3833333","long":"-66.9166667"}},{"country":"ve","city":"Bejucal Abajo","coordinates":{"lat":"8.7722222","long":"-69.9836111"}},{"country":"ve","city":"Bejucal Bajo","coordinates":{"lat":"8.7722222","long":"-69.9836111"}},{"country":"ve","city":"Bejucal","coordinates":{"lat":"10.0111111","long":"-66.9713889"}},{"country":"ve","city":"Bejucal","coordinates":{"lat":"11.0","long":"-68.65"}},{"country":"ve","city":"Bejucal","coordinates":{"lat":"9.4166667","long":"-66.25"}},{"country":"ve","city":"Bejucal","coordinates":{"lat":"10.075","long":"-63.6833333"}},{"country":"ve","city":"Bejucal","coordinates":{"lat":"10.2888889","long":"-63.9127778"}},{"country":"ve","city":"Bejucales","coordinates":{"lat":"9.7625","long":"-63.5069444"}},{"country":"ve","city":"Bejuco","coordinates":{"lat":"8.0622222","long":"-66.97"}},{"country":"ve","city":"Bejuco","coordinates":{"lat":"10.0333333","long":"-69.4666667"}},{"country":"ve","city":"Bejuco de Mata","coordinates":{"lat":"7.7383333","long":"-69.7477778"}},