[{"country":"rs","city":"Ablián","coordinates":{"lat":"44.947222","long":"21.370833"}},{"country":"rs","city":"Abrangjë","coordinates":{"lat":"42.913889","long":"21.170556"}},{"country":"rs","city":"Abria e Epërme","coordinates":{"lat":"42.634722","long":"20.789444"}},{"country":"rs","city":"Abrije e Epërme","coordinates":{"lat":"42.634722","long":"20.789444"}},{"country":"rs","city":"Abrijë e Poshtemë","coordinates":{"lat":"42.641389","long":"20.753611"}},{"country":"rs","city":"Abthausen","coordinates":{"lat":"45.671111","long":"18.984722"}},{"country":"rs","city":"Açarevë","coordinates":{"lat":"42.65","long":"20.716667"}},{"country":"rs","city":"Acimija","coordinates":{"lat":"43.739722","long":"19.788333"}},{"country":"rs","city":"Acimovici","coordinates":{"lat":"43.882222","long":"19.655278"}},{"country":"rs","city":"Açina","coordinates":{"lat":"42.344722","long":"21.504722"}},{"country":"rs","city":"Ackovici","coordinates":{"lat":"43.149444","long":"20.643889"}},{"country":"rs","city":"Acumincum","coordinates":{"lat":"45.142778","long":"20.2575"}},{"country":"rs","city":"Ada","coordinates":{"lat":"45.8025","long":"20.125833"}},{"country":"rs","city":"Adam Mala","coordinates":{"lat":"42.186389","long":"21.278056"}},{"country":"rs","city":"Adasevci","coordinates":{"lat":"45.0775","long":"19.221111"}},{"country":"rs","city":"Adda","coordinates":{"lat":"45.8025","long":"20.125833"}},{"country":"rs","city":"Ade","coordinates":{"lat":"42.665833","long":"21.029444"}},{"country":"rs","city":"Adilovic Mahala","coordinates":{"lat":"42.713333","long":"21.253889"}},{"country":"rs","city":"Adimovci","coordinates":{"lat":"44.008056","long":"19.664167"}},{"country":"rs","city":"Adorjan","coordinates":{"lat":"45.997222","long":"20.040278"}},{"country":"rs","city":"Adrani","coordinates":{"lat":"43.764722","long":"20.635556"}},{"country":"rs","city":"Adrovac","coordinates":{"lat":"44.233333","long":"20.966667"}},{"country":"rs","city":"Adrovici","coordinates":{"lat":"43.459167","long":"19.6125"}},{"country":"rs","city":"Adzica Mala","coordinates":{"lat":"44.545833","long":"19.441111"}},{"country":"rs","city":"Adzici","coordinates":{"lat":"42.743056","long":"20.046389"}},{"country":"rs","city":"Adzine Livade","coordinates":{"lat":"43.903889","long":"20.872222"}},{"country":"rs","city":"Adzini","coordinates":{"lat":"42.344722","long":"21.504722"}},{"country":"rs","city":"Adzovice","coordinates":{"lat":"43.218056","long":"21.0925"}},{"country":"rs","city":"Adzovici","coordinates":{"lat":"42.709722","long":"20.044167"}},{"country":"rs","city":"Adzt","coordinates":{"lat":"42.347222","long":"21.538056"}},{"country":"rs","city":"Agus Mahala","coordinates":{"lat":"42.259444","long":"21.114167"}},{"country":"rs","city":"Agusovic-Mahala","coordinates":{"lat":"42.366111","long":"21.224167"}},{"country":"rs","city":"Ahishta","coordinates":{"lat":"43.0525","long":"21.060833"}},{"country":"rs","city":"Ahishte-a","coordinates":{"lat":"42.454444","long":"21.561389"}},{"country":"rs","city":"Ahishtë","coordinates":{"lat":"43.0525","long":"21.060833"}},{"country":"rs","city":"Ahmote","coordinates":{"lat":"42.336389","long":"21.560833"}},{"country":"rs","city":"Ajdacici","coordinates":{"lat":"43.658056","long":"20.200556"}},{"country":"rs","city":"Ajdarevic Mahala","coordinates":{"lat":"42.651111","long":"20.941667"}},{"country":"rs","city":"Ajducica","coordinates":{"lat":"45.249167","long":"20.957222"}},{"country":"rs","city":"Ajetovic Mahala","coordinates":{"lat":"42.718611","long":"21.248333"}},{"country":"rs","city":"Ajkobila","coordinates":{"lat":"42.733333","long":"21.478333"}},{"country":"rs","city":"Ajkovila","coordinates":{"lat":"42.733333","long":"21.478333"}},{"country":"rs","city":"Ajnevce","coordinates":{"lat":"42.629167","long":"21.546667"}},{"country":"rs","city":"Ajnovce","coordinates":{"lat":"42.629167","long":"21.546667"}},{"country":"rs","city":"Ajvalija","coordinates":{"lat":"42.618056","long":"21.180833"}},{"country":"rs","city":"Ajvazi","coordinates":{"lat":"42.453056","long":"21.345556"}},{"country":"rs","city":"Akllap","coordinates":{"lat":"42.541389","long":"21.241389"}},{"country":"rs","city":"Akmacici","coordinates":{"lat":"43.424167","long":"19.870278"}},{"country":"rs","city":"Akosnicë","coordinates":{"lat":"42.606667","long":"21.253056"}},{"country":"rs","city":"Akrashticë","coordinates":{"lat":"42.825278","long":"20.909444"}},{"country":"rs","city":"Alabak","coordinates":{"lat":"42.794444","long":"21.220833"}},{"country":"rs","city":"Alabana","coordinates":{"lat":"43.292778","long":"21.348611"}},{"country":"rs","city":"Alagina Reka","coordinates":{"lat":"42.728333","long":"20.159444"}},{"country":"rs","city":"Alakince","coordinates":{"lat":"42.695833","long":"22.144167"}},{"country":"rs","city":"Alakinci","coordinates":{"lat":"42.695833","long":"22.144167"}},{"country":"rs","city":"Alavandici","coordinates":{"lat":"43.253056","long":"19.678056"}},{"country":"rs","city":"Albana e Madhe","coordinates":{"lat":"42.603333","long":"21.020556"}},{"country":"rs","city":"Albana e Vogël","coordinates":{"lat":"42.606111","long":"21.028333"}},{"country":"rs","city":"Albanci","coordinates":{"lat":"42.435278","long":"22.1225"}},{"country":"rs","city":"Albanija","coordinates":{"lat":"43.391389","long":"21.176111"}},{"country":"rs","city":"Albanik","coordinates":{"lat":"42.856667","long":"21.249444"}},{"country":"rs","city":"Albaniku","coordinates":{"lat":"42.856667","long":"21.249444"}},{"country":"rs","city":"Albona e Epërme","coordinates":{"lat":"43.0075","long":"21.118333"}},{"country":"rs","city":"Albona e Poshtme","coordinates":{"lat":"42.988889","long":"21.135278"}},{"country":"rs","city":"Aldinac","coordinates":{"lat":"43.529444","long":"22.445556"}},{"country":"rs","city":"Aldina Reka","coordinates":{"lat":"43.451944","long":"22.516944"}},{"country":"rs","city":"Aldinci","coordinates":{"lat":"43.529444","long":"22.445556"}},{"country":"rs","city":"Aleksandrovac","coordinates":{"lat":"44.445","long":"21.211667"}},{"country":"rs","city":"Aleksandrov Gaj","coordinates":{"lat":"45.292222","long":"21.136667"}},{"country":"rs","city":"Aleksandrovo","coordinates":{"lat":"45.636944","long":"20.592778"}},{"country":"rs","city":"Aleksa Santic","coordinates":{"lat":"45.930833","long":"19.329722"}},{"country":"rs","city":"Aleksici","coordinates":{"lat":"43.018611","long":"21.318611"}},{"country":"rs","city":"Aleksinac","coordinates":{"lat":"43.541667","long":"21.707778"}},{"country":"rs","city":"Aleksinacki Bujmir","coordinates":{"lat":"43.512778","long":"21.749167"}},{"country":"rs","city":"Aleksinacki Rudnici Uglja","coordinates":{"lat":"43.558056","long":"21.691389"}},{"country":"rs","city":"Aleksine","coordinates":{"lat":"42.978056","long":"22.289722"}},{"country":"rs","city":"Aleksino","coordinates":{"lat":"43.054444","long":"21.409167"}},{"country":"rs","city":"Alexanderkirchen","coordinates":{"lat":"44.739167","long":"20.6975"}},{"country":"rs","city":"Alibunar","coordinates":{"lat":"45.080833","long":"20.965833"}},{"country":"rs","city":"Aliderce","coordinates":{"lat":"42.290833","long":"21.733333"}},{"country":"rs","city":"Aligerce","coordinates":{"lat":"42.290833","long":"21.733333"}},{"country":"rs","city":"Alil-Mahala","coordinates":{"lat":"42.190833","long":"21.213889"}},{"country":"rs","city":"Alin Potok","coordinates":{"lat":"43.701389","long":"19.7975"}},{"country":"rs","city":"Alisbrunn","coordinates":{"lat":"45.080833","long":"20.965833"}},{"country":"rs","city":"Aliverovice","coordinates":{"lat":"43.145278","long":"20.169167"}},{"country":"rs","city":"Alivit","coordinates":{"lat":"42.340278","long":"21.212778"}},{"country":"rs","city":"Aljinovice","coordinates":{"lat":"43.331944","long":"19.847222"}},{"country":"rs","city":"Aljinovici","coordinates":{"lat":"43.331944","long":"19.847222"}},{"country":"rs","city":"Aljovic","coordinates":{"lat":"42.421667","long":"20.8025"}},{"country":"rs","city":"Aljsic","coordinates":{"lat":"42.390278","long":"21.602222"}},{"country":"rs","city":"Aljudovo","coordinates":{"lat":"44.506667","long":"21.428889"}},{"country":"rs","city":"Allaga","coordinates":{"lat":"42.728333","long":"20.159444"}},{"country":"rs","city":"Allibunar","coordinates":{"lat":"45.080833","long":"20.965833"}},{"country":"rs","city":"Almád","coordinates":{"lat":"45.078056","long":"21.392222"}},{"country":"rs","city":"Alsóaradi","coordinates":{"lat":"45.383056","long":"20.301389"}},{"country":"rs","city":"Alsóittebe","coordinates":{"lat":"45.559444","long":"20.694444"}},{"country":"rs","city":"Alsókabol","coordinates":{"lat":"45.227778","long":"20.021667"}},{"country":"rs","city":"Alsókovil","coordinates":{"lat":"45.227778","long":"20.021667"}},{"country":"rs","city":"Alt-Betsche","coordinates":{"lat":"45.618889","long":"20.036111"}},{"country":"rs","city":"Alt-Borscha","coordinates":{"lat":"44.870278","long":"20.458611"}},{"country":"rs","city":"Alt-Etschka","coordinates":{"lat":"45.293889","long":"20.456667"}},{"country":"rs","city":"Alt-Futok","coordinates":{"lat":"45.241111","long":"19.71"}},{"country":"rs","city":"Altfuttak","coordinates":{"lat":"45.241111","long":"19.71"}},{"country":"rs","city":"Alt-Kanischa","coordinates":{"lat":"46.066667","long":"20.05"}},{"country":"rs","city":"Alt-Keer","coordinates":{"lat":"45.453611","long":"19.685833"}},{"country":"rs","city":"Alt-Ker","coordinates":{"lat":"45.453611","long":"19.685833"}},{"country":"rs","city":"Alt-Letz","coordinates":{"lat":"45.283611","long":"20.963056"}},{"country":"rs","city":"Alt-Palanka","coordinates":{"lat":"44.8425","long":"21.326667"}},{"country":"rs","city":"Alt-Pasua","coordinates":{"lat":"44.985","long":"20.160833"}},{"country":"rs","city":"Alt-Pazua","coordinates":{"lat":"44.985","long":"20.160833"}},{"country":"rs","city":"Alt-Sankamen","coordinates":{"lat":"45.142778","long":"20.2575"}},{"country":"rs","city":"Alt-Schowe","coordinates":{"lat":"45.450278","long":"19.619167"}},{"country":"rs","city":"Alt-Sivac","coordinates":{"lat":"45.704167","long":"19.379722"}},{"country":"rs","city":"Alt-Siwatz","coordinates":{"lat":"45.704167","long":"19.379722"}},{"country":"rs","city":"Alt-Stapar","coordinates":{"lat":"45.661389","long":"19.205"}},{"country":"rs","city":"Alt-Werbass","coordinates":{"lat":"45.571389","long":"19.640833"}},{"country":"rs","city":"Altwiesen","coordinates":{"lat":"45.453611","long":"19.685833"}},{"country":"rs","city":"Aluga","coordinates":{"lat":"43.951111","long":"19.367778"}},{"country":"rs","city":"Aluge","coordinates":{"lat":"43.128611","long":"20.607778"}},{"country":"rs","city":"Alulovice","coordinates":{"lat":"43.208333","long":"20.467778"}},{"country":"rs","city":"Alulovici","coordinates":{"lat":"43.208333","long":"20.467778"}},{"country":"rs","city":"Aluraj","coordinates":{"lat":"42.644444","long":"20.711111"}},{"country":"rs","city":"Alurevic","coordinates":{"lat":"42.644444","long":"20.711111"}},{"country":"rs","city":"Amajic","coordinates":{"lat":"44.319167","long":"19.149167"}},{"country":"rs","city":"Amarevi","coordinates":{"lat":"42.645833","long":"22.358889"}},{"country":"rs","city":"Amatevic Mahala","coordinates":{"lat":"42.678889","long":"21.289444"}},{"country":"rs","city":"Ambariste","coordinates":{"lat":"44.373056","long":"19.197778"}},{"country":"rs","city":"Americ","coordinates":{"lat":"44.472222","long":"20.643889"}},{"country":"rs","city":"Amjcici","coordinates":{"lat":"43.473889","long":"19.925833"}},{"country":"rs","city":"Amzici","coordinates":{"lat":"43.494444","long":"19.845"}},{"country":"rs","city":"Anallap","coordinates":{"lat":"42.951111","long":"21.156944"}},{"country":"rs","city":"Anallapi","coordinates":{"lat":"42.951111","long":"21.156944"}},{"country":"rs","city":"Analum","coordinates":{"lat":"42.555278","long":"21.657222"}},{"country":"rs","city":"Analumi","coordinates":{"lat":"42.555278","long":"21.657222"}},{"country":"rs","city":"Andelici","coordinates":{"lat":"43.763889","long":"20.228889"}},{"country":"rs","city":"Andelinkovci","coordinates":{"lat":"42.456111","long":"22.05"}},{"country":"rs","city":"Andelkovska Mahala","coordinates":{"lat":"42.510556","long":"21.969444"}},{"country":"rs","city":"Andici","coordinates":{"lat":"43.836389","long":"19.695833"}},{"country":"rs","city":"Andiri","coordinates":{"lat":"43.836389","long":"19.695833"}},{"country":"rs","city":"Andraca","coordinates":{"lat":"44.434722","long":"19.181667"}},{"country":"rs","city":"Andrásföldje","coordinates":{"lat":"45.815","long":"19.636111"}},{"country":"rs","city":"Andrejevac","coordinates":{"lat":"45.383056","long":"20.301389"}},{"country":"rs","city":"Andrejevac Aradac","coordinates":{"lat":"45.383056","long":"20.301389"}},{"country":"rs","city":"Andrici","coordinates":{"lat":"44.387222","long":"19.699722"}},{"country":"rs","city":"Androvac","coordinates":{"lat":"42.597778","long":"21.288056"}},{"country":"rs","city":"Androvce","coordinates":{"lat":"42.597778","long":"21.288056"}},{"country":"rs","city":"Angelince","coordinates":{"lat":"42.417222","long":"22.164722"}},{"country":"rs","city":"Anicici","coordinates":{"lat":"43.473889","long":"19.925833"}},{"country":"rs","city":"Antalfalva","coordinates":{"lat":"45.111667","long":"20.621389"}},{"country":"rs","city":"Antici","coordinates":{"lat":"43.191111","long":"21.389722"}},{"country":"rs","city":"Antonica Mala","coordinates":{"lat":"44.531944","long":"19.322778"}},{"country":"rs","city":"Antonici","coordinates":{"lat":"44.478611","long":"19.218056"}},{"country":"rs","city":"Anzici","coordinates":{"lat":"43.831111","long":"19.68"}},{"country":"rs","city":"Apathin","coordinates":{"lat":"45.671111","long":"18.984722"}},{"country":"rs","city":"Apati","coordinates":{"lat":"45.671111","long":"18.984722"}},{"country":"rs","city":"Apatin","coordinates":{"lat":"45.671111","long":"18.984722"}},{"country":"rs","city":"Apfeldorf","coordinates":{"lat":"44.949444","long":"20.599722"}},{"country":"rs","city":"Aqareva","coordinates":{"lat":"42.65","long":"20.716667"}},{"country":"rs","city":"Aqarevë","coordinates":{"lat":"42.65","long":"20.716667"}},{"country":"rs","city":"Arac","coordinates":{"lat":"45.598611","long":"20.135556"}},{"country":"rs","city":"Aracs","coordinates":{"lat":"45.598611","long":"20.135556"}},{"country":"rs","city":"Aradac","coordinates":{"lat":"45.383056","long":"20.301389"}},{"country":"rs","city":"Aradatz","coordinates":{"lat":"45.383056","long":"20.301389"}},{"country":"rs","city":"Aradaz","coordinates":{"lat":"45.383056","long":"20.301389"}},{"country":"rs","city":"Aradec","coordinates":{"lat":"45.383056","long":"20.301389"}},{"country":"rs","city":"Aradi","coordinates":{"lat":"45.383056","long":"20.301389"}},{"country":"rs","city":"Aradin","coordinates":{"lat":"42.316389","long":"21.246389"}},{"country":"rs","city":"Arandelovac","coordinates":{"lat":"44.306944","long":"20.56"}},{"country":"rs","city":"Arangjelovac","coordinates":{"lat":"44.306944","long":"20.56"}},{"country":"rs","city":"Arapovac","coordinates":{"lat":"44.455","long":"20.388056"}},{"country":"rs","city":"Arapovice","coordinates":{"lat":"43.123611","long":"20.254167"}},{"country":"rs","city":"Arapovici","coordinates":{"lat":"43.123611","long":"20.254167"}},{"country":"rs","city":"Arat e Gjata","coordinates":{"lat":"42.714444","long":"20.079722"}},{"country":"rs","city":"Arbana","coordinates":{"lat":"42.231667","long":"20.719722"}},{"country":"rs","city":"Arban-a","coordinates":{"lat":"42.739722","long":"20.369722"}},{"country":"rs","city":"Arbanas","coordinates":{"lat":"42.286667","long":"20.698056"}},{"country":"rs","city":"Arbanasce","coordinates":{"lat":"43.273611","long":"21.637778"}},{"country":"rs","city":"Arbanasci","coordinates":{"lat":"43.273611","long":"21.637778"}},{"country":"rs","city":"Arbanaska","coordinates":{"lat":"43.078333","long":"21.438333"}},{"country":"rs","city":"Arbanë","coordinates":{"lat":"42.231667","long":"20.719722"}},{"country":"rs","city":"Arbënesh","coordinates":{"lat":"42.7275","long":"20.484722"}},{"country":"rs","city":"Arbëneshi","coordinates":{"lat":"42.7275","long":"20.484722"}},{"country":"rs","city":"Arbnia","coordinates":{"lat":"42.695","long":"20.338611"}},{"country":"rs","city":"Arbulici","coordinates":{"lat":"43.418889","long":"20.365"}},{"country":"rs","city":"Ardesh","coordinates":{"lat":"42.053333","long":"20.7"}},{"country":"rs","city":"Ardeshi","coordinates":{"lat":"42.053333","long":"20.7"}},{"country":"rs","city":"Ardian","coordinates":{"lat":"42.623889","long":"20.460833"}},{"country":"rs","city":"Ardiani","coordinates":{"lat":"42.623889","long":"20.460833"}},{"country":"rs","city":"Ariliaca","coordinates":{"lat":"42.584167","long":"21.001944"}},{"country":"rs","city":"Ariljaca","coordinates":{"lat":"42.584167","long":"21.001944"}},{"country":"rs","city":"Arilje","coordinates":{"lat":"43.753056","long":"20.095556"}},{"country":"rs","city":"Aritonova Mahala","coordinates":{"lat":"42.332778","long":"21.863333"}},{"country":"rs","city":"Árkod","coordinates":{"lat":"45.268889","long":"20.758333"}},{"country":"rs","city":"Arlat","coordinates":{"lat":"42.551389","long":"20.835278"}},{"country":"rs","city":"Arllat","coordinates":{"lat":"42.551389","long":"20.835278"}},{"country":"rs","city":"Arllati","coordinates":{"lat":"42.551389","long":"20.835278"}},{"country":"rs","city":"Arnajevo","coordinates":{"lat":"44.501111","long":"20.375556"}},{"country":"rs","city":"Arnautovici","coordinates":{"lat":"43.979722","long":"19.990278"}},{"country":"rs","city":"Arnaut Polje","coordinates":{"lat":"43.250833","long":"19.682778"}},{"country":"rs","city":"Arnautska Mahala","coordinates":{"lat":"42.5375","long":"22.448333"}},{"country":"rs","city":"Árpatarló","coordinates":{"lat":"45.008056","long":"19.822222"}},{"country":"rs","city":"Árpataró","coordinates":{"lat":"45.008056","long":"19.822222"}},{"country":"rs","city":"Arrishta","coordinates":{"lat":"42.665278","long":"20.357222"}},{"country":"rs","city":"Arrnjet","coordinates":{"lat":"42.5075","long":"20.317778"}},{"country":"rs","city":"Arrnjeti","coordinates":{"lat":"42.5075","long":"20.317778"}},{"country":"rs","city":"Arsenovici","coordinates":{"lat":"44.521667","long":"19.4775"}},{"country":"rs","city":"Arsici","coordinates":{"lat":"43.33","long":"21.16"}},{"country":"rs","city":"Artana","coordinates":{"lat":"42.617778","long":"21.419722"}},{"country":"rs","city":"Artanë","coordinates":{"lat":"42.617778","long":"21.419722"}},{"country":"rs","city":"Arucevic","coordinates":{"lat":"42.638611","long":"20.717778"}},{"country":"rs","city":"Asance Mahala","coordinates":{"lat":"42.318889","long":"21.150556"}},{"country":"rs","city":"Asane","coordinates":{"lat":"42.273333","long":"21.735833"}},{"country":"rs","city":"Asani","coordinates":{"lat":"42.273333","long":"21.735833"}},{"country":"rs","city":"Asanja","coordinates":{"lat":"44.755556","long":"20.082222"}},{"country":"rs","city":"Asanovac","coordinates":{"lat":"43.137778","long":"21.645556"}},{"country":"rs","city":"Asanovo Selo","coordinates":{"lat":"43.450278","long":"20.382222"}},{"country":"rs","city":"Ashlan","coordinates":{"lat":"42.809444","long":"20.873333"}},{"country":"rs","city":"Asmansha Mahala","coordinates":{"lat":"42.31","long":"21.594722"}},{"country":"rs","city":"Asmanska Mahala","coordinates":{"lat":"42.309722","long":"21.601389"}},{"country":"rs","city":"Astrazub","coordinates":{"lat":"42.448333","long":"20.7"}},{"country":"rs","city":"Astrozub","coordinates":{"lat":"42.448333","long":"20.7"}},{"country":"rs","city":"Ategan Mahala","coordinates":{"lat":"42.533056","long":"21.945833"}},{"country":"rs","city":"Atenica","coordinates":{"lat":"43.858333","long":"20.357778"}},{"country":"rs","city":"Atmada","coordinates":{"lat":"42.242778","long":"20.681667"}},{"country":"rs","city":"Atmadza","coordinates":{"lat":"42.242778","long":"20.681667"}},{"country":"rs","city":"Atmagjë","coordinates":{"lat":"42.242778","long":"20.681667"}},{"country":"rs","city":"Avala","coordinates":{"lat":"44.425833","long":"19.928889"}},{"country":"rs","city":"Avdijevic Mahala","coordinates":{"lat":"42.406667","long":"20.938889"}},{"country":"rs","city":"Avdovi","coordinates":{"lat":"43.4275","long":"19.616111"}},{"country":"rs","city":"Avramovica Mala","coordinates":{"lat":"44.539167","long":"19.438611"}},{"country":"rs","city":"Avramovici","coordinates":{"lat":"44.46","long":"19.236944"}},{"country":"rs","city":"Azanja","coordinates":{"lat":"44.433056","long":"20.879722"}},{"country":"rs","city":"Azbresnica","coordinates":{"lat":"43.357222","long":"21.696111"}},{"country":"rs","city":"Azemovic Mahala","coordinates":{"lat":"42.413056","long":"20.984722"}},{"country":"rs","city":"Azir Mahala","coordinates":{"lat":"42.275556","long":"21.535833"}},{"country":"rs","city":"Baatsch","coordinates":{"lat":"45.391944","long":"19.236667"}},{"country":"rs","city":"Ba","coordinates":{"lat":"44.158333","long":"20.195278"}},{"country":"rs","city":"Babac","coordinates":{"lat":"43.24","long":"19.939167"}},{"country":"rs","city":"Babaic","coordinates":{"lat":"44.233056","long":"20.205"}},{"country":"rs","city":"Babaj","coordinates":{"lat":"42.374722","long":"21.552778"}},{"country":"rs","city":"Babaj Baks","coordinates":{"lat":"42.361667","long":"20.334167"}},{"country":"rs","city":"Babaj Bokës","coordinates":{"lat":"42.361667","long":"20.334167"}},{"country":"rs","city":"Babaj Boks","coordinates":{"lat":"42.361667","long":"20.334167"}},{"country":"rs","city":"Babaj i Bokës","coordinates":{"lat":"42.361667","long":"20.334167"}},{"country":"rs","city":"Babajic","coordinates":{"lat":"44.233056","long":"20.205"}},{"country":"rs","city":"Babaj-Laç","coordinates":{"lat":"42.486111","long":"20.348889"}},{"country":"rs","city":"Babajloc","coordinates":{"lat":"42.486111","long":"20.348889"}},{"country":"rs","city":"Baba Karinci","coordinates":{"lat":"42.635278","long":"21.995833"}},{"country":"rs","city":"Baballoq","coordinates":{"lat":"42.486111","long":"20.348889"}},{"country":"rs","city":"Babaloc","coordinates":{"lat":"42.486111","long":"20.348889"}},{"country":"rs","city":"Babanici","coordinates":{"lat":"44.442222","long":"20.930556"}},{"country":"rs","city":"Babastanici","coordinates":{"lat":"42.353056","long":"21.884722"}},{"country":"rs","city":"Babatrenci","coordinates":{"lat":"42.421667","long":"21.916667"}},{"country":"rs","city":"Babe","coordinates":{"lat":"44.529722","long":"20.526944"}},{"country":"rs","city":"Babica","coordinates":{"lat":"42.963056","long":"20.517222"}},{"country":"rs","city":"Babice","coordinates":{"lat":"42.621944","long":"20.416667"}},{"country":"rs","city":"Babicevi","coordinates":{"lat":"42.805556","long":"22.283889"}},{"country":"rs","city":"Babici","coordinates":{"lat":"42.963056","long":"20.517222"}},{"country":"rs","city":"Babicko","coordinates":{"lat":"43.137778","long":"22.000833"}},{"country":"rs","city":"Babimoc","coordinates":{"lat":"42.743333","long":"21.078889"}},{"country":"rs","city":"Babina Luka","coordinates":{"lat":"44.359167","long":"19.960278"}},{"country":"rs","city":"Babina Poljana","coordinates":{"lat":"42.465833","long":"22.181667"}},{"country":"rs","city":"Babin","coordinates":{"lat":"44.888056","long":"19.7025"}},{"country":"rs","city":"Babin Dol","coordinates":{"lat":"42.571111","long":"22.07"}},{"country":"rs","city":"Babin Kal","coordinates":{"lat":"43.294444","long":"22.379167"}},{"country":"rs","city":"Babin Most","coordinates":{"lat":"42.743333","long":"21.078889"}},{"country":"rs","city":"Babin Potok","coordinates":{"lat":"43.230556","long":"21.630556"}},{"country":"rs","city":"Babiq","coordinates":{"lat":"42.621944","long":"20.416667"}},{"country":"rs","city":"Bablak","coordinates":{"lat":"42.4475","long":"21.150556"}},{"country":"rs","city":"Babljak","coordinates":{"lat":"42.4475","long":"21.150556"}},{"country":"rs","city":"Babotinac","coordinates":{"lat":"43.324722","long":"21.513889"}},{"country":"rs","city":"Babotinci","coordinates":{"lat":"43.324722","long":"21.513889"}},{"country":"rs","city":"Babrez","coordinates":{"lat":"43.095","long":"20.517222"}},{"country":"rs","city":"Babudovica","coordinates":{"lat":"42.966389","long":"20.635"}},{"country":"rs","city":"Babushi i Muhaxherëve","coordinates":{"lat":"42.467222","long":"21.183611"}},{"country":"rs","city":"Babusnica","coordinates":{"lat":"43.059722","long":"22.411667"}},{"country":"rs","city":"Babus Srpski","coordinates":{"lat":"42.448611","long":"21.175278"}},{"country":"rs","city":"Bacaklija","coordinates":{"lat":"44.819444","long":"19.438056"}},{"country":"rs","city":"Bac","coordinates":{"lat":"45.391944","long":"19.236667"}},{"country":"rs","city":"Bac-Ceb","coordinates":{"lat":"45.269444","long":"19.525278"}},{"country":"rs","city":"Bace","coordinates":{"lat":"43.220278","long":"21.345278"}},{"country":"rs","city":"Bacetici","coordinates":{"lat":"43.751389","long":"19.826111"}},{"country":"rs","city":"Bacevac","coordinates":{"lat":"43.698889","long":"19.821667"}},{"country":"rs","city":"Bacevci","coordinates":{"lat":"43.386111","long":"20.854722"}},{"country":"rs","city":"Bacevica","coordinates":{"lat":"43.790833","long":"22.088056"}},{"country":"rs","city":"Bacevina","coordinates":{"lat":"42.950556","long":"21.625"}},{"country":"rs","city":"Baceviste","coordinates":{"lat":"42.655278","long":"21.946111"}},{"country":"rs","city":"Bacevo","coordinates":{"lat":"43.011667","long":"22.844444"}},{"country":"rs","city":"Bacica","coordinates":{"lat":"43.129167","long":"20.199167"}},{"country":"rs","city":"Bacice","coordinates":{"lat":"43.129167","long":"20.199167"}},{"country":"rs","city":"Bacija","coordinates":{"lat":"43.334167","long":"20.043056"}},{"country":"rs","city":"Bacije","coordinates":{"lat":"43.054167","long":"21.419444"}},{"country":"rs","city":"Bacijevac","coordinates":{"lat":"42.717222","long":"22.1475"}},{"country":"rs","city":"Bacijevce","coordinates":{"lat":"42.717222","long":"22.1475"}},{"country":"rs","city":"Bacilovina","coordinates":{"lat":"43.281667","long":"19.639722"}},{"country":"rs","city":"Bacina","coordinates":{"lat":"43.728056","long":"21.299444"}},{"country":"rs","city":"Bacinac","coordinates":{"lat":"44.507778","long":"20.916389"}},{"country":"rs","city":"Bacinci","coordinates":{"lat":"45.081667","long":"19.308889"}},{"country":"rs","city":"Bacine","coordinates":{"lat":"43.458889","long":"19.400556"}},{"country":"rs","city":"Backa","coordinates":{"lat":"42.010278","long":"20.666944"}},{"country":"rs","city":"Backa Dobra","coordinates":{"lat":"45.453611","long":"19.685833"}},{"country":"rs","city":"Backa Palanka","coordinates":{"lat":"45.250833","long":"19.391944"}},{"country":"rs","city":"Backa Topola","coordinates":{"lat":"45.815","long":"19.636111"}},{"country":"rs","city":"Baçkë","coordinates":{"lat":"42.010278","long":"20.666944"}},{"country":"rs","city":"Backi Breg","coordinates":{"lat":"45.921389","long":"18.928889"}},{"country":"rs","city":"Backi Brestovac","coordinates":{"lat":"45.617222","long":"19.269722"}},{"country":"rs","city":"Backi Gracac","coordinates":{"lat":"45.554722","long":"19.323611"}},{"country":"rs","city":"Backi Jarak","coordinates":{"lat":"45.370278","long":"19.875"}},{"country":"rs","city":"Backi Monostor","coordinates":{"lat":"45.793611","long":"18.935833"}},{"country":"rs","city":"Backi Petrovac","coordinates":{"lat":"45.360556","long":"19.591667"}},{"country":"rs","city":"Backi Sokolac","coordinates":{"lat":"45.849444","long":"19.539444"}},{"country":"rs","city":"Backi Vinogradi","coordinates":{"lat":"46.133333","long":"19.866667"}},{"country":"rs","city":"Backo Dobro","coordinates":{"lat":"45.4975","long":"19.689167"}},{"country":"rs","city":"Backo Dobro Polje","coordinates":{"lat":"45.4975","long":"19.689167"}},{"country":"rs","city":"Backo Dusanovo","coordinates":{"lat":"45.906667","long":"19.783333"}},{"country":"rs","city":"Backo Gradiste","coordinates":{"lat":"45.532778","long":"20.028333"}},{"country":"rs","city":"Backo Novo Salo","coordinates":{"lat":"45.293333","long":"19.141389"}},{"country":"rs","city":"Backo Novo Selo","coordinates":{"lat":"45.293333","long":"19.141389"}},{"country":"rs","city":"Backo Petrovo Selo","coordinates":{"lat":"45.708056","long":"20.075278"}},{"country":"rs","city":"Bacoglava","coordinates":{"lat":"43.136944","long":"21.242778"}},{"country":"rs","city":"Bácsárokszállás","coordinates":{"lat":"45.370278","long":"19.875"}},{"country":"rs","city":"Bács","coordinates":{"lat":"45.391944","long":"19.236667"}},{"country":"rs","city":"Bácsbresztovácz","coordinates":{"lat":"45.617222","long":"19.269722"}},{"country":"rs","city":"Bácsbukin","coordinates":{"lat":"45.303056","long":"19.261667"}},{"country":"rs","city":"Bács-Cséb","coordinates":{"lat":"45.269444","long":"19.525278"}},{"country":"rs","city":"Bácsdoroszló","coordinates":{"lat":"45.608611","long":"19.190556"}},{"country":"rs","city":"Bács-Feketehegy","coordinates":{"lat":"45.664167","long":"19.699167"}},{"country":"rs","city":"Bácsföldvár","coordinates":{"lat":"45.532778","long":"20.028333"}},{"country":"rs","city":"Bácsgyulafalva","coordinates":{"lat":"45.795556","long":"19.380833"}},{"country":"rs","city":"Bácskahadikfalva","coordinates":{"lat":"45.413889","long":"19.698333"}},{"country":"rs","city":"Bácskeresztúr","coordinates":{"lat":"45.562778","long":"19.415833"}},{"country":"rs","city":"Bácskertes","coordinates":{"lat":"45.736111","long":"19.009722"}},{"country":"rs","city":"Bácskossuthfalva","coordinates":{"lat":"45.868889","long":"19.466111"}},{"country":"rs","city":"Bácskula","coordinates":{"lat":"45.608889","long":"19.526389"}},{"country":"rs","city":"Bácsmartonos","coordinates":{"lat":"46.116667","long":"20.05"}},{"country":"rs","city":"Bács-Novoszelo","coordinates":{"lat":"45.293333","long":"19.141389"}},{"country":"rs","city":"Bácsordas","coordinates":{"lat":"45.495","long":"19.188056"}},{"country":"rs","city":"Bácsszentiván","coordinates":{"lat":"45.678611","long":"19.086667"}},{"country":"rs","city":"Bács-Szenttamás","coordinates":{"lat":"45.553889","long":"19.802778"}},{"country":"rs","city":"Bacsszollos","coordinates":{"lat":"46.133333","long":"19.866667"}},{"country":"rs","city":"Bacsszolos","coordinates":{"lat":"46.133333","long":"19.866667"}},{"country":"rs","city":"Bácstopolya","coordinates":{"lat":"45.815","long":"19.636111"}},{"country":"rs","city":"Bácstóváros","coordinates":{"lat":"45.353611","long":"19.325"}},{"country":"rs","city":"Bácsújfalu","coordinates":{"lat":"45.409167","long":"19.298333"}},{"country":"rs","city":"Bácsújlak","coordinates":{"lat":"45.293333","long":"19.141389"}},{"country":"rs","city":"Bactovaros","coordinates":{"lat":"45.353611","long":"19.325"}},{"country":"rs","city":"Baculovina","coordinates":{"lat":"43.281667","long":"19.639722"}},{"country":"rs","city":"Bacviste","coordinates":{"lat":"42.661389","long":"22.018056"}},{"country":"rs","city":"Badanj","coordinates":{"lat":"43.307222","long":"20.7"}},{"country":"rs","city":"Badince","coordinates":{"lat":"42.973889","long":"22.01"}},{"country":"rs","city":"Badisici","coordinates":{"lat":"44.388611","long":"19.432222"}},{"country":"rs","city":"Badljevica","coordinates":{"lat":"44.528056","long":"20.785556"}},{"country":"rs","city":"Badnjevac","coordinates":{"lat":"43.170278","long":"21.7875"}},{"country":"rs","city":"Badnjevo","coordinates":{"lat":"44.238889","long":"22.502222"}},{"country":"rs","city":"Badofc","coordinates":{"lat":"42.609722","long":"21.2225"}},{"country":"rs","city":"Badovac","coordinates":{"lat":"42.609722","long":"21.2225"}},{"country":"rs","city":"Badovinci","coordinates":{"lat":"44.785833","long":"19.371389"}},{"country":"rs","city":"Badradzi","coordinates":{"lat":"42.463889","long":"21.001667"}},{"country":"rs","city":"Bafti Mahala","coordinates":{"lat":"42.256389","long":"21.195556"}},{"country":"rs","city":"Bagacice","coordinates":{"lat":"43.288611","long":"20.07"}},{"country":"rs","city":"Bagasce","coordinates":{"lat":"43.432222","long":"20.645278"}},{"country":"rs","city":"Bagase","coordinates":{"lat":"43.432222","long":"20.645278"}},{"country":"rs","city":"Bagasi","coordinates":{"lat":"42.536667","long":"20.373333"}},{"country":"rs","city":"Bagrdan","coordinates":{"lat":"44.0675","long":"21.179444"}},{"country":"rs","city":"Bagremovo","coordinates":{"lat":"45.743889","long":"19.814167"}},{"country":"rs","city":"Bahremovic Mahala","coordinates":{"lat":"42.615","long":"20.793889"}},{"country":"rs","city":"Baica","coordinates":{"lat":"42.716667","long":"20.389167"}},{"country":"rs","city":"Baica e Elshanit","coordinates":{"lat":"42.52","long":"20.915278"}},{"country":"rs","city":"Baicë","coordinates":{"lat":"42.52","long":"20.915278"}},{"country":"rs","city":"Bainovska Mahala","coordinates":{"lat":"42.403333","long":"22.293056"}},{"country":"rs","city":"Baja","coordinates":{"lat":"42.726944","long":"20.391389"}},{"country":"rs","city":"Baja e Pejës","coordinates":{"lat":"42.726944","long":"20.391389"}},{"country":"rs","city":"Bajcetina","coordinates":{"lat":"43.864167","long":"20.891944"}},{"country":"rs","city":"Bajcevica","coordinates":{"lat":"42.408889","long":"22.466389"}},{"country":"rs","city":"Bajcina","coordinates":{"lat":"42.951111","long":"21.156944"}},{"country":"rs","city":"Bajcince","coordinates":{"lat":"43.321667","long":"21.544167"}},{"country":"rs","city":"Bajcinovce","coordinates":{"lat":"42.912222","long":"21.096111"}},{"country":"rs","city":"Bajdan Mahala","coordinates":{"lat":"42.414444","long":"20.756667"}},{"country":"rs","city":"Bajë","coordinates":{"lat":"42.465278","long":"20.781111"}},{"country":"rs","city":"Bajëllap","coordinates":{"lat":"42.819444","long":"21.158056"}},{"country":"rs","city":"Bajëllapi","coordinates":{"lat":"42.819444","long":"21.158056"}},{"country":"rs","city":"Bajevac","coordinates":{"lat":"44.379722","long":"20.058611"}},{"country":"rs","city":"Bajevica","coordinates":{"lat":"43.103056","long":"20.477778"}},{"country":"rs","city":"Bajevici","coordinates":{"lat":"43.380278","long":"20.281667"}},{"country":"rs","city":"Bajëza","coordinates":{"lat":"42.716667","long":"20.389167"}},{"country":"rs","city":"Bajëz","coordinates":{"lat":"42.716667","long":"20.389167"}},{"country":"rs","city":"Bajgora","coordinates":{"lat":"42.955","long":"21.016111"}},{"country":"rs","city":"Bajgorë","coordinates":{"lat":"42.955","long":"21.016111"}},{"country":"rs","city":"Bajica Kraj","coordinates":{"lat":"44.661111","long":"20.585"}},{"country":"rs","city":"Bajica Mala","coordinates":{"lat":"44.598056","long":"19.336944"}},{"country":"rs","city":"Bajici","coordinates":{"lat":"44.034167","long":"19.728889"}},{"country":"rs","city":"Bajina Basta","coordinates":{"lat":"43.970833","long":"19.5675"}},{"country":"rs","city":"Bajinci","coordinates":{"lat":"42.784167","long":"22.250556"}},{"country":"rs","city":"Bajinova Mahala","coordinates":{"lat":"42.645556","long":"22.421944"}},{"country":"rs","city":"Bajinovci","coordinates":{"lat":"42.645556","long":"22.421944"}},{"country":"rs","city":"Bajir","coordinates":{"lat":"44.491944","long":"19.282222"}},{"country":"rs","city":"Bajmak","coordinates":{"lat":"45.967778","long":"19.423333"}},{"country":"rs","city":"Bajmok","coordinates":{"lat":"45.967778","long":"19.423333"}},{"country":"rs","city":"Bajnok","coordinates":{"lat":"45.967778","long":"19.423333"}},{"country":"rs","city":"Bajnovace","coordinates":{"lat":"44.0025","long":"19.725"}},{"country":"rs","city":"Bajnovici","coordinates":{"lat":"43.450556","long":"19.611111"}},{"country":"rs","city":"Bajovica Lazovi","coordinates":{"lat":"43.036111","long":"21.174444"}},{"country":"rs","city":"Bajovici","coordinates":{"lat":"43.380278","long":"20.281667"}},{"country":"rs","city":"Bajqinë","coordinates":{"lat":"42.951111","long":"21.156944"}},{"country":"rs","city":"Bajraktari","coordinates":{"lat":"42.418889","long":"20.866111"}},{"country":"rs","city":"Bajraktarska Mahala","coordinates":{"lat":"42.344444","long":"22.378056"}},{"country":"rs","city":"Bajralije","coordinates":{"lat":"42.68","long":"21.752778"}},{"country":"rs","city":"Bajrovici","coordinates":{"lat":"42.571389","long":"21.496111"}},{"country":"rs","city":"Bajsa","coordinates":{"lat":"45.779167","long":"19.585"}},{"country":"rs","city":"Bajskë","coordinates":{"lat":"42.973333","long":"20.780833"}},{"country":"rs","city":"Bakaj","coordinates":{"lat":"42.666389","long":"20.603611"}},{"country":"rs","city":"Bakaji","coordinates":{"lat":"42.666389","long":"20.603611"}},{"country":"rs","city":"Bakalovina","coordinates":{"lat":"43.383889","long":"19.793333"}},{"country":"rs","city":"Bakici","coordinates":{"lat":"44.097222","long":"19.613611"}},{"country":"rs","city":"Bakionica","coordinates":{"lat":"43.861389","long":"20.044444"}},{"country":"rs","city":"Bakovici","coordinates":{"lat":"43.38","long":"20.209167"}},{"country":"rs","city":"Bakraclici","coordinates":{"lat":"43.883889","long":"19.785"}},{"country":"rs","city":"Baksa","coordinates":{"lat":"42.486111","long":"20.312222"}},{"country":"rs","city":"Baks","coordinates":{"lat":"42.719167","long":"20.876667"}},{"country":"rs","city":"Bakshi","coordinates":{"lat":"42.723333","long":"21.105556"}},{"country":"rs","city":"Baksija","coordinates":{"lat":"42.723333","long":"21.105556"}},{"country":"rs","city":"Balaban","coordinates":{"lat":"42.792222","long":"21.321944"}},{"country":"rs","city":"Balabane","coordinates":{"lat":"42.792222","long":"21.321944"}},{"country":"rs","city":"Balacka","coordinates":{"lat":"44.389444","long":"19.884722"}},{"country":"rs","city":"Balaj","coordinates":{"lat":"42.379722","long":"21.103333"}},{"country":"rs","city":"Balajinac","coordinates":{"lat":"43.274444","long":"21.7775"}},{"country":"rs","city":"Balajnac","coordinates":{"lat":"43.274444","long":"21.7775"}},{"country":"rs","city":"Balance","coordinates":{"lat":"42.412222","long":"21.365278"}},{"country":"rs","city":"Balanovac","coordinates":{"lat":"43.585278","long":"22.165833"}},{"country":"rs","city":"Balcak","coordinates":{"lat":"43.181111","long":"21.579444"}},{"country":"rs","city":"Balej Pivnica","coordinates":{"lat":"44.166944","long":"22.587222"}},{"country":"rs","city":"Balejske Pivnice","coordinates":{"lat":"44.166944","long":"22.587222"}},{"country":"rs","city":"Baletice","coordinates":{"lat":"43.186111","long":"20.425556"}},{"country":"rs","city":"Balëz","coordinates":{"lat":"42.832778","long":"21.385278"}},{"country":"rs","city":"Balic","coordinates":{"lat":"42.379722","long":"21.103333"}},{"country":"rs","city":"Balice","coordinates":{"lat":"43.227222","long":"19.693889"}},{"country":"rs","city":"Balicevac","coordinates":{"lat":"43.2875","long":"21.687778"}},{"country":"rs","city":"Balici","coordinates":{"lat":"43.227222","long":"19.693889"}},{"country":"rs","city":"Balinac","coordinates":{"lat":"43.555556","long":"22.395556"}},{"country":"rs","city":"Balince","coordinates":{"lat":"42.55","long":"20.784722"}},{"country":"rs","city":"Balinci","coordinates":{"lat":"43.555556","long":"22.395556"}},{"country":"rs","city":"Balinovac","coordinates":{"lat":"42.567778","long":"21.915833"}},{"country":"rs","city":"Balinovce","coordinates":{"lat":"42.732222","long":"22.053611"}},{"country":"rs","city":"Balinovic","coordinates":{"lat":"44.257778","long":"19.760556"}},{"country":"rs","city":"Baljen","coordinates":{"lat":"43.075278","long":"20.046389"}},{"country":"rs","city":"Baljevac","coordinates":{"lat":"43.3925","long":"20.636389"}},{"country":"rs","city":"Baljevicka Ka Mahala","coordinates":{"lat":"42.686389","long":"21.699722"}},{"country":"rs","city":"Baljevicka Mahala","coordinates":{"lat":"42.686389","long":"21.699722"}},{"country":"rs","city":"Baljevic Mahala","coordinates":{"lat":"42.703889","long":"21.255"}},{"country":"rs","city":"Baljkovac","coordinates":{"lat":"43.966389","long":"20.921944"}},{"country":"rs","city":"Ballaban","coordinates":{"lat":"42.792222","long":"21.321944"}},{"country":"rs","city":"Ballabani","coordinates":{"lat":"42.792222","long":"21.321944"}},{"country":"rs","city":"Ballancë","coordinates":{"lat":"42.412222","long":"21.365278"}},{"country":"rs","city":"Ballofc","coordinates":{"lat":"42.895278","long":"21.236667"}},{"country":"rs","city":"Ballofci","coordinates":{"lat":"42.895278","long":"21.236667"}},{"country":"rs","city":"Ballsh","coordinates":{"lat":"42.895278","long":"21.236667"}},{"country":"rs","city":"Ballshi","coordinates":{"lat":"42.895278","long":"21.236667"}},{"country":"rs","city":"Balnice","coordinates":{"lat":"42.55","long":"20.784722"}},{"country":"rs","city":"Balosave","coordinates":{"lat":"43.866389","long":"20.785833"}},{"country":"rs","city":"Balovac","coordinates":{"lat":"42.895278","long":"21.236667"}},{"country":"rs","city":"Balovce","coordinates":{"lat":"42.895278","long":"21.236667"}},{"country":"rs","city":"Balovic Mahala","coordinates":{"lat":"42.512778","long":"20.760833"}},{"country":"rs","city":"Balta Berilovac","coordinates":{"lat":"43.393611","long":"22.482778"}},{"country":"rs","city":"Balta Berilovica","coordinates":{"lat":"43.393611","long":"22.482778"}},{"country":"rs","city":"Baltijance","coordinates":{"lat":"42.704444","long":"22.233611"}},{"country":"rs","city":"Baluga","coordinates":{"lat":"43.859444","long":"20.416111"}},{"country":"rs","city":"Baluga Ljubicka","coordinates":{"lat":"43.893056","long":"20.423333"}},{"country":"rs","city":"Baluga Trnavska","coordinates":{"lat":"43.859444","long":"20.416111"}},{"country":"rs","city":"Balvanjestie","coordinates":{"lat":"44.818889","long":"20.875833"}},{"country":"rs","city":"Balvanyesti","coordinates":{"lat":"44.818889","long":"20.875833"}},{"country":"rs","city":"Balza","coordinates":{"lat":"42.832778","long":"21.385278"}},{"country":"rs","city":"Bambaci","coordinates":{"lat":"43.928611","long":"19.563889"}},{"country":"rs","city":"Banajni","coordinates":{"lat":"44.536667","long":"19.981111"}},{"country":"rs","city":"Banat Arandjelovo","coordinates":{"lat":"46.066667","long":"20.25"}},{"country":"rs","city":"Banater Hof","coordinates":{"lat":"45.520556","long":"20.514167"}},{"country":"rs","city":"Banater Neudorf","coordinates":{"lat":"44.989722","long":"20.783611"}},{"country":"rs","city":"Banat Karlovac","coordinates":{"lat":"45.047222","long":"21.016111"}},{"country":"rs","city":"Banat Novo Selo","coordinates":{"lat":"44.989722","long":"20.783611"}},{"country":"rs","city":"Banatska Dubica","coordinates":{"lat":"45.270833","long":"20.828056"}},{"country":"rs","city":"Banatska Palanka","coordinates":{"lat":"44.8425","long":"21.326667"}},{"country":"rs","city":"Banatska Subotica","coordinates":{"lat":"44.982778","long":"21.343056"}},{"country":"rs","city":"Banatska Topla","coordinates":{"lat":"45.6725","long":"20.465556"}},{"country":"rs","city":"Banatska Topola","coordinates":{"lat":"45.6725","long":"20.465556"}},{"country":"rs","city":"Banatski Brestovac","coordinates":{"lat":"44.727222","long":"20.805278"}},{"country":"rs","city":"Banatski Despotovac","coordinates":{"lat":"45.365278","long":"20.664167"}},{"country":"rs","city":"Banatski Dusanovac","coordinates":{"lat":"45.520556","long":"20.514167"}},{"country":"rs","city":"Banatski Dvor","coordinates":{"lat":"45.520556","long":"20.514167"}},{"country":"rs","city":"Banatski Karlovac","coordinates":{"lat":"45.047222","long":"21.016111"}},{"country":"rs","city":"Banatski Manastir","coordinates":{"lat":"45.961111","long":"20.281944"}},{"country":"rs","city":"Banatski Monostar","coordinates":{"lat":"45.961111","long":"20.281944"}},{"country":"rs","city":"Banatski Monostor","coordinates":{"lat":"45.961111","long":"20.281944"}},{"country":"rs","city":"Banatski Sokolac","coordinates":{"lat":"45.266667","long":"21.083333"}},{"country":"rs","city":"Banatsko Aleksandrovo","coordinates":{"lat":"45.636944","long":"20.592778"}},{"country":"rs","city":"Banatsko Arandelovo","coordinates":{"lat":"46.066667","long":"20.25"}},{"country":"rs","city":"Banatsko Karadordevo","coordinates":{"lat":"45.583333","long":"20.563056"}},{"country":"rs","city":"Banatsko Kraljevicevo","coordinates":{"lat":"44.966389","long":"20.693611"}},{"country":"rs","city":"Banatsko Novo Selo","coordinates":{"lat":"44.989722","long":"20.783611"}},{"country":"rs","city":"Banatsko Rankovicevo","coordinates":{"lat":"45.047222","long":"21.016111"}},{"country":"rs","city":"Banatsko Veliko Selo","coordinates":{"lat":"45.827222","long":"20.599167"}},{"country":"rs","city":"Banatsko Visnjicevo","coordinates":{"lat":"45.445278","long":"20.680556"}},{"country":"rs","city":"Bancarevo","coordinates":{"lat":"43.271667","long":"22.113333"}},{"country":"rs","city":"Bandera","coordinates":{"lat":"42.535556","long":"20.361389"}},{"country":"rs","city":"Bandulic","coordinates":{"lat":"42.516389","long":"21.153333"}},{"country":"rs","city":"Banicina","coordinates":{"lat":"44.291389","long":"20.929722"}},{"country":"rs","city":"Banja Aleksinacka","coordinates":{"lat":"43.643333","long":"21.871111"}},{"country":"rs","city":"Banja","coordinates":{"lat":"42.555","long":"21.992222"}},{"country":"rs","city":"Banja Koviljaca","coordinates":{"lat":"44.5125","long":"19.158333"}},{"country":"rs","city":"Banja Mataruge","coordinates":{"lat":"43.688611","long":"20.610556"}},{"country":"rs","city":"Banjanci","coordinates":{"lat":"43.639167","long":"20.535833"}},{"country":"rs","city":"Banjane","coordinates":{"lat":"44.536667","long":"19.981111"}},{"country":"rs","city":"Banjani","coordinates":{"lat":"44.536667","long":"19.981111"}},{"country":"rs","city":"Banje","coordinates":{"lat":"42.970278","long":"20.563056"}},{"country":"rs","city":"Banjevac","coordinates":{"lat":"44.352778","long":"19.388889"}},{"country":"rs","city":"Banjevice","coordinates":{"lat":"43.450556","long":"19.611111"}},{"country":"rs","city":"Banjica","coordinates":{"lat":"42.287778","long":"21.164444"}},{"country":"rs","city":"Banjska","coordinates":{"lat":"42.858611","long":"20.953889"}},{"country":"rs","city":"Banjska Reka","coordinates":{"lat":"42.987222","long":"20.755556"}},{"country":"rs","city":"Banjskë","coordinates":{"lat":"42.858611","long":"20.953889"}},{"country":"rs","city":"Banjski Dol","coordinates":{"lat":"42.99","long":"22.680556"}},{"country":"rs","city":"Banjski Suvi Do","coordinates":{"lat":"42.976944","long":"20.751667"}},{"country":"rs","city":"Bankovac","coordinates":{"lat":"43.440278","long":"21.738333"}},{"country":"rs","city":"Bankovce","coordinates":{"lat":"42.856389","long":"22.24"}},{"country":"rs","city":"Bankovci","coordinates":{"lat":"42.856389","long":"22.24"}},{"country":"rs","city":"Bánmonostor","coordinates":{"lat":"45.212222","long":"19.613333"}},{"country":"rs","city":"Bannulë","coordinates":{"lat":"42.516389","long":"21.153333"}},{"country":"rs","city":"Banoschter","coordinates":{"lat":"45.212222","long":"19.613333"}},{"country":"rs","city":"Banostar","coordinates":{"lat":"45.212222","long":"19.613333"}},{"country":"rs","city":"Banostor","coordinates":{"lat":"45.212222","long":"19.613333"}},{"country":"rs","city":"Banovdë","coordinates":{"lat":"42.937222","long":"20.788889"}},{"country":"rs","city":"Banov Do","coordinates":{"lat":"42.937222","long":"20.788889"}},{"country":"rs","city":"Banovici","coordinates":{"lat":"43.235","long":"20.741667"}},{"country":"rs","city":"Banovo Polje","coordinates":{"lat":"44.911389","long":"19.446944"}},{"country":"rs","city":"Banski Dol","coordinates":{"lat":"42.99","long":"22.680556"}},{"country":"rs","city":"Banstadt","coordinates":{"lat":"44.870833","long":"20.640278"}},{"country":"rs","city":"Bapsko Polje","coordinates":{"lat":"43.787778","long":"20.558611"}},{"country":"rs","city":"Bara","coordinates":{"lat":"42.422778","long":"22.002778"}},{"country":"rs","city":"Barachháza","coordinates":{"lat":"45.283611","long":"20.963056"}},{"country":"rs","city":"Baracic","coordinates":{"lat":"42.524444","long":"20.540833"}},{"country":"rs","city":"Baraczháza","coordinates":{"lat":"45.283611","long":"20.963056"}},{"country":"rs","city":"Baraina","coordinates":{"lat":"42.830556","long":"21.302778"}},{"country":"rs","city":"Barainë","coordinates":{"lat":"42.830556","long":"21.302778"}},{"country":"rs","city":"Barajevo","coordinates":{"lat":"44.608889","long":"20.454722"}},{"country":"rs","city":"Barajevo","coordinates":{"lat":"44.578889","long":"20.415833"}},{"country":"rs","city":"Barakovci","coordinates":{"lat":"43.130833","long":"20.489722"}},{"country":"rs","city":"Barakovici","coordinates":{"lat":"43.130833","long":"20.489722"}},{"country":"rs","city":"Baralici","coordinates":{"lat":"43.766667","long":"20.204444"}},{"country":"rs","city":"Baraljevac","coordinates":{"lat":"42.381111","long":"21.895556"}},{"country":"rs","city":"Baran","coordinates":{"lat":"42.575278","long":"20.418611"}},{"country":"rs","city":"Baranda","coordinates":{"lat":"45.085278","long":"20.443333"}},{"country":"rs","city":"Barane","coordinates":{"lat":"42.575278","long":"20.418611"}},{"country":"rs","city":"Baranje","coordinates":{"lat":"44.454444","long":"19.196389"}},{"country":"rs","city":"Baranski Lug","coordinates":{"lat":"42.591111","long":"20.362778"}},{"country":"rs","city":"Bárányos","coordinates":{"lat":"44.887778","long":"20.535556"}},{"country":"rs","city":"Baratarci","coordinates":{"lat":"42.348056","long":"22.365833"}},{"country":"rs","city":"Baratarska Mahala","coordinates":{"lat":"42.344444","long":"22.378056"}},{"country":"rs","city":"Barati","coordinates":{"lat":"44.110278","long":"19.691667"}},{"country":"rs","city":"Baratovici","coordinates":{"lat":"44.110278","long":"19.691667"}},{"country":"rs","city":"Barbace","coordinates":{"lat":"42.369167","long":"21.960278"}},{"country":"rs","city":"Barbarusince","coordinates":{"lat":"42.480278","long":"22.009167"}},{"country":"rs","city":"Barbatovac","coordinates":{"lat":"43.228056","long":"21.258889"}},{"country":"rs","city":"Bardanski Kraj","coordinates":{"lat":"44.638333","long":"20.271389"}},{"country":"rs","city":"Bardhaj","coordinates":{"lat":"42.666667","long":"20.647222"}},{"country":"rs","city":"Bardhan","coordinates":{"lat":"42.666667","long":"20.647222"}},{"country":"rs","city":"Bardhani","coordinates":{"lat":"42.666667","long":"20.647222"}},{"country":"rs","city":"Bardhi i Madh","coordinates":{"lat":"42.634722","long":"21.023611"}},{"country":"rs","city":"Bardhi i Vogël","coordinates":{"lat":"42.610833","long":"21.037222"}},{"country":"rs","city":"Bardici","coordinates":{"lat":"42.695833","long":"20.950556"}},{"country":"rs","city":"Bardonic","coordinates":{"lat":"42.525278","long":"20.447778"}},{"country":"rs","city":"Bardosan","coordinates":{"lat":"42.404167","long":"20.504722"}},{"country":"rs","city":"Bardosanë","coordinates":{"lat":"42.404167","long":"20.504722"}},{"country":"rs","city":"Bardusan","coordinates":{"lat":"42.404167","long":"20.504722"}},{"country":"rs","city":"Bare","coordinates":{"lat":"42.961667","long":"20.976389"}},{"country":"rs","city":"Barelic","coordinates":{"lat":"42.463889","long":"22.045278"}},{"country":"rs","city":"Bares","coordinates":{"lat":"44.693056","long":"19.765833"}},{"country":"rs","city":"Bari","coordinates":{"lat":"42.583056","long":"20.333889"}},{"country":"rs","city":"Barica","coordinates":{"lat":"42.47","long":"22.198056"}},{"country":"rs","city":"Baric","coordinates":{"lat":"44.652222","long":"20.259444"}},{"country":"rs","city":"Barice","coordinates":{"lat":"45.183333","long":"21.083333"}},{"country":"rs","city":"Bari Civlik","coordinates":{"lat":"43.139444","long":"22.541111"}},{"country":"rs","city":"Barija","coordinates":{"lat":"42.5475","long":"22.255556"}},{"country":"rs","city":"Barilevë","coordinates":{"lat":"42.755","long":"21.119167"}},{"country":"rs","city":"Bariljevo","coordinates":{"lat":"42.755","long":"21.119167"}},{"country":"rs","city":"Barilovica","coordinates":{"lat":"44.331667","long":"20.303333"}},{"country":"rs","city":"Barjaktarevici","coordinates":{"lat":"43.770278","long":"19.773889"}},{"country":"rs","city":"Barjaktar Mahala","coordinates":{"lat":"42.361944","long":"20.928611"}},{"country":"rs","city":"Barje","coordinates":{"lat":"42.392778","long":"22.155833"}},{"country":"rs","city":"Barje Ciflik","coordinates":{"lat":"43.139444","long":"22.541111"}},{"country":"rs","city":"Barje Civlik","coordinates":{"lat":"43.139444","long":"22.541111"}},{"country":"rs","city":"Barkovo","coordinates":{"lat":"43.048056","long":"20.480278"}},{"country":"rs","city":"Barlad","coordinates":{"lat":"45.243333","long":"20.582222"}},{"country":"rs","city":"Barlaj","coordinates":{"lat":"42.694167","long":"20.093611"}},{"country":"rs","city":"Barlovo","coordinates":{"lat":"43.180833","long":"21.350556"}},{"country":"rs","city":"Barosevac","coordinates":{"lat":"44.398611","long":"20.368889"}},{"country":"rs","city":"Barovce","coordinates":{"lat":"42.918611","long":"21.233333"}},{"country":"rs","city":"Barzilovica","coordinates":{"lat":"44.331667","long":"20.303333"}},{"country":"rs","city":"Basahid","coordinates":{"lat":"45.641111","long":"20.414167"}},{"country":"rs","city":"Basaid","coordinates":{"lat":"45.641111","long":"20.414167"}},{"country":"rs","city":"Basajid","coordinates":{"lat":"45.641111","long":"20.414167"}},{"country":"rs","city":"Basara","coordinates":{"lat":"43.156667","long":"22.677222"}},{"country":"rs","city":"Basca","coordinates":{"lat":"42.944167","long":"20.549444"}},{"country":"rs","city":"Basceluci","coordinates":{"lat":"44.515556","long":"19.227222"}},{"country":"rs","city":"Baschaid","coordinates":{"lat":"45.641111","long":"20.414167"}},{"country":"rs","city":"Bascoluci","coordinates":{"lat":"44.515556","long":"19.227222"}},{"country":"rs","city":"Basejci","coordinates":{"lat":"42.364167","long":"21.875556"}},{"country":"rs","city":"Bashash","coordinates":{"lat":"42.453889","long":"20.260833"}},{"country":"rs","city":"Basici","coordinates":{"lat":"42.304444","long":"21.470278"}},{"country":"rs","city":"Basin","coordinates":{"lat":"44.296944","long":"20.851389"}},{"country":"rs","city":"Bastanska Reka","coordinates":{"lat":"42.987222","long":"20.755556"}},{"country":"rs","city":"Bastav","coordinates":{"lat":"44.358889","long":"19.5275"}},{"country":"rs","city":"Bastovanska Mala","coordinates":{"lat":"44.526667","long":"19.443611"}},{"country":"rs","city":"Basusa","coordinates":{"lat":"42.453889","long":"20.260833"}},{"country":"rs","city":"Batahir","coordinates":{"lat":"42.997778","long":"20.876389"}},{"country":"rs","city":"Batahire","coordinates":{"lat":"42.997778","long":"20.876389"}},{"country":"rs","city":"Batahiri","coordinates":{"lat":"42.997778","long":"20.876389"}},{"country":"rs","city":"Bataire","coordinates":{"lat":"42.997778","long":"20.876389"}},{"country":"rs","city":"Batajnica","coordinates":{"lat":"44.904722","long":"20.276389"}},{"country":"rs","city":"Batalage","coordinates":{"lat":"44.520556","long":"19.865278"}},{"country":"rs","city":"Batal","coordinates":{"lat":"42.648056","long":"21.287222"}},{"country":"rs","city":"Batal Mahala","coordinates":{"lat":"42.648056","long":"21.287222"}},{"country":"rs","city":"Batar","coordinates":{"lat":"44.44","long":"19.159167"}},{"country":"rs","city":"Batatin Mahala","coordinates":{"lat":"42.868611","long":"21.288889"}},{"country":"rs","city":"Batina","coordinates":{"lat":"43.491944","long":"20.5425"}},{"country":"rs","city":"Batinac","coordinates":{"lat":"43.921389","long":"21.438056"}},{"country":"rs","city":"Batinici","coordinates":{"lat":"43.215","long":"20.346389"}},{"country":"rs","city":"Batkovici","coordinates":{"lat":"43.561389","long":"19.388056"}},{"country":"rs","city":"Batlava","coordinates":{"lat":"42.836389","long":"21.245"}},{"country":"rs","city":"Batllava","coordinates":{"lat":"42.836389","long":"21.245"}},{"country":"rs","city":"Batllavë","coordinates":{"lat":"42.836389","long":"21.245"}},{"country":"rs","city":"Batnjik","coordinates":{"lat":"43.218889","long":"20.574722"}},{"country":"rs","city":"Batocina","coordinates":{"lat":"44.153611","long":"21.081667"}},{"country":"rs","city":"Batote","coordinates":{"lat":"43.3","long":"21.1"}},{"country":"rs","city":"Batovac","coordinates":{"lat":"44.675556","long":"21.063889"}},{"country":"rs","city":"Batrace","coordinates":{"lat":"42.935833","long":"20.395833"}},{"country":"rs","city":"Batrage","coordinates":{"lat":"42.935833","long":"20.395833"}},{"country":"rs","city":"Batrovci","coordinates":{"lat":"45.052778","long":"19.1325"}},{"country":"rs","city":"Batsch","coordinates":{"lat":"45.391944","long":"19.236667"}},{"country":"rs","city":"Batsch-Brestowatz","coordinates":{"lat":"45.617222","long":"19.269722"}},{"country":"rs","city":"Batschka Bodjani","coordinates":{"lat":"45.388333","long":"19.107222"}},{"country":"rs","city":"Batsch-Monoschtor","coordinates":{"lat":"45.793611","long":"18.935833"}},{"country":"rs","city":"Batsch-Neudorf","coordinates":{"lat":"45.293333","long":"19.141389"}},{"country":"rs","city":"Batsch-Sentiwan","coordinates":{"lat":"45.678611","long":"19.086667"}},{"country":"rs","city":"Batsch-Topola","coordinates":{"lat":"45.815","long":"19.636111"}},{"country":"rs","city":"Batulovce","coordinates":{"lat":"42.973611","long":"22.075278"}},{"country":"rs","city":"Batusa","coordinates":{"lat":"42.453889","long":"20.260833"}},{"country":"rs","city":"Batuse","coordinates":{"lat":"42.589167","long":"21.068333"}},{"country":"rs","city":"Batushë","coordinates":{"lat":"42.453889","long":"20.260833"}},{"country":"rs","city":"Batusinac","coordinates":{"lat":"43.261111","long":"21.822778"}},{"country":"rs","city":"Batusnica","coordinates":{"lat":"43.261111","long":"21.822778"}},{"country":"rs","city":"Baulovici","coordinates":{"lat":"43.555","long":"20.110556"}},{"country":"rs","city":"Bavane","coordinates":{"lat":"43.381111","long":"19.725278"}},{"country":"rs","city":"Bavaniste","coordinates":{"lat":"44.818889","long":"20.875833"}},{"country":"rs","city":"Bawanischte","coordinates":{"lat":"44.818889","long":"20.875833"}},{"country":"rs","city":"Bazovica","coordinates":{"lat":"42.405","long":"22.219444"}},{"country":"rs","city":"Bazovik","coordinates":{"lat":"43.300278","long":"22.449444"}},{"country":"rs","city":"Bazsahida","coordinates":{"lat":"45.641111","long":"20.414167"}},{"country":"rs","city":"Bazsalhida","coordinates":{"lat":"45.641111","long":"20.414167"}},{"country":"rs","city":"Bebici","coordinates":{"lat":"44.192222","long":"19.693889"}},{"country":"rs","city":"Becanj","coordinates":{"lat":"43.884722","long":"20.554444"}},{"country":"rs","city":"Bec","coordinates":{"lat":"42.443056","long":"20.449444"}},{"country":"rs","city":"Becej","coordinates":{"lat":"45.618889","long":"20.036111"}},{"country":"rs","city":"Becelar","coordinates":{"lat":"42.247222","long":"21.379722"}},{"country":"rs","city":"Becevica","coordinates":{"lat":"43.988056","long":"20.635278"}},{"country":"rs","city":"Becic","coordinates":{"lat":"42.753611","long":"20.890556"}},{"country":"rs","city":"Becicherecu Mare","coordinates":{"lat":"45.383611","long":"20.381944"}},{"country":"rs","city":"Becirad","coordinates":{"lat":"42.572778","long":"20.310833"}},{"country":"rs","city":"Beciraj","coordinates":{"lat":"42.741111","long":"20.06"}},{"country":"rs","city":"Beciri","coordinates":{"lat":"42.443611","long":"21.355278"}},{"country":"rs","city":"Becir Mahala","coordinates":{"lat":"42.353333","long":"20.933333"}},{"country":"rs","city":"Becirovici","coordinates":{"lat":"43.339167","long":"19.738333"}},{"country":"rs","city":"Becirovina","coordinates":{"lat":"43.4425","long":"19.3525"}},{"country":"rs","city":"Becmen","coordinates":{"lat":"44.779444","long":"20.208611"}},{"country":"rs","city":"Becse","coordinates":{"lat":"45.618889","long":"20.036111"}},{"country":"rs","city":"Becsej","coordinates":{"lat":"45.618889","long":"20.036111"}},{"country":"rs","city":"Becskerek","coordinates":{"lat":"45.383611","long":"20.381944"}},{"country":"rs","city":"Becuk","coordinates":{"lat":"42.726389","long":"20.970833"}},{"country":"rs","city":"Becvari","coordinates":{"lat":"43.38","long":"20.545556"}},{"country":"rs","city":"Bedina Varos","coordinates":{"lat":"43.571389","long":"20.228333"}},{"country":"rs","city":"Begafo","coordinates":{"lat":"45.421944","long":"20.48"}},{"country":"rs","city":"Begaj","coordinates":{"lat":"42.7325","long":"20.445"}},{"country":"rs","city":"Begaljica","coordinates":{"lat":"44.631944","long":"20.694444"}},{"country":"rs","city":"Béga-Szent-György","coordinates":{"lat":"45.485","long":"20.549722"}},{"country":"rs","city":"Begec","coordinates":{"lat":"45.236667","long":"19.623056"}},{"country":"rs","city":"Begecs","coordinates":{"lat":"45.236667","long":"19.623056"}},{"country":"rs","city":"Begejci","coordinates":{"lat":"45.508611","long":"20.606389"}},{"country":"rs","city":"Begej Sveti Durad","coordinates":{"lat":"45.485","long":"20.549722"}},{"country":"rs","city":"Begluk","coordinates":{"lat":"43.058889","long":"20.829722"}},{"country":"rs","city":"Begova Luka","coordinates":{"lat":"43.479722","long":"19.282222"}},{"country":"rs","city":"Begovi","coordinates":{"lat":"42.711667","long":"22.293056"}},{"country":"rs","city":"Begovici","coordinates":{"lat":"42.356944","long":"21.036389"}},{"country":"rs","city":"Begovi Mahala","coordinates":{"lat":"42.711667","long":"22.293056"}},{"country":"rs","city":"Begov Lukavac","coordinates":{"lat":"42.7325","long":"20.445"}},{"country":"rs","city":"Begovo","coordinates":{"lat":"42.833056","long":"20.986667"}},{"country":"rs","city":"Begracë","coordinates":{"lat":"42.310278","long":"21.242778"}},{"country":"rs","city":"Begunce","coordinates":{"lat":"42.303611","long":"21.3875"}},{"country":"rs","city":"Beke","coordinates":{"lat":"43.963333","long":"20.257222"}},{"country":"rs","city":"Bekova","coordinates":{"lat":"43.256944","long":"20.475278"}},{"country":"rs","city":"Bekrici","coordinates":{"lat":"42.366667","long":"21.855556"}},{"country":"rs","city":"Bela","coordinates":{"lat":"43.233056","long":"22.720556"}},{"country":"rs","city":"Belacërk","coordinates":{"lat":"42.356667","long":"20.595556"}},{"country":"rs","city":"Bela Crkva","coordinates":{"lat":"42.356667","long":"20.595556"}},{"country":"rs","city":"Bela Crkva","coordinates":{"lat":"44.8975","long":"21.417222"}},{"country":"rs","city":"Belahovo","coordinates":{"lat":"43.2275","long":"19.671667"}},{"country":"rs","city":"Belaj","coordinates":{"lat":"42.576667","long":"20.210556"}},{"country":"rs","city":"Belaje","coordinates":{"lat":"42.576667","long":"20.210556"}},{"country":"rs","city":"Bela Klada","coordinates":{"lat":"44.7175","long":"19.42"}},{"country":"rs","city":"Belanica","coordinates":{"lat":"42.458611","long":"20.816944"}},{"country":"rs","city":"Belanovce","coordinates":{"lat":"42.646389","long":"21.953056"}},{"country":"rs","city":"Belanovica","coordinates":{"lat":"44.2475","long":"20.396667"}},{"country":"rs","city":"Belanska","coordinates":{"lat":"43.036667","long":"20.540556"}},{"country":"rs","city":"Bela Palanka","coordinates":{"lat":"43.218333","long":"22.311111"}},{"country":"rs","city":"Bela Reka","coordinates":{"lat":"43.578889","long":"19.898889"}},{"country":"rs","city":"Belasica","coordinates":{"lat":"43.126111","long":"21.005278"}},{"country":"rs","city":"Bela Stena","coordinates":{"lat":"43.095833","long":"21.035833"}},{"country":"rs","city":"Bela Voda","coordinates":{"lat":"42.513889","long":"22.343889"}},{"country":"rs","city":"Bela Voda Mahala","coordinates":{"lat":"42.508333","long":"22.353056"}},{"country":"rs","city":"Bela Zemlja","coordinates":{"lat":"43.807222","long":"19.789722"}},{"country":"rs","city":"Belbradic","coordinates":{"lat":"43.659722","long":"22.4075"}},{"country":"rs","city":"Belce Mahala","coordinates":{"lat":"42.416944","long":"20.763333"}},{"country":"rs","city":"Belcevici","coordinates":{"lat":"43.381111","long":"20.346111"}},{"country":"rs","city":"Beleg","coordinates":{"lat":"42.534167","long":"20.317222"}},{"country":"rs","city":"Belegis","coordinates":{"lat":"45.021667","long":"20.335556"}},{"country":"rs","city":"Belegu","coordinates":{"lat":"42.534167","long":"20.317222"}},{"country":"rs","city":"Belenica","coordinates":{"lat":"42.529167","long":"21.322222"}},{"country":"rs","city":"Bele Vode","coordinates":{"lat":"43.230833","long":"20.255278"}},{"country":"rs","city":"Belgrad","coordinates":{"lat":"44.818611","long":"20.468056"}},{"country":"rs","city":"Belgrade","coordinates":{"lat":"44.818611","long":"20.468056"}},{"country":"rs","city":"Belgrado","coordinates":{"lat":"44.818611","long":"20.468056"}},{"country":"rs","city":"Beli Breg","coordinates":{"lat":"42.525556","long":"21.810556"}},{"country":"rs","city":"Belica","coordinates":{"lat":"42.75","long":"20.633333"}},{"country":"rs","city":"Belica Sor","coordinates":{"lat":"44.695","long":"19.490833"}},{"country":"rs","city":"Belic","coordinates":{"lat":"44.238333","long":"19.906389"}},{"country":"rs","city":"Beli Gaj","coordinates":{"lat":"44.012778","long":"19.884444"}},{"country":"rs","city":"Beli Kamen","coordinates":{"lat":"43.148889","long":"21.570556"}},{"country":"rs","city":"Beli  Kamen","coordinates":{"lat":"43.689167","long":"20.214444"}},{"country":"rs","city":"Beli Majur","coordinates":{"lat":"45.288056","long":"19.302778"}},{"country":"rs","city":"Belincë","coordinates":{"lat":"42.418056","long":"21.608333"}},{"country":"rs","city":"Beli Potok","coordinates":{"lat":"43.535833","long":"22.082222"}},{"country":"rs","city":"Belisevo","coordinates":{"lat":"42.667222","long":"21.951667"}},{"country":"rs","city":"Belja","coordinates":{"lat":"42.246111","long":"21.239444"}},{"country":"rs","city":"Beljajka","coordinates":{"lat":"44.06","long":"21.441944"}},{"country":"rs","city":"Beljak","coordinates":{"lat":"43.248333","long":"20.722222"}},{"country":"rs","city":"Belja-Mala","coordinates":{"lat":"42.201667","long":"21.290278"}},{"country":"rs","city":"Belje Male","coordinates":{"lat":"43.473889","long":"21.691111"}},{"country":"rs","city":"Beljevac","coordinates":{"lat":"44.359167","long":"20.664167"}},{"country":"rs","city":"Beljevina","coordinates":{"lat":"44.088056","long":"21.948056"}},{"country":"rs","city":"Beljina","coordinates":{"lat":"43.88","long":"20.317222"}},{"country":"rs","city":"Beljin","coordinates":{"lat":"44.611944","long":"19.966111"}},{"country":"rs","city":"Bellabrad","coordinates":{"lat":"42.118333","long":"20.683333"}},{"country":"rs","city":"Bellanicë","coordinates":{"lat":"42.458611","long":"20.816944"}},{"country":"rs","city":"Bellaqefci i Madh","coordinates":{"lat":"42.634722","long":"21.023611"}},{"country":"rs","city":"Bellaqefci i Vogël","coordinates":{"lat":"42.610833","long":"21.037222"}},{"country":"rs","city":"Bellasicë","coordinates":{"lat":"43.126111","long":"21.005278"}},{"country":"rs","city":"Belle","coordinates":{"lat":"42.576667","long":"20.210556"}},{"country":"rs","city":"Belleja","coordinates":{"lat":"42.576667","long":"20.210556"}},{"country":"rs","city":"Bellejë","coordinates":{"lat":"42.576667","long":"20.210556"}},{"country":"rs","city":"Belloberda","coordinates":{"lat":"43.235","long":"20.821667"}},{"country":"rs","city":"Belloberdë","coordinates":{"lat":"43.235","long":"20.821667"}},{"country":"rs","city":"Bellobrad","coordinates":{"lat":"42.118333","long":"20.683333"}},{"country":"rs","city":"Bellobrat","coordinates":{"lat":"42.118333","long":"20.683333"}},{"country":"rs","city":"Bellogaraca","coordinates":{"lat":"42.310278","long":"21.242778"}},{"country":"rs","city":"Bellolin","coordinates":{"lat":"43.237222","long":"21.395278"}},{"country":"rs","city":"Bellopaq","coordinates":{"lat":"42.724444","long":"20.226944"}},{"country":"rs","city":"Bellopaqi","coordinates":{"lat":"42.724444","long":"20.226944"}},{"country":"rs","city":"Bellopoja","coordinates":{"lat":"42.641111","long":"20.285556"}},{"country":"rs","city":"Bellopojë","coordinates":{"lat":"42.641111","long":"20.285556"}},{"country":"rs","city":"Bellopole","coordinates":{"lat":"42.641111","long":"20.285556"}},{"country":"rs","city":"Belluqë","coordinates":{"lat":"43.176944","long":"20.723333"}},{"country":"rs","city":"Belobabe","coordinates":{"lat":"43.356111","long":"19.691944"}},{"country":"rs","city":"Belo Blato","coordinates":{"lat":"45.272778","long":"20.375"}},{"country":"rs","city":"Belobrace","coordinates":{"lat":"43.458056","long":"20.575833"}},{"country":"rs","city":"Belobrad","coordinates":{"lat":"42.118333","long":"20.683333"}},{"country":"rs","city":"Belobrdani","coordinates":{"lat":"43.651944","long":"20.838889"}},{"country":"rs","city":"Belobrdë","coordinates":{"lat":"43.235","long":"20.821667"}},{"country":"rs","city":"Belo Brdo","coordinates":{"lat":"43.235","long":"20.821667"}},{"country":"rs","city":"Belobrod","coordinates":{"lat":"42.118333","long":"20.683333"}},{"country":"rs","city":"Belogos","coordinates":{"lat":"43.296389","long":"21.471667"}},{"country":"rs","city":"Belograce","coordinates":{"lat":"42.310278","long":"21.242778"}},{"country":"rs","city":"Belogradce","coordinates":{"lat":"42.310278","long":"21.242778"}},{"country":"rs","city":"Belohovo","coordinates":{"lat":"43.2275","long":"19.671667"}},{"country":"rs","city":"Beloinje","coordinates":{"lat":"43.390833","long":"22.165556"}},{"country":"rs","city":"Beloljin","coordinates":{"lat":"43.237222","long":"21.395278"}},{"country":"rs","city":"Belonjin","coordinates":{"lat":"43.237222","long":"21.395278"}},{"country":"rs","city":"Belopac","coordinates":{"lat":"42.724444","long":"20.226944"}},{"country":"rs","city":"Beloperica","coordinates":{"lat":"43.969167","long":"19.973333"}},{"country":"rs","city":"Belo Polje","coordinates":{"lat":"42.641111","long":"20.285556"}},{"country":"rs","city":"Belopolje","coordinates":{"lat":"42.778889","long":"20.578056"}},{"country":"rs","city":"Belo Polje","coordinates":{"lat":"42.811667","long":"21.200278"}},{"country":"rs","city":"Belosavci","coordinates":{"lat":"44.333056","long":"20.703333"}},{"country":"rs","city":"Belosevac","coordinates":{"lat":"43.985556","long":"20.926944"}},{"country":"rs","city":"Belosevic","coordinates":{"lat":"44.262778","long":"19.946111"}},{"country":"rs","city":"Belotic","coordinates":{"lat":"44.576944","long":"19.7175"}},{"country":"rs","city":"Belotici","coordinates":{"lat":"43.900278","long":"19.946944"}},{"country":"rs","city":"Belotinac","coordinates":{"lat":"43.265556","long":"21.8525"}},{"country":"rs","city":"Belotin","coordinates":{"lat":"43.237222","long":"21.395278"}},{"country":"rs","city":"Belotince","coordinates":{"lat":"43.265556","long":"21.8525"}},{"country":"rs","city":"Belov Do","coordinates":{"lat":"42.8425","long":"20.572222"}},{"country":"rs","city":"Belovodic","coordinates":{"lat":"44.367222","long":"19.485556"}},{"country":"rs","city":"Beluce","coordinates":{"lat":"43.176944","long":"20.723333"}},{"country":"rs","city":"Belusa","coordinates":{"lat":"43.615278","long":"20.013056"}},{"country":"rs","city":"Belus","coordinates":{"lat":"42.483333","long":"22.516667"}},{"country":"rs","city":"Belusic","coordinates":{"lat":"43.784722","long":"21.1475"}},{"country":"rs","city":"Belut","coordinates":{"lat":"42.483333","long":"22.516667"}},{"country":"rs","city":"Bëmjak","coordinates":{"lat":"42.929444","long":"20.565833"}},{"country":"rs","city":"Bencuk","coordinates":{"lat":"42.726389","long":"20.970833"}},{"country":"rs","city":"Bent","coordinates":{"lat":"43.886667","long":"20.466944"}},{"country":"rs","city":"Beoce","coordinates":{"lat":"43.341944","long":"20.626389"}},{"country":"rs","city":"Beoci","coordinates":{"lat":"43.341944","long":"20.626389"}},{"country":"rs","city":"Beocic","coordinates":{"lat":"43.843611","long":"21.197222"}},{"country":"rs","city":"Beocin","coordinates":{"lat":"45.198333","long":"19.7225"}},{"country":"rs","city":"Beocsin","coordinates":{"lat":"45.198333","long":"19.7225"}},{"country":"rs","city":"Beodra","coordinates":{"lat":"45.721667","long":"20.303056"}},{"country":"rs","city":"Beodra-Dragutinovo","coordinates":{"lat":"45.721667","long":"20.303056"}},{"country":"rs","city":"Beograd","coordinates":{"lat":"44.818611","long":"20.468056"}},{"country":"rs","city":"Beomuzevic","coordinates":{"lat":"44.303056","long":"19.771667"}},{"country":"rs","city":"Beotschin","coordinates":{"lat":"45.198333","long":"19.7225"}},{"country":"rs","city":"Berance Mahala","coordinates":{"lat":"42.789722","long":"20.768056"}},{"country":"rs","city":"Beranje","coordinates":{"lat":"44.659444","long":"21.340833"}},{"country":"rs","city":"Berava","coordinates":{"lat":"45.389444","long":"19.073889"}},{"country":"rs","city":"Berbatovo","coordinates":{"lat":"43.257222","long":"21.943056"}},{"country":"rs","city":"Berberishtë","coordinates":{"lat":"43.128611","long":"20.686667"}},{"country":"rs","city":"Berberiste","coordinates":{"lat":"43.128611","long":"20.686667"}},{"country":"rs","city":"Bercevac","coordinates":{"lat":"42.388333","long":"21.648889"}},{"country":"rs","city":"Bercinac","coordinates":{"lat":"43.408056","long":"21.821667"}},{"country":"rs","city":"Bercinovac","coordinates":{"lat":"43.581944","long":"22.298889"}},{"country":"rs","city":"Bercinovci","coordinates":{"lat":"43.581944","long":"22.298889"}},{"country":"rs","city":"Berdosan","coordinates":{"lat":"42.404167","long":"20.504722"}},{"country":"rs","city":"Berduj","coordinates":{"lat":"43.004444","long":"22.376111"}},{"country":"rs","city":"Béreg","coordinates":{"lat":"45.921389","long":"18.928889"}},{"country":"rs","city":"Beregh","coordinates":{"lat":"45.921389","long":"18.928889"}},{"country":"rs","city":"Beresztóc","coordinates":{"lat":"44.727222","long":"20.805278"}},{"country":"rs","city":"Beresztócz","coordinates":{"lat":"44.727222","long":"20.805278"}},{"country":"rs","city":"Beresztovácz","coordinates":{"lat":"44.727222","long":"20.805278"}},{"country":"rs","city":"Berevce","coordinates":{"lat":"42.245556","long":"21.024444"}},{"country":"rs","city":"Berevci","coordinates":{"lat":"42.245556","long":"21.024444"}},{"country":"rs","city":"Berg an der Donau","coordinates":{"lat":"45.921389","long":"18.928889"}},{"country":"rs","city":"Berg","coordinates":{"lat":"45.921389","long":"18.928889"}},{"country":"rs","city":"Berilje","coordinates":{"lat":"43.213056","long":"21.624444"}},{"country":"rs","city":"Berilovac","coordinates":{"lat":"43.158611","long":"22.614167"}},{"country":"rs","city":"Berin Izvor","coordinates":{"lat":"42.933056","long":"22.545"}},{"country":"rs","city":"Berisa","coordinates":{"lat":"42.533333","long":"20.85"}},{"country":"rs","city":"Berisa-Mahala","coordinates":{"lat":"42.322778","long":"21.145"}},{"country":"rs","city":"Berisane","coordinates":{"lat":"43.242222","long":"21.547222"}},{"country":"rs","city":"Berisani","coordinates":{"lat":"43.242222","long":"21.547222"}},{"country":"rs","city":"Berisha","coordinates":{"lat":"42.533333","long":"20.85"}},{"country":"rs","city":"Berisici","coordinates":{"lat":"43.303333","long":"20.264167"}},{"country":"rs","city":"Berivojca","coordinates":{"lat":"42.567222","long":"21.586389"}},{"country":"rs","city":"Berivojce","coordinates":{"lat":"42.567222","long":"21.586389"}},{"country":"rs","city":"Berjaha","coordinates":{"lat":"42.420833","long":"20.291667"}},{"country":"rs","city":"Berjah","coordinates":{"lat":"42.420833","long":"20.291667"}},{"country":"rs","city":"Berkasovo","coordinates":{"lat":"45.150556","long":"19.261944"}},{"country":"rs","city":"Bërkova","coordinates":{"lat":"42.674722","long":"20.530833"}},{"country":"rs","city":"Berkovac","coordinates":{"lat":"44.195","long":"20.144167"}},{"country":"rs","city":"Berkovë","coordinates":{"lat":"42.674722","long":"20.530833"}},{"country":"rs","city":"Berkovo","coordinates":{"lat":"42.674722","long":"20.530833"}},{"country":"rs","city":"Berlovci","coordinates":{"lat":"44.503889","long":"19.162222"}},{"country":"rs","city":"Berlovine","coordinates":{"lat":"44.203333","long":"19.418333"}},{"country":"rs","city":"Bërnice e Epërme","coordinates":{"lat":"42.713611","long":"21.149722"}},{"country":"rs","city":"Bërnicë e Poshtëme","coordinates":{"lat":"42.706111","long":"21.134722"}},{"country":"rs","city":"Bërnjak","coordinates":{"lat":"42.929444","long":"20.565833"}},{"country":"rs","city":"Berovica","coordinates":{"lat":"43.031389","long":"22.581667"}},{"country":"rs","city":"Berrivojsa","coordinates":{"lat":"42.567222","long":"21.586389"}},{"country":"rs","city":"Berrivojsë","coordinates":{"lat":"42.567222","long":"21.586389"}},{"country":"rs","city":"Bersici","coordinates":{"lat":"44.057222","long":"20.328333"}},{"country":"rs","city":"Berzheniku","coordinates":{"lat":"42.643611","long":"20.334167"}},{"country":"rs","city":"Besarovina","coordinates":{"lat":"43.95","long":"19.471111"}},{"country":"rs","city":"Beschka","coordinates":{"lat":"45.129722","long":"20.066111"}},{"country":"rs","city":"Besdan","coordinates":{"lat":"45.852778","long":"18.930556"}},{"country":"rs","city":"Besenovacki Prnjavor","coordinates":{"lat":"45.113056","long":"19.706111"}},{"country":"rs","city":"Besenovo","coordinates":{"lat":"45.082778","long":"19.703611"}},{"country":"rs","city":"Besenyo","coordinates":{"lat":"45.082778","long":"19.703611"}},{"country":"rs","city":"Beserovina","coordinates":{"lat":"43.95","long":"19.471111"}},{"country":"rs","city":"Beshenovo","coordinates":{"lat":"45.082778","long":"19.703611"}},{"country":"rs","city":"Besiana","coordinates":{"lat":"42.910556","long":"21.193056"}},{"country":"rs","city":"Besianë","coordinates":{"lat":"42.910556","long":"21.193056"}},{"country":"rs","city":"Besi","coordinates":{"lat":"42.753611","long":"21.148056"}},{"country":"rs","city":"Besinje","coordinates":{"lat":"42.753611","long":"21.148056"}},{"country":"rs","city":"Beska","coordinates":{"lat":"45.129722","long":"20.066111"}},{"country":"rs","city":"Beslici","coordinates":{"lat":"43.846667","long":"19.563056"}},{"country":"rs","city":"Besni Fok","coordinates":{"lat":"44.997222","long":"20.408056"}},{"country":"rs","city":"Besolica","coordinates":{"lat":"43.088333","long":"21.156944"}},{"country":"rs","city":"Bessenovo","coordinates":{"lat":"45.082778","long":"19.703611"}},{"country":"rs","city":"Besska","coordinates":{"lat":"45.129722","long":"20.066111"}},{"country":"rs","city":"Betschkerek","coordinates":{"lat":"45.383611","long":"20.381944"}},{"country":"rs","city":"Bezanija","coordinates":{"lat":"44.806667","long":"20.378333"}},{"country":"rs","city":"Bezdam","coordinates":{"lat":"45.852778","long":"18.930556"}},{"country":"rs","city":"Bezdan","coordinates":{"lat":"45.852778","long":"18.930556"}},{"country":"rs","city":"Bezenic","coordinates":{"lat":"42.665833","long":"20.805556"}},{"country":"rs","city":"Beziste","coordinates":{"lat":"43.122778","long":"22.334444"}},{"country":"rs","city":"Biba","coordinates":{"lat":"42.375556","long":"21.195833"}},{"country":"rs","city":"Bibë","coordinates":{"lat":"42.375556","long":"21.195833"}},{"country":"rs","city":"Biberovici","coordinates":{"lat":"43.272222","long":"19.869444"}},{"country":"rs","city":"Bica","coordinates":{"lat":"42.679444","long":"20.600833"}},{"country":"rs","city":"Bicani","coordinates":{"lat":"43.537222","long":"21.0675"}},{"country":"rs","city":"Biçec","coordinates":{"lat":"42.245556","long":"21.214444"}},{"country":"rs","city":"Bicevac","coordinates":{"lat":"42.245556","long":"21.214444"}},{"country":"rs","city":"Bigla","coordinates":{"lat":"42.726667","long":"22.096389"}},{"country":"rs","city":"Biglar","coordinates":{"lat":"42.350833","long":"22.198611"}},{"country":"rs","city":"Bigrenica","coordinates":{"lat":"44.010833","long":"21.497778"}},{"country":"rs","city":"Bijela","coordinates":{"lat":"44.144444","long":"19.526667"}},{"country":"rs","city":"Bijela Voda","coordinates":{"lat":"43.439167","long":"19.3425"}},{"country":"rs","city":"Bijelina","coordinates":{"lat":"44.415","long":"19.403333"}},{"country":"rs","city":"Bijelo Polje","coordinates":{"lat":"42.703611","long":"22.156944"}},{"country":"rs","city":"Bikac","coordinates":{"lat":"45.641111","long":"20.414167"}},{"country":"rs","city":"Bikács","coordinates":{"lat":"45.648056","long":"20.39"}},{"country":"rs","city":"Bikatsch","coordinates":{"lat":"45.641111","long":"20.414167"}},{"country":"rs","city":"Bikic Do","coordinates":{"lat":"45.155278","long":"19.295"}},{"country":"rs","city":"Bikinja","coordinates":{"lat":"44.664167","long":"21.573333"}},{"country":"rs","city":"Bikinje","coordinates":{"lat":"44.664167","long":"21.573333"}},{"country":"rs","city":"Bikovo","coordinates":{"lat":"46.016667","long":"19.766667"}},{"country":"rs","city":"Bilaçë","coordinates":{"lat":"42.355833","long":"21.749444"}},{"country":"rs","city":"Bilegija","coordinates":{"lat":"43.129444","long":"19.870278"}},{"country":"rs","city":"Bilic","coordinates":{"lat":"45.849167","long":"19.121944"}},{"country":"rs","city":"Bilici","coordinates":{"lat":"45.849167","long":"19.121944"}},{"country":"rs","city":"Bilic Mahala","coordinates":{"lat":"42.534444","long":"20.8275"}},{"country":"rs","city":"Bilinca","coordinates":{"lat":"42.418056","long":"21.608333"}},{"country":"rs","city":"Bilince","coordinates":{"lat":"42.418056","long":"21.608333"}},{"country":"rs","city":"Bilinica","coordinates":{"lat":"42.418056","long":"21.608333"}},{"country":"rs","city":"Bilinicë","coordinates":{"lat":"42.418056","long":"21.608333"}},{"country":"rs","city":"Biljaca","coordinates":{"lat":"42.355833","long":"21.749444"}},{"country":"rs","city":"Biljace","coordinates":{"lat":"42.355833","long":"21.749444"}},{"country":"rs","city":"Biljanica","coordinates":{"lat":"42.638889","long":"22.295556"}},{"country":"rs","city":"Biljanovac","coordinates":{"lat":"43.411389","long":"20.665833"}},{"country":"rs","city":"Biljega","coordinates":{"lat":"43.710833","long":"19.974722"}},{"country":"rs","city":"Biljeg","coordinates":{"lat":"43.322778","long":"21.676667"}},{"country":"rs","city":"Billushë","coordinates":{"lat":"42.171389","long":"20.675556"}},{"country":"rs","city":"Bilnice-a","coordinates":{"lat":"42.418056","long":"21.608333"}},{"country":"rs","city":"Bilo","coordinates":{"lat":"42.956111","long":"22.7475"}},{"country":"rs","city":"Bilusa","coordinates":{"lat":"42.171389","long":"20.675556"}},{"country":"rs","city":"Bilusha","coordinates":{"lat":"42.171389","long":"20.675556"}},{"country":"rs","city":"Bilushë","coordinates":{"lat":"42.171389","long":"20.675556"}},{"country":"rs","city":"Binac","coordinates":{"lat":"42.299444","long":"21.364167"}},{"country":"rs","city":"Binaj","coordinates":{"lat":"42.186389","long":"20.548889"}},{"country":"rs","city":"Binca","coordinates":{"lat":"42.299444","long":"21.364167"}},{"country":"rs","city":"Binçe","coordinates":{"lat":"42.299444","long":"21.364167"}},{"country":"rs","city":"Bingjë","coordinates":{"lat":"42.678056","long":"20.618611"}},{"country":"rs","city":"Bingola","coordinates":{"lat":"45.100556","long":"19.4475"}},{"country":"rs","city":"Bingula","coordinates":{"lat":"45.100556","long":"19.4475"}},{"country":"rs","city":"Binice","coordinates":{"lat":"43.371111","long":"20.490833"}},{"country":"rs","city":"Binici","coordinates":{"lat":"43.371111","long":"20.490833"}},{"country":"rs","city":"Binovac","coordinates":{"lat":"44.573056","long":"20.870556"}},{"country":"rs","city":"Binovce","coordinates":{"lat":"42.693333","long":"22.110278"}},{"country":"rs","city":"Binovci","coordinates":{"lat":"42.693333","long":"22.110278"}},{"country":"rs","city":"Binxha","coordinates":{"lat":"42.679444","long":"20.600833"}},{"country":"rs","city":"Bioc","coordinates":{"lat":"43.118889","long":"20.079722"}},{"country":"rs","city":"Bioce","coordinates":{"lat":"43.118889","long":"20.079722"}},{"country":"rs","city":"Biocin","coordinates":{"lat":"43.224167","long":"20.642778"}},{"country":"rs","city":"Biohane","coordinates":{"lat":"42.941111","long":"20.337222"}},{"country":"rs","city":"Bioska","coordinates":{"lat":"43.872222","long":"19.66"}},{"country":"rs","city":"Biqa","coordinates":{"lat":"42.679444","long":"20.600833"}},{"country":"rs","city":"Biqë","coordinates":{"lat":"42.678056","long":"20.618611"}},{"country":"rs","city":"Biqevc","coordinates":{"lat":"42.245556","long":"21.214444"}},{"country":"rs","city":"Bircani","coordinates":{"lat":"44.246111","long":"19.681111"}},{"country":"rs","city":"Birndorf","coordinates":{"lat":"45.932222","long":"19.101667"}},{"country":"rs","city":"Birovo","coordinates":{"lat":"43.051111","long":"20.769167"}},{"country":"rs","city":"Biserica Alba","coordinates":{"lat":"44.8975","long":"21.417222"}},{"country":"rs","city":"Biserske Kuce","coordinates":{"lat":"43.562778","long":"20.842222"}},{"country":"rs","city":"Bishtan","coordinates":{"lat":"42.614444","long":"20.420556"}},{"country":"rs","city":"Bishtazhin","coordinates":{"lat":"42.355556","long":"20.511944"}},{"country":"rs","city":"Bisini","coordinates":{"lat":"42.8775","long":"22.408611"}},{"country":"rs","city":"Biskupici","coordinates":{"lat":"43.365833","long":"19.783333"}},{"country":"rs","city":"Biskuplje","coordinates":{"lat":"44.740278","long":"21.386944"}},{"country":"rs","city":"Bistaj","coordinates":{"lat":"42.385","long":"21.604167"}},{"country":"rs","city":"Bistanska Reka","coordinates":{"lat":"42.987222","long":"20.755556"}},{"country":"rs","city":"Bistar","coordinates":{"lat":"42.374444","long":"22.439444"}},{"country":"rs","city":"Bistazhini","coordinates":{"lat":"42.355556","long":"20.511944"}},{"country":"rs","city":"Bistrazin","coordinates":{"lat":"42.355556","long":"20.511944"}},{"country":"rs","city":"Bistr","coordinates":{"lat":"42.374444","long":"22.439444"}},{"country":"rs","city":"Bistrica","coordinates":{"lat":"42.841944","long":"22.072222"}},{"country":"rs","city":"Bistrica na Limu","coordinates":{"lat":"43.461111","long":"19.665556"}},{"country":"rs","city":"Bistricë","coordinates":{"lat":"43.225278","long":"20.718889"}},{"country":"rs","city":"Bistricë e Shalës","coordinates":{"lat":"43.010556","long":"20.865833"}},{"country":"rs","city":"Bitia e Epërme","coordinates":{"lat":"42.2725","long":"21.029722"}},{"country":"rs","city":"Bitia e Poshtëme","coordinates":{"lat":"42.253056","long":"21.043056"}},{"country":"rs","city":"Biti e Epërme","coordinates":{"lat":"42.2725","long":"21.029722"}},{"country":"rs","city":"Biti e Poshtëme","coordinates":{"lat":"42.253056","long":"21.043056"}},{"country":"rs","city":"Bitvrda","coordinates":{"lat":"42.694444","long":"22.267778"}},{"country":"rs","city":"Bitvrde","coordinates":{"lat":"42.694444","long":"22.267778"}},{"country":"rs","city":"Bivolak","coordinates":{"lat":"42.714167","long":"21.008333"}},{"country":"rs","city":"Bivolice","coordinates":{"lat":"43.348333","long":"19.733056"}},{"country":"rs","city":"Bivoljak","coordinates":{"lat":"42.714167","long":"21.008333"}},{"country":"rs","city":"Bizaci","coordinates":{"lat":"42.470278","long":"22.0475"}},{"country":"rs","city":"Bjecani","coordinates":{"lat":"43.238333","long":"19.743611"}},{"country":"rs","city":"Bjelaci","coordinates":{"lat":"43.2625","long":"19.672778"}},{"country":"rs","city":"Bjelicici","coordinates":{"lat":"43.698056","long":"19.891111"}},{"country":"rs","city":"Bjelik","coordinates":{"lat":"44.005556","long":"19.768056"}},{"country":"rs","city":"Bjelis","coordinates":{"lat":"43.8","long":"19.727778"}},{"country":"rs","city":"Bjelobabe","coordinates":{"lat":"43.356111","long":"19.691944"}},{"country":"rs","city":"Bjelohova","coordinates":{"lat":"43.2275","long":"19.671667"}},{"country":"rs","city":"Bjelopac","coordinates":{"lat":"42.724444","long":"20.226944"}},{"country":"rs","city":"Bjeloperica","coordinates":{"lat":"43.969167","long":"19.973333"}},{"country":"rs","city":"Bjeloperice","coordinates":{"lat":"43.969167","long":"19.973333"}},{"country":"rs","city":"Bjelo Polje","coordinates":{"lat":"42.641111","long":"20.285556"}},{"country":"rs","city":"Bjelosica","coordinates":{"lat":"43.530556","long":"19.442222"}},{"country":"rs","city":"Bjelotici","coordinates":{"lat":"43.900278","long":"19.946944"}},{"country":"rs","city":"Bjelusa","coordinates":{"lat":"43.615278","long":"20.013056"}},{"country":"rs","city":"Blaca","coordinates":{"lat":"43.061944","long":"20.372222"}},{"country":"rs","city":"Blaç","coordinates":{"lat":"42.124167","long":"20.735556"}},{"country":"rs","city":"Blace","coordinates":{"lat":"42.423056","long":"20.8625"}},{"country":"rs","city":"Blaçi","coordinates":{"lat":"42.689167","long":"20.489722"}},{"country":"rs","city":"Blagaja","coordinates":{"lat":"42.665278","long":"20.357222"}},{"country":"rs","city":"Blagaje","coordinates":{"lat":"42.665278","long":"20.357222"}},{"country":"rs","city":"Blagojevici","coordinates":{"lat":"43.169722","long":"21.524722"}},{"country":"rs","city":"Blagojev Kamen","coordinates":{"lat":"44.4375","long":"21.856389"}},{"country":"rs","city":"Blagun","coordinates":{"lat":"42.533889","long":"22.024722"}},{"country":"rs","city":"Blaq","coordinates":{"lat":"42.124167","long":"20.735556"}},{"country":"rs","city":"Blato","coordinates":{"lat":"42.542222","long":"21.645"}},{"country":"rs","city":"Blauschütz","coordinates":{"lat":"44.72","long":"20.884444"}},{"country":"rs","city":"Blazevo","coordinates":{"lat":"43.230278","long":"20.908333"}},{"country":"rs","city":"Blazici","coordinates":{"lat":"43.430556","long":"20.937778"}},{"country":"rs","city":"Blendija","coordinates":{"lat":"43.651111","long":"21.918611"}},{"country":"rs","city":"Bleniste","coordinates":{"lat":"42.353056","long":"21.138333"}},{"country":"rs","city":"Blerim","coordinates":{"lat":"42.631111","long":"20.936389"}},{"country":"rs","city":"Blerimi","coordinates":{"lat":"42.631111","long":"20.936389"}},{"country":"rs","city":"Bletar","coordinates":{"lat":"42.645833","long":"20.870556"}},{"country":"rs","city":"Bletari","coordinates":{"lat":"42.645833","long":"20.870556"}},{"country":"rs","city":"Bleyersdorf","coordinates":{"lat":"45.269444","long":"19.525278"}},{"country":"rs","city":"Blinaje-a","coordinates":{"lat":"42.400556","long":"21.544444"}},{"country":"rs","city":"Blinishtë","coordinates":{"lat":"42.310833","long":"20.4775"}},{"country":"rs","city":"Bliznaci","coordinates":{"lat":"42.701111","long":"22.279444"}},{"country":"rs","city":"Bliznacka Mahala","coordinates":{"lat":"42.4375","long":"22.473611"}},{"country":"rs","city":"Bliznak","coordinates":{"lat":"44.179167","long":"21.545833"}},{"country":"rs","city":"Blizonje","coordinates":{"lat":"44.359722","long":"19.906944"}},{"country":"rs","city":"Bljac","coordinates":{"lat":"42.124167","long":"20.735556"}},{"country":"rs","city":"Bljuvanovac","coordinates":{"lat":"44.123333","long":"22.598611"}},{"country":"rs","city":"Bllacë","coordinates":{"lat":"42.423056","long":"20.8625"}},{"country":"rs","city":"Bllagaja","coordinates":{"lat":"42.665278","long":"20.357222"}},{"country":"rs","city":"Bllagajë","coordinates":{"lat":"42.665278","long":"20.357222"}},{"country":"rs","city":"Bllata","coordinates":{"lat":"42.542222","long":"21.645"}},{"country":"rs","city":"Bllatë","coordinates":{"lat":"42.832778","long":"21.385278"}},{"country":"rs","city":"Bllazhevë","coordinates":{"lat":"43.230278","long":"20.908333"}},{"country":"rs","city":"Bobajaninci","coordinates":{"lat":"42.4375","long":"22.135"}},{"country":"rs","city":"Bobarina Buka","coordinates":{"lat":"42.519444","long":"22.393333"}},{"country":"rs","city":"Bob","coordinates":{"lat":"42.2275","long":"21.250556"}},{"country":"rs","city":"Bobici","coordinates":{"lat":"44.246944","long":"19.591111"}},{"country":"rs","city":"Bobija","coordinates":{"lat":"44.518889","long":"19.653889"}},{"country":"rs","city":"Bobiste","coordinates":{"lat":"43.013611","long":"21.98"}},{"country":"rs","city":"Bobote","coordinates":{"lat":"43.458333","long":"21.115833"}},{"country":"rs","city":"Bobova","coordinates":{"lat":"44.266667","long":"19.703889"}},{"country":"rs","city":"Bobovac","coordinates":{"lat":"42.431389","long":"20.559444"}},{"country":"rs","city":"Bobov","coordinates":{"lat":"44.266667","long":"19.703889"}},{"country":"rs","city":"Bobovik","coordinates":{"lat":"43.118333","long":"20.427778"}},{"country":"rs","city":"Boboviste","coordinates":{"lat":"43.562222","long":"21.646389"}},{"country":"rs","city":"Bobovo","coordinates":{"lat":"44.229444","long":"21.273333"}},{"country":"rs","city":"Bobradolan","coordinates":{"lat":"42.385833","long":"20.748056"}},{"country":"rs","city":"Bobusnica","coordinates":{"lat":"43.059722","long":"22.411667"}},{"country":"rs","city":"Boca","coordinates":{"lat":"45.354444","long":"20.829722"}},{"country":"rs","city":"Bocar","coordinates":{"lat":"45.771111","long":"20.282222"}},{"country":"rs","city":"Bocatic","coordinates":{"lat":"44.8375","long":"19.480556"}},{"country":"rs","city":"Boce","coordinates":{"lat":"43.4325","long":"20.7675"}},{"country":"rs","city":"Boceva Mahala","coordinates":{"lat":"42.8775","long":"22.120833"}},{"country":"rs","city":"Bocevica","coordinates":{"lat":"42.8775","long":"22.120833"}},{"country":"rs","city":"Bocinska Mahala","coordinates":{"lat":"42.426389","long":"21.8725"}},{"country":"rs","city":"Boçka","coordinates":{"lat":"42.010278","long":"20.666944"}},{"country":"rs","city":"Bocsár","coordinates":{"lat":"45.771111","long":"20.282222"}},{"country":"rs","city":"Bodani","coordinates":{"lat":"45.388333","long":"19.107222"}},{"country":"rs","city":"Bodgyán","coordinates":{"lat":"45.388333","long":"19.107222"}},{"country":"rs","city":"Bodjani","coordinates":{"lat":"45.388333","long":"19.107222"}},{"country":"rs","city":"Bodrog-Monostorszeg","coordinates":{"lat":"45.793611","long":"18.935833"}},{"country":"rs","city":"Bodus Mala","coordinates":{"lat":"44.391389","long":"19.631944"}},{"country":"rs","city":"Bogaçe","coordinates":{"lat":"42.635833","long":"20.636389"}},{"country":"rs","city":"Bogacici","coordinates":{"lat":"43.288611","long":"20.07"}},{"country":"rs","city":"Bogaj","coordinates":{"lat":"42.742778","long":"20.053889"}},{"country":"rs","city":"Bogalinac","coordinates":{"lat":"43.8225","long":"21.033056"}},{"country":"rs","city":"Bogaljinci","coordinates":{"lat":"43.8225","long":"21.033056"}},{"country":"rs","city":"Bogaras","coordinates":{"lat":"45.778333","long":"19.804444"}},{"country":"rs","city":"Bogaros","coordinates":{"lat":"45.934444","long":"19.9275"}},{"country":"rs","city":"Bogatic","coordinates":{"lat":"44.8375","long":"19.480556"}},{"country":"rs","city":"Bogatici","coordinates":{"lat":"44.197222","long":"19.826944"}},{"country":"rs","city":"Bogava","coordinates":{"lat":"44.095","long":"21.325556"}},{"country":"rs","city":"Bog","coordinates":{"lat":"42.742778","long":"20.053889"}},{"country":"rs","city":"Bogdanica","coordinates":{"lat":"44.015278","long":"20.105"}},{"country":"rs","city":"Bogdanje","coordinates":{"lat":"43.636389","long":"21.024722"}},{"country":"rs","city":"Bogdanovac","coordinates":{"lat":"42.407778","long":"21.803333"}},{"country":"rs","city":"Bogdanovach","coordinates":{"lat":"42.407778","long":"21.803333"}},{"country":"rs","city":"Bogdanova Mahala","coordinates":{"lat":"42.669444","long":"22.315556"}},{"country":"rs","city":"Bogdanovce","coordinates":{"lat":"42.407778","long":"21.803333"}},{"country":"rs","city":"Bogdanovci","coordinates":{"lat":"42.407778","long":"21.803333"}},{"country":"rs","city":"Bogdanovica","coordinates":{"lat":"44.475","long":"20.081944"}},{"country":"rs","city":"Bogdanovici","coordinates":{"lat":"43.485278","long":"19.674722"}},{"country":"rs","city":"Bogdanska Mahala","coordinates":{"lat":"42.445278","long":"22.061667"}},{"country":"rs","city":"Bogdinac","coordinates":{"lat":"43.663333","long":"21.983056"}},{"country":"rs","city":"Boge","coordinates":{"lat":"42.742778","long":"20.053889"}},{"country":"rs","city":"Bogët","coordinates":{"lat":"42.742778","long":"20.053889"}},{"country":"rs","city":"Bogic","coordinates":{"lat":"42.463333","long":"20.769167"}},{"country":"rs","city":"Bogicevici","coordinates":{"lat":"42.608611","long":"20.4"}},{"country":"rs","city":"Bogise","coordinates":{"lat":"43.375","long":"21.184444"}},{"country":"rs","city":"Bogojeva","coordinates":{"lat":"45.530556","long":"19.132778"}},{"country":"rs","city":"Bogojevac","coordinates":{"lat":"43.043889","long":"21.502222"}},{"country":"rs","city":"Bogojevce","coordinates":{"lat":"43.049722","long":"21.968889"}},{"country":"rs","city":"Bogojevici","coordinates":{"lat":"43.7175","long":"20.093889"}},{"country":"rs","city":"Bogojevo","coordinates":{"lat":"45.530556","long":"19.132778"}},{"country":"rs","city":"Bogosavac","coordinates":{"lat":"44.718889","long":"19.595278"}},{"country":"rs","city":"Bogosevac","coordinates":{"lat":"42.171944","long":"20.878611"}},{"country":"rs","city":"Bogosevc","coordinates":{"lat":"42.171944","long":"20.878611"}},{"country":"rs","city":"Bogosevce","coordinates":{"lat":"42.171944","long":"20.878611"}},{"country":"rs","city":"Bogosevo","coordinates":{"lat":"42.6125","long":"22.076111"}},{"country":"rs","city":"Bogoslovtrad","coordinates":{"lat":"42.501944","long":"22.436111"}},{"country":"rs","city":"Bogostica","coordinates":{"lat":"44.328333","long":"19.404444"}},{"country":"rs","city":"Bogovada","coordinates":{"lat":"44.328056","long":"20.199444"}},{"country":"rs","city":"Bogovina","coordinates":{"lat":"43.895","long":"21.940278"}},{"country":"rs","city":"Bogucani","coordinates":{"lat":"43.147222","long":"20.103056"}},{"country":"rs","city":"Bogujevac","coordinates":{"lat":"43.043889","long":"21.502222"}},{"country":"rs","city":"Bogunovac","coordinates":{"lat":"42.780833","long":"21.511944"}},{"country":"rs","city":"Boguti","coordinates":{"lat":"43.278333","long":"20.081667"}},{"country":"rs","city":"Bogutovac","coordinates":{"lat":"43.666667","long":"20.550278"}},{"country":"rs","city":"Bogutovo","coordinates":{"lat":"43.610833","long":"19.9775"}},{"country":"rs","city":"Bogyán","coordinates":{"lat":"45.388333","long":"19.107222"}},{"country":"rs","city":"Bojadici","coordinates":{"lat":"42.386944","long":"21.871667"}},{"country":"rs","city":"Bojadzici","coordinates":{"lat":"42.386944","long":"21.871667"}},{"country":"rs","city":"Bojaj","coordinates":{"lat":"42.646111","long":"20.614722"}},{"country":"rs","city":"Bojaji","coordinates":{"lat":"42.646111","long":"20.614722"}},{"country":"rs","city":"Bojanici","coordinates":{"lat":"43.432222","long":"20.645278"}},{"country":"rs","city":"Bojcici","coordinates":{"lat":"44.350278","long":"19.756389"}},{"country":"rs","city":"Bojevica","coordinates":{"lat":"43.103056","long":"20.477778"}},{"country":"rs","city":"Bojic","coordinates":{"lat":"44.628333","long":"19.64"}},{"country":"rs","city":"Bojici","coordinates":{"lat":"44.416944","long":"19.379167"}},{"country":"rs","city":"Bojince","coordinates":{"lat":"43.533611","long":"21.5675"}},{"country":"rs","city":"Bojinci","coordinates":{"lat":"43.533611","long":"21.5675"}},{"country":"rs","city":"Bojin Del","coordinates":{"lat":"42.606944","long":"21.929167"}},{"country":"rs","city":"Bojinska Mahala","coordinates":{"lat":"42.448333","long":"22.440556"}},{"country":"rs","city":"Bojisina","coordinates":{"lat":"42.885","long":"22.101389"}},{"country":"rs","city":"Bojiste","coordinates":{"lat":"43.7575","long":"21.560556"}},{"country":"rs","city":"Bojkova Mahala","coordinates":{"lat":"42.668333","long":"22.226944"}},{"country":"rs","city":"Bojnik","coordinates":{"lat":"42.416111","long":"21.916389"}},{"country":"rs","city":"Bojovici","coordinates":{"lat":"43.451389","long":"20.198611"}},{"country":"rs","city":"Bojra","coordinates":{"lat":"43.285","long":"19.6575"}},{"country":"rs","city":"Bojsina","coordinates":{"lat":"42.885","long":"22.101389"}},{"country":"rs","city":"Boka","coordinates":{"lat":"45.354444","long":"20.829722"}},{"country":"rs","city":"Bokajt","coordinates":{"lat":"42.742778","long":"20.053889"}},{"country":"rs","city":"Bokare","coordinates":{"lat":"43.673611","long":"20.053889"}},{"country":"rs","city":"Boksh","coordinates":{"lat":"42.580278","long":"20.5125"}},{"country":"rs","city":"Bokshi","coordinates":{"lat":"42.580278","long":"20.5125"}},{"country":"rs","city":"Bokshiqi","coordinates":{"lat":"42.580278","long":"20.5125"}},{"country":"rs","city":"Boksic","coordinates":{"lat":"42.580278","long":"20.5125"}},