[{"country":"lk","city":"Abakolawewa","coordinates":{"lat":"7.65","long":"80.3333333"}},{"country":"lk","city":"Abakolawewa","coordinates":{"lat":"6.1833333","long":"80.8"}},{"country":"lk","city":"Abasingammedda","coordinates":{"lat":"7.3166667","long":"80.6666667"}},{"country":"lk","city":"Abbowa","coordinates":{"lat":"7.3","long":"80.2"}},{"country":"lk","city":"Abesekaragama","coordinates":{"lat":"6.2166667","long":"80.9"}},{"country":"lk","city":"Abeyesekaragama","coordinates":{"lat":"6.2166667","long":"80.9"}},{"country":"lk","city":"Abokkagama","coordinates":{"lat":"7.8166667","long":"80.05"}},{"country":"lk","city":"Abuwangala","coordinates":{"lat":"7.3166667","long":"80.3166667"}},{"country":"lk","city":"Acharigama","coordinates":{"lat":"8.0166667","long":"80.4666667"}},{"country":"lk","city":"Acharigama","coordinates":{"lat":"7.4333333","long":"80.2166667"}},{"country":"lk","city":"Acharigama","coordinates":{"lat":"6.1666667","long":"80.9"}},{"country":"lk","city":"Acharigoda","coordinates":{"lat":"6.3411111","long":"80.2269444"}},{"country":"lk","city":"Achariheenukwewa","coordinates":{"lat":"7.8","long":"80.3"}},{"country":"lk","city":"Achari Hinukwewa","coordinates":{"lat":"7.8","long":"80.3"}},{"country":"lk","city":"Achari Ihalagama","coordinates":{"lat":"7.7833333","long":"80.15"}},{"country":"lk","city":"Acharikelegama","coordinates":{"lat":"7.8833333","long":"80.0833333"}},{"country":"lk","city":"Acharikonwewa","coordinates":{"lat":"7.9166667","long":"80.3166667"}},{"country":"lk","city":"Achari Madatugama","coordinates":{"lat":"7.95","long":"80.6333333"}},{"country":"lk","city":"Achchamulai","coordinates":{"lat":"8.2666667","long":"79.8666667"}},{"country":"lk","city":"Achchankulam","coordinates":{"lat":"8.8333333","long":"79.9333333"}},{"country":"lk","city":"Achchelu","coordinates":{"lat":"9.7333333","long":"80.0666667"}},{"country":"lk","city":"Achchirikulama","coordinates":{"lat":"8.1666667","long":"80.4833333"}},{"country":"lk","city":"Achchuveli","coordinates":{"lat":"9.7666667","long":"80.1"}},{"country":"lk","city":"Achcnankulam","coordinates":{"lat":"8.8333333","long":"79.9333333"}},{"country":"lk","city":"Achelu","coordinates":{"lat":"9.7333333","long":"80.0666667"}},{"country":"lk","city":"Achirigama","coordinates":{"lat":"8.0166667","long":"80.4666667"}},{"country":"lk","city":"Achirigama","coordinates":{"lat":"7.5833333","long":"80.1666667"}},{"country":"lk","city":"Achiriyagama","coordinates":{"lat":"8.1333333","long":"80.4166667"}},{"country":"lk","city":"Achiriyakotuwa","coordinates":{"lat":"7.55","long":"80.2833333"}},{"country":"lk","city":"Acirigama","coordinates":{"lat":"7.6166667","long":"80.15"}},{"country":"lk","city":"Adaichakal","coordinates":{"lat":"7.6","long":"81.6"}},{"country":"lk","city":"Adaikkalamoddai","coordinates":{"lat":"8.8833333","long":"80.0166667"}},{"country":"lk","city":"Adammana","coordinates":{"lat":"7.7166667","long":"79.9333333"}},{"country":"lk","city":"Adampam","coordinates":{"lat":"8.9333333","long":"80.0"}},{"country":"lk","city":"Adampan","coordinates":{"lat":"8.9333333","long":"80.0"}},{"country":"lk","city":"Adampanai","coordinates":{"lat":"8.75","long":"80.9666667"}},{"country":"lk","city":"Adampane","coordinates":{"lat":"8.3166667","long":"80.2666667"}},{"country":"lk","city":"Adampane","coordinates":{"lat":"8.75","long":"80.9666667"}},{"country":"lk","city":"Adampane","coordinates":{"lat":"7.7","long":"80.0"}},{"country":"lk","city":"Adampantalvu","coordinates":{"lat":"8.9","long":"80.05"}},{"country":"lk","city":"Adappanavillu","coordinates":{"lat":"7.9833333","long":"79.85"}},{"country":"lk","city":"Adappankulam","coordinates":{"lat":"8.6166667","long":"80.35"}},{"country":"lk","city":"Adappan Villu","coordinates":{"lat":"7.9833333","long":"79.85"}},{"country":"lk","city":"Adapparagama","coordinates":{"lat":"7.45","long":"79.8333333"}},{"country":"lk","city":"Adavikanda","coordinates":{"lat":"6.8333333","long":"80.4166667"}},{"country":"lk","city":"Adawikanda","coordinates":{"lat":"6.8333333","long":"80.4166667"}},{"country":"lk","city":"Addaippaliam","coordinates":{"lat":"7.3333333","long":"81.85"}},{"country":"lk","city":"Addaippallam","coordinates":{"lat":"7.3333333","long":"81.85"}},{"country":"lk","city":"Addalachchenai","coordinates":{"lat":"7.25","long":"81.85"}},{"country":"lk","city":"Addalachena","coordinates":{"lat":"7.25","long":"81.85"}},{"country":"lk","city":"Addalachenai","coordinates":{"lat":"7.25","long":"81.85"}},{"country":"lk","city":"Addapalam","coordinates":{"lat":"7.3333333","long":"81.85"}},{"country":"lk","city":"Addarawellana","coordinates":{"lat":"6.0166667","long":"80.4"}},{"country":"lk","city":"Adhikarigama","coordinates":{"lat":"7.2166667","long":"80.7833333"}},{"country":"lk","city":"Adikarigama","coordinates":{"lat":"8.1166667","long":"80.2333333"}},{"country":"lk","city":"Adikarigoda","coordinates":{"lat":"6.45","long":"80.0166667"}},{"country":"lk","city":"Adikarimulla","coordinates":{"lat":"7.2333333","long":"79.9666667"}},{"country":"lk","city":"Adikariya","coordinates":{"lat":"6.7166667","long":"80.3"}},{"country":"lk","city":"Adikkandiya","coordinates":{"lat":"7.25","long":"79.8666667"}},{"country":"lk","city":"Adippola","coordinates":{"lat":"7.6833333","long":"79.8666667"}},{"country":"lk","city":"Adiyakulam","coordinates":{"lat":"8.8","long":"80.0166667"}},{"country":"lk","city":"Adukkalamoddai","coordinates":{"lat":"8.8833333","long":"80.0166667"}},{"country":"lk","city":"Adukkane","coordinates":{"lat":"7.5333333","long":"80.1333333"}},{"country":"lk","city":"Adukkanewatuyaya","coordinates":{"lat":"7.55","long":"80.3666667"}},{"country":"lk","city":"Adupe","coordinates":{"lat":"7.2666667","long":"80.15"}},{"country":"lk","city":"Agalaboda","coordinates":{"lat":"6.2","long":"80.6666667"}},{"country":"lk","city":"Agalagama","coordinates":{"lat":"6.7","long":"80.7666667"}},{"country":"lk","city":"Agalagamuwa","coordinates":{"lat":"6.5166667","long":"80.6166667"}},{"country":"lk","city":"Agala Kanda","coordinates":{"lat":"6.1833333","long":"80.2"}},{"country":"lk","city":"Agalakumbura","coordinates":{"lat":"7.1166667","long":"80.9333333"}},{"country":"lk","city":"Agalawatta","coordinates":{"lat":"7.4833333","long":"80.6"}},{"country":"lk","city":"Agalawatta","coordinates":{"lat":"6.8","long":"80.3666667"}},{"country":"lk","city":"Agalawatta","coordinates":{"lat":"6.5422222","long":"80.1583333"}},{"country":"lk","city":"Agalegama","coordinates":{"lat":"7.35","long":"79.95"}},{"country":"lk","city":"Agalegedara","coordinates":{"lat":"7.2666667","long":"80.0333333"}},{"country":"lk","city":"Agalekumbura","coordinates":{"lat":"6.6","long":"80.75"}},{"country":"lk","city":"Agaliya","coordinates":{"lat":"6.1833333","long":"80.2"}},{"country":"lk","city":"Agalle","coordinates":{"lat":"6.75","long":"81.5"}},{"country":"lk","city":"Agampodigama","coordinates":{"lat":"6.9","long":"80.9"}},{"country":"lk","city":"Agappola","coordinates":{"lat":"7.1333333","long":"80.75"}},{"country":"lk","city":"Agarauda","coordinates":{"lat":"7.5666667","long":"80.1166667"}},{"country":"lk","city":"Agare","coordinates":{"lat":"7.35","long":"80.0666667"}},{"country":"lk","city":"Agaregama","coordinates":{"lat":"6.55","long":"80.6"}},{"country":"lk","city":"Agaregedara","coordinates":{"lat":"7.4","long":"80.0833333"}},{"country":"lk","city":"Agaregedera","coordinates":{"lat":"7.4","long":"80.0833333"}},{"country":"lk","city":"Aggalaulpota","coordinates":{"lat":"7.15","long":"81.05"}},{"country":"lk","city":"Aggarahere","coordinates":{"lat":"6.1333333","long":"80.7833333"}},{"country":"lk","city":"Agrapatana","coordinates":{"lat":"6.8652778","long":"80.7138889"}},{"country":"lk","city":"Agrapatna","coordinates":{"lat":"6.8652778","long":"80.7138889"}},{"country":"lk","city":"Agulgomuwa","coordinates":{"lat":"7.75","long":"80.5"}},{"country":"lk","city":"Ahangama","coordinates":{"lat":"5.9777778","long":"80.3744444"}},{"country":"lk","city":"Ahangama Central","coordinates":{"lat":"5.9666667","long":"80.3666667"}},{"country":"lk","city":"Ahangama East","coordinates":{"lat":"5.9666667","long":"80.3833333"}},{"country":"lk","city":"Ahangama Nakanda","coordinates":{"lat":"5.9833333","long":"80.3666667"}},{"country":"lk","city":"Ahangama West","coordinates":{"lat":"5.9833333","long":"80.3666667"}},{"country":"lk","city":"Ahaspokuna","coordinates":{"lat":"6.6666667","long":"80.8166667"}},{"country":"lk","city":"Ahasyanapitiya","coordinates":{"lat":"7.4666667","long":"80.4333333"}},{"country":"lk","city":"Ahatuwewe","coordinates":{"lat":"7.7","long":"80.0833333"}},{"country":"lk","city":"Ahubodagama","coordinates":{"lat":"7.8333333","long":"80.0833333"}},{"country":"lk","city":"Ahugammana","coordinates":{"lat":"7.0","long":"80.0333333"}},{"country":"lk","city":"Ahugoda","coordinates":{"lat":"7.4166667","long":"80.3166667"}},{"country":"lk","city":"Ahuliyadda","coordinates":{"lat":"6.5833333","long":"80.7166667"}},{"country":"lk","city":"Ahungalla","coordinates":{"lat":"6.3166667","long":"80.0333333"}},{"country":"lk","city":"Ahungalla Middaramulla","coordinates":{"lat":"6.3166667","long":"80.0333333"}},{"country":"lk","city":"Aiyakerni","coordinates":{"lat":"7.7833333","long":"81.6166667"}},{"country":"lk","city":"Aiyamperumal","coordinates":{"lat":"9.05","long":"80.3666667"}},{"country":"lk","city":"Aiyanatidal","coordinates":{"lat":"8.4666667","long":"81.1166667"}},{"country":"lk","city":"Aiyankenitalawai","coordinates":{"lat":"7.7833333","long":"81.6"}},{"country":"lk","city":"Aiyankerni","coordinates":{"lat":"7.7833333","long":"81.6166667"}},{"country":"lk","city":"Aiyankernitalawai","coordinates":{"lat":"7.7833333","long":"81.6"}},{"country":"lk","city":"Aiyatayagama","coordinates":{"lat":"8.15","long":"80.4666667"}},{"country":"lk","city":"Aiyittiyamalai","coordinates":{"lat":"7.6833333","long":"81.5666667"}},{"country":"lk","city":"Akadagoda","coordinates":{"lat":"6.3666667","long":"80.0333333"}},{"country":"lk","city":"Akade","coordinates":{"lat":"7.4166667","long":"80.5"}},{"country":"lk","city":"Akadegoda","coordinates":{"lat":"6.3666667","long":"80.0333333"}},{"country":"lk","city":"Akadigoda","coordinates":{"lat":"6.3666667","long":"80.0333333"}},{"country":"lk","city":"Akalagamuwa","coordinates":{"lat":"7.4666667","long":"80.5333333"}},{"country":"lk","city":"Akalagomuwa","coordinates":{"lat":"7.4666667","long":"80.5333333"}},{"country":"lk","city":"Akaragama","coordinates":{"lat":"7.4666667","long":"80.35"}},{"country":"lk","city":"Akaragama","coordinates":{"lat":"7.2666667","long":"79.95"}},{"country":"lk","city":"Akaragana","coordinates":{"lat":"7.4666667","long":"80.35"}},{"country":"lk","city":"Akarahadiya","coordinates":{"lat":"7.6166667","long":"80.8666667"}},{"country":"lk","city":"Akarahaduwa","coordinates":{"lat":"7.65","long":"80.65"}},{"country":"lk","city":"Akarahaduwa","coordinates":{"lat":"7.6166667","long":"80.8666667"}},{"country":"lk","city":"Akarahediya","coordinates":{"lat":"7.6166667","long":"80.8666667"}},{"country":"lk","city":"Akaranai","coordinates":{"lat":"7.9166667","long":"81.3833333"}},{"country":"lk","city":"Akarangaha","coordinates":{"lat":"7.2833333","long":"79.9833333"}},{"country":"lk","city":"Akarawatta","coordinates":{"lat":"7.5666667","long":"80.05"}},{"country":"lk","city":"Akarawatte","coordinates":{"lat":"7.55","long":"80.05"}},{"country":"lk","city":"Akarawita","coordinates":{"lat":"6.95","long":"80.1"}},{"country":"lk","city":"Akarella","coordinates":{"lat":"6.5833333","long":"80.6666667"}},{"country":"lk","city":"Akattikkulam","coordinates":{"lat":"8.7","long":"80.1333333"}},{"country":"lk","city":"Akattikulam","coordinates":{"lat":"8.8","long":"80.0666667"}},{"country":"lk","city":"Akattimurippu","coordinates":{"lat":"8.75","long":"79.9666667"}},{"country":"lk","city":"Akirikanda","coordinates":{"lat":"8.55","long":"80.4833333"}},{"country":"lk","city":"Akkaragoda","coordinates":{"lat":"6.4833333","long":"79.9833333"}},{"country":"lk","city":"Akkaraipattu","coordinates":{"lat":"7.2166667","long":"81.85"}},{"country":"lk","city":"Akkara Panaha","coordinates":{"lat":"7.4666667","long":"80.45"}},{"country":"lk","city":"Akkarawatta","coordinates":{"lat":"6.9002778","long":"80.5177778"}},{"country":"lk","city":"Akkarawatta","coordinates":{"lat":"7.55","long":"80.05"}},{"country":"lk","city":"Akkaraweli","coordinates":{"lat":"7.7666667","long":"79.8333333"}},{"country":"lk","city":"Akkarawelliya","coordinates":{"lat":"7.7666667","long":"79.8333333"}},{"country":"lk","city":"Akkarayankotuwa","coordinates":{"lat":"7.5833333","long":"79.8"}},{"country":"lk","city":"Akkuranai","coordinates":{"lat":"7.9166667","long":"81.3833333"}},{"country":"lk","city":"Akmimana","coordinates":{"lat":"6.0666667","long":"80.25"}},{"country":"lk","city":"Akulobe","coordinates":{"lat":"7.5","long":"81.3833333"}},{"country":"lk","city":"Akunadiwela","coordinates":{"lat":"6.0666667","long":"80.65"}},{"country":"lk","city":"Akurala","coordinates":{"lat":"6.1991667","long":"80.0786111"}},{"country":"lk","city":"Akuraladuwa","coordinates":{"lat":"6.1833333","long":"80.0666667"}},{"country":"lk","city":"Akuramboda","coordinates":{"lat":"7.65","long":"80.6"}},{"country":"lk","city":"Akurambodwatta","coordinates":{"lat":"7.6333333","long":"80.6166667"}},{"country":"lk","city":"Akurana","coordinates":{"lat":"7.3666667","long":"80.6166667"}},{"country":"lk","city":"Akurana","coordinates":{"lat":"7.65","long":"80.0166667"}},{"country":"lk","city":"Akurana","coordinates":{"lat":"6.7666667","long":"80.2833333"}},{"country":"lk","city":"Akuranaoratiyawa","coordinates":{"lat":"7.6333333","long":"80.0166667"}},{"country":"lk","city":"Akuranayagama","coordinates":{"lat":"8.1666667","long":"80.3333333"}},{"country":"lk","city":"Akuranmulla","coordinates":{"lat":"7.5","long":"80.2"}},{"country":"lk","city":"Akuranooratiyawa","coordinates":{"lat":"7.6333333","long":"80.0166667"}},{"country":"lk","city":"Akuratiya","coordinates":{"lat":"6.2","long":"80.1833333"}},{"country":"lk","city":"Akurawa","coordinates":{"lat":"7.55","long":"80.2"}},{"country":"lk","city":"Akureliya","coordinates":{"lat":"7.1","long":"80.05"}},{"country":"lk","city":"Akuressa","coordinates":{"lat":"6.0963889","long":"80.4808333"}},{"country":"lk","city":"Akurugegangoda","coordinates":{"lat":"6.5666667","long":"80.7"}},{"country":"lk","city":"Akurugoda","coordinates":{"lat":"6.05","long":"80.55"}},{"country":"lk","city":"Akurukaduwa","coordinates":{"lat":"7.1333333","long":"81.05"}},{"country":"lk","city":"Akurukalawita","coordinates":{"lat":"6.6666667","long":"80.0666667"}},{"country":"lk","city":"Akurumulla","coordinates":{"lat":"6.9833333","long":"80.0166667"}},{"country":"lk","city":"Akurumullegedara","coordinates":{"lat":"7.4666667","long":"80.3166667"}},{"country":"lk","city":"Akwatta","coordinates":{"lat":"7.25","long":"80.25"}},{"country":"lk","city":"Aladeniya","coordinates":{"lat":"7.3333333","long":"80.5666667"}},{"country":"lk","city":"Aladikaddaikadu","coordinates":{"lat":"8.8833333","long":"79.9833333"}},{"country":"lk","city":"Aladikattaikatu","coordinates":{"lat":"8.8833333","long":"79.9833333"}},{"country":"lk","city":"Aladikulam","coordinates":{"lat":"8.7833333","long":"80.0333333"}},{"country":"lk","city":"Aladiwembu","coordinates":{"lat":"7.2166667","long":"81.85"}},{"country":"lk","city":"Alagalkanda","coordinates":{"lat":"6.3666667","long":"80.6833333"}},{"country":"lk","city":"Alagalla","coordinates":{"lat":"8.6666667","long":"80.5"}},{"country":"lk","city":"Alagalla","coordinates":{"lat":"7.15","long":"80.4833333"}},{"country":"lk","city":"Alagalla Kondagama","coordinates":{"lat":"7.3","long":"80.4666667"}},{"country":"lk","city":"Alagalla Pahalagama","coordinates":{"lat":"7.3166667","long":"80.4666667"}},{"country":"lk","city":"Alagoda","coordinates":{"lat":"7.3666667","long":"80.5833333"}},{"country":"lk","city":"Alagollewa","coordinates":{"lat":"8.15","long":"80.6333333"}},{"country":"lk","city":"Alahapperumagama","coordinates":{"lat":"8.0333333","long":"80.5"}},{"country":"lk","city":"Alahena","coordinates":{"lat":"7.2","long":"81.65"}},{"country":"lk","city":"Alahenegama","coordinates":{"lat":"7.6666667","long":"80.0833333"}},{"country":"lk","city":"Alahenpita","coordinates":{"lat":"5.95","long":"80.5833333"}},{"country":"lk","city":"Alahitiyawa","coordinates":{"lat":"7.4833333","long":"80.1666667"}},{"country":"lk","city":"Alaikallupodda Alankulam","coordinates":{"lat":"8.75","long":"80.1833333"}},{"country":"lk","city":"Alaikallupoddakulam","coordinates":{"lat":"8.8666667","long":"80.55"}},{"country":"lk","city":"Alaikkalluppoddakulam","coordinates":{"lat":"8.8666667","long":"80.55"}},{"country":"lk","city":"Alakagama","coordinates":{"lat":"7.55","long":"80.5833333"}},{"country":"lk","city":"Alakandupitiya","coordinates":{"lat":"6.45","long":"80.0"}},{"country":"lk","city":"Alakkangama","coordinates":{"lat":"6.9666667","long":"80.9833333"}},{"country":"lk","city":"Alakola-anga","coordinates":{"lat":"7.5166667","long":"80.6"}},{"country":"lk","city":"Alakoladeniya","coordinates":{"lat":"7.3333333","long":"80.6666667"}},{"country":"lk","city":"Alakoladeniya","coordinates":{"lat":"7.4833333","long":"80.3333333"}},{"country":"lk","city":"Alakola-ela","coordinates":{"lat":"7.65","long":"80.6166667"}},{"country":"lk","city":"Alakolaella","coordinates":{"lat":"6.7166667","long":"80.7"}},{"country":"lk","city":"Alakolagalagama","coordinates":{"lat":"7.0666667","long":"81.2166667"}},{"country":"lk","city":"Alakolamada","coordinates":{"lat":"7.4833333","long":"80.6833333"}},{"country":"lk","city":"Alakolamada","coordinates":{"lat":"7.5666667","long":"80.55"}},{"country":"lk","city":"Alakolamade","coordinates":{"lat":"7.5666667","long":"80.55"}},{"country":"lk","city":"Alakolamaditta","coordinates":{"lat":"7.3","long":"80.7"}},{"country":"lk","city":"Alakolawatta","coordinates":{"lat":"7.1166667","long":"81.0166667"}},{"country":"lk","city":"Alakolawewa","coordinates":{"lat":"7.0666667","long":"80.8166667"}},{"country":"lk","city":"Alakolawewa","coordinates":{"lat":"7.9","long":"80.7833333"}},{"country":"lk","city":"Alaluwa","coordinates":{"lat":"7.4458333","long":"80.0094444"}},{"country":"lk","city":"Alampil","coordinates":{"lat":"9.15","long":"80.85"}},{"country":"lk","city":"Alanduwaka","coordinates":{"lat":"7.25","long":"80.5333333"}},{"country":"lk","city":"Alankarapanguwa","coordinates":{"lat":"6.7","long":"80.6333333"}},{"country":"lk","city":"Alankarayagama","coordinates":{"lat":"7.6","long":"80.1833333"}},{"country":"lk","city":"Alankare","coordinates":{"lat":"7.55","long":"80.15"}},{"country":"lk","city":"Alanken","coordinates":{"lat":"9.4666667","long":"80.2333333"}},{"country":"lk","city":"Alankeni","coordinates":{"lat":"8.4833333","long":"81.1833333"}},{"country":"lk","city":"Alankerney","coordinates":{"lat":"8.4833333","long":"81.1833333"}},{"country":"lk","city":"Alankerny","coordinates":{"lat":"8.4833333","long":"81.1833333"}},{"country":"lk","city":"Alankuda","coordinates":{"lat":"8.05","long":"79.7166667"}},{"country":"lk","city":"Alankulama","coordinates":{"lat":"8.3166667","long":"80.3833333"}},{"country":"lk","city":"Alankulama","coordinates":{"lat":"7.7166667","long":"79.9666667"}},{"country":"lk","city":"Alankulam","coordinates":{"lat":"8.3166667","long":"80.3833333"}},{"country":"lk","city":"Alankulam","coordinates":{"lat":"8.9","long":"80.0333333"}},{"country":"lk","city":"Alanmulla","coordinates":{"lat":"7.0166667","long":"81.2666667"}},{"country":"lk","city":"Alapaladeniya","coordinates":{"lat":"7.2833333","long":"80.3"}},{"country":"lk","city":"Alapaladeniya","coordinates":{"lat":"6.2833333","long":"80.45"}},{"country":"lk","city":"Alapalava","coordinates":{"lat":"7.3166667","long":"80.1833333"}},{"country":"lk","city":"Alapalawa","coordinates":{"lat":"7.3166667","long":"80.1833333"}},{"country":"lk","city":"Alapalawala","coordinates":{"lat":"7.2333333","long":"80.5833333"}},{"country":"lk","city":"Alapalawala","coordinates":{"lat":"7.1833333","long":"80.3833333"}},{"country":"lk","city":"Alapalawela","coordinates":{"lat":"7.2333333","long":"80.5833333"}},{"country":"lk","city":"Alapalawela","coordinates":{"lat":"7.1833333","long":"80.3833333"}},{"country":"lk","city":"Alauwegama","coordinates":{"lat":"7.7","long":"80.1166667"}},{"country":"lk","city":"Alavakkaisirukkulam","coordinates":{"lat":"8.7833333","long":"79.95"}},{"country":"lk","city":"Alaveddi","coordinates":{"lat":"9.7666667","long":"80.0"}},{"country":"lk","city":"Alavedduvan","coordinates":{"lat":"9.2166667","long":"80.4833333"}},{"country":"lk","city":"Alavi","coordinates":{"lat":"6.6166667","long":"80.2333333"}},{"country":"lk","city":"Alawala","coordinates":{"lat":"7.4666667","long":"80.45"}},{"country":"lk","city":"Alawala","coordinates":{"lat":"7.2","long":"80.3"}},{"country":"lk","city":"Alawala","coordinates":{"lat":"7.1166667","long":"80.1833333"}},{"country":"lk","city":"Alawattegama","coordinates":{"lat":"7.1333333","long":"80.7833333"}},{"country":"lk","city":"Alawatugama","coordinates":{"lat":"7.1666667","long":"80.7666667"}},{"country":"lk","city":"Alawatugoda","coordinates":{"lat":"7.4147222","long":"80.6038889"}},{"country":"lk","city":"Alawatugoda","coordinates":{"lat":"6.4166667","long":"80.0"}},{"country":"lk","city":"Alawatugoda","coordinates":{"lat":"6.85","long":"80.8666667"}},{"country":"lk","city":"Alawatupitiya","coordinates":{"lat":"7.1166667","long":"79.8833333"}},{"country":"lk","city":"Alawatura","coordinates":{"lat":"7.1333333","long":"80.3333333"}},{"country":"lk","city":"Alawgedara","coordinates":{"lat":"7.4166667","long":"80.05"}},{"country":"lk","city":"Alawwa","coordinates":{"lat":"7.2875","long":"80.2536111"}},{"country":"lk","city":"Alawwegama","coordinates":{"lat":"7.7","long":"80.1166667"}},{"country":"lk","city":"Alayadimaduchchenai","coordinates":{"lat":"7.7","long":"81.5666667"}},{"country":"lk","city":"Alayadi Vempu","coordinates":{"lat":"7.2166667","long":"81.85"}},{"country":"lk","city":"Alayaya","coordinates":{"lat":"7.45","long":"80.6333333"}},{"country":"lk","city":"Aldora","coordinates":{"lat":"6.6166667","long":"80.75"}},{"country":"lk","city":"Algama","coordinates":{"lat":"7.4333333","long":"80.2833333"}},{"country":"lk","city":"Algama","coordinates":{"lat":"7.1533333","long":"80.165"}},{"country":"lk","city":"Algama Egodagama","coordinates":{"lat":"7.15","long":"80.1666667"}},{"country":"lk","city":"Algama Ihalagama","coordinates":{"lat":"7.1666667","long":"80.1666667"}},{"country":"lk","city":"Algama Medagama","coordinates":{"lat":"7.1533333","long":"80.165"}},{"country":"lk","city":"Algoda","coordinates":{"lat":"6.95","long":"80.2666667"}},{"country":"lk","city":"Alhentennawatta","coordinates":{"lat":"7.5666667","long":"80.65"}},{"country":"lk","city":"Aliavalai","coordinates":{"lat":"9.5833333","long":"80.4166667"}},{"country":"lk","city":"Alinchipotana","coordinates":{"lat":"7.95","long":"81.1333333"}},{"country":"lk","city":"Alipalai","coordinates":{"lat":"9.5833333","long":"80.3"}},{"country":"lk","city":"Alittana","coordinates":{"lat":"8.2","long":"80.5166667"}},{"country":"lk","city":"Alivavalai","coordinates":{"lat":"9.5833333","long":"80.4166667"}},{"country":"lk","city":"Aliyakada","coordinates":{"lat":"8.7","long":"80.8833333"}},{"country":"lk","city":"Aliyamalagala","coordinates":{"lat":"7.95","long":"80.5166667"}},{"country":"lk","city":"Aliyansaintakulam","coordinates":{"lat":"8.7833333","long":"80.4"}},{"country":"lk","city":"Aliyarvaddai","coordinates":{"lat":"7.4666667","long":"81.6666667"}},{"country":"lk","city":"Aliyavalai","coordinates":{"lat":"9.5833333","long":"80.4166667"}},{"country":"lk","city":"Aliyawetunawewa","coordinates":{"lat":"8.0333333","long":"80.6333333"}},{"country":"lk","city":"Aliyawetunawewa","coordinates":{"lat":"8.0666667","long":"80.2166667"}},{"country":"lk","city":"Aliyawetunuwewa","coordinates":{"lat":"8.0333333","long":"80.6333333"}},{"country":"lk","city":"Alkaddiveli","coordinates":{"lat":"8.9333333","long":"80.0333333"}},{"country":"lk","city":"Alkegama","coordinates":{"lat":"7.2833333","long":"80.4666667"}},{"country":"lk","city":"Alkemada","coordinates":{"lat":"7.2166667","long":"80.5833333"}},{"country":"lk","city":"Allagalla","coordinates":{"lat":"7.2841667","long":"80.4772222"}},{"country":"lk","city":"Allaikallupoddukulam","coordinates":{"lat":"9.0833333","long":"80.65"}},{"country":"lk","city":"Allaipiddy","coordinates":{"lat":"9.6166667","long":"79.9666667"}},{"country":"lk","city":"Allaippiddi","coordinates":{"lat":"9.6166667","long":"79.9666667"}},{"country":"lk","city":"Allamvillu","coordinates":{"lat":"8.2","long":"79.8333333"}},{"country":"lk","city":"Allaperumandaluwa","coordinates":{"lat":"7.7333333","long":"79.95"}},{"country":"lk","city":"Allarai","coordinates":{"lat":"9.65","long":"80.1833333"}},{"country":"lk","city":"Alleputti","coordinates":{"lat":"9.6166667","long":"79.9666667"}},{"country":"lk","city":"Alokkangama","coordinates":{"lat":"6.9666667","long":"80.9833333"}},{"country":"lk","city":"Alpitiya","coordinates":{"lat":"6.5166667","long":"80.6166667"}},{"country":"lk","city":"Alpitiya","coordinates":{"lat":"6.9833333","long":"81.3833333"}},{"country":"lk","city":"Alubendiyaya","coordinates":{"lat":"7.7666667","long":"80.6666667"}},{"country":"lk","city":"Alubogolla","coordinates":{"lat":"6.95","long":"81.05"}},{"country":"lk","city":"Alubomulla","coordinates":{"lat":"6.7102778","long":"79.9341667"}},{"country":"lk","city":"Alubowila","coordinates":{"lat":"6.9833333","long":"80.0166667"}},{"country":"lk","city":"Aludeniya","coordinates":{"lat":"7.3666667","long":"80.4666667"}},{"country":"lk","city":"Aludeniya","coordinates":{"lat":"7.5166667","long":"80.2333333"}},{"country":"lk","city":"Aludeniya","coordinates":{"lat":"7.1833333","long":"80.5"}},{"country":"lk","city":"Alugalge","coordinates":{"lat":"6.95","long":"81.5"}},{"country":"lk","city":"Alugolla","coordinates":{"lat":"7.15","long":"80.5333333"}},{"country":"lk","city":"Alugolla","coordinates":{"lat":"6.85","long":"80.8833333"}},{"country":"lk","city":"Alugolla","coordinates":{"lat":"7.3166667","long":"80.0166667"}},{"country":"lk","city":"Alukalawita","coordinates":{"lat":"6.7333333","long":"81.25"}},{"country":"lk","city":"Aluketiya","coordinates":{"lat":"6.65","long":"80.3833333"}},{"country":"lk","city":"Aluketiyawa","coordinates":{"lat":"7.3","long":"81.1166667"}},{"country":"lk","city":"Alulwela","coordinates":{"lat":"6.7333333","long":"81.2333333"}},{"country":"lk","city":"Alupatgala","coordinates":{"lat":"6.6666667","long":"80.3166667"}},{"country":"lk","city":"Alupola","coordinates":{"lat":"6.7166667","long":"80.5666667"}},{"country":"lk","city":"Alupota","coordinates":{"lat":"6.6166667","long":"80.4166667"}},{"country":"lk","city":"Alupota","coordinates":{"lat":"6.9","long":"81.2166667"}},{"country":"lk","city":"Alupotagama","coordinates":{"lat":"7.6333333","long":"80.3"}},{"country":"lk","city":"Alupota Town","coordinates":{"lat":"6.9","long":"81.2166667"}},{"country":"lk","city":"Alupotawa","coordinates":{"lat":"7.55","long":"80.05"}},{"country":"lk","city":"Alupotawela","coordinates":{"lat":"7.4","long":"80.6666667"}},{"country":"lk","city":"Alupotdeniya","coordinates":{"lat":"6.3","long":"80.7"}},{"country":"lk","city":"Alut Diwulwewa","coordinates":{"lat":"8.2833333","long":"80.7666667"}},{"country":"lk","city":"Alutepola","coordinates":{"lat":"7.2","long":"79.9666667"}},{"country":"lk","city":"Alutgama","coordinates":{"lat":"7.3166667","long":"80.5333333"}},{"country":"lk","city":"Alutgama","coordinates":{"lat":"7.95","long":"81.0833333"}},{"country":"lk","city":"Alutgama","coordinates":{"lat":"7.5166667","long":"80.2"}},{"country":"lk","city":"Alutgama","coordinates":{"lat":"6.1166667","long":"80.9666667"}},{"country":"lk","city":"Alutgama","coordinates":{"lat":"6.4333333","long":"79.9997222"}},{"country":"lk","city":"Alutgama Bogamuwa","coordinates":{"lat":"7.1166667","long":"80.05"}},{"country":"lk","city":"Alutgama Bogomuwa","coordinates":{"lat":"7.1166667","long":"80.05"}},{"country":"lk","city":"Alutgama East","coordinates":{"lat":"6.4333333","long":"80.0"}},{"country":"lk","city":"Alutgama Mahakumburegammedda","coordinates":{"lat":"7.3666667","long":"80.65"}},{"country":"lk","city":"Alutgama West","coordinates":{"lat":"6.4333333","long":"79.9833333"}},{"country":"lk","city":"Alutgamwidiya","coordinates":{"lat":"6.45","long":"80.0"}},{"country":"lk","city":"Alutgangoda","coordinates":{"lat":"7.1","long":"80.0166667"}},{"country":"lk","city":"Alutganthiriyagama","coordinates":{"lat":"8.0666667","long":"80.4833333"}},{"country":"lk","city":"Alut Gantiriyagama","coordinates":{"lat":"8.0666667","long":"80.4833333"}},{"country":"lk","city":"Alutgoda","coordinates":{"lat":"6.2666667","long":"81.2833333"}},{"country":"lk","city":"Alut Hammillewa","coordinates":{"lat":"8.65","long":"80.5333333"}},{"country":"lk","city":"Aluthgama","coordinates":{"lat":"7.5666667","long":"79.9"}},{"country":"lk","city":"Aluthgama","coordinates":{"lat":"6.4333333","long":"79.9997222"}},{"country":"lk","city":"Aluthgamwidiya","coordinates":{"lat":"6.45","long":"80.0"}},{"country":"lk","city":"Aluthkade","coordinates":{"lat":"6.4666667","long":"79.9666667"}},{"country":"lk","city":"Aluthkurumulla","coordinates":{"lat":"7.6","long":"79.8833333"}},{"country":"lk","city":"Aluthwegedera","coordinates":{"lat":"7.7833333","long":"80.3833333"}},{"country":"lk","city":"Aluthwewa","coordinates":{"lat":"8.1166667","long":"81.0833333"}},{"country":"lk","city":"Aluthwewa","coordinates":{"lat":"7.45","long":"80.15"}},{"country":"lk","city":"Aluth Wewa","coordinates":{"lat":"7.85","long":"80.0"}},{"country":"lk","city":"Alutkadetenmanhandiya","coordinates":{"lat":"6.4666667","long":"79.9666667"}},{"country":"lk","city":"Alutkade Tunmanhandiya","coordinates":{"lat":"6.4666667","long":"79.9666667"}},{"country":"lk","city":"Alutkotelinda","coordinates":{"lat":"7.3833333","long":"81.6"}},{"country":"lk","city":"Alutnuwara","coordinates":{"lat":"7.3166667","long":"80.9827778"}},{"country":"lk","city":"Alutnuwara","coordinates":{"lat":"6.6916667","long":"80.7402778"}},{"country":"lk","city":"Alutnuwara Town","coordinates":{"lat":"7.3166667","long":"80.9827778"}},{"country":"lk","city":"Alutoya","coordinates":{"lat":"8.2166667","long":"80.8833333"}},{"country":"lk","city":"Alutpotagama","coordinates":{"lat":"7.6333333","long":"80.3"}},{"country":"lk","city":"Alutsalmulla","coordinates":{"lat":"6.0","long":"80.5666667"}},{"country":"lk","city":"Aluttanayangoda Ihala","coordinates":{"lat":"6.2333333","long":"80.3"}},{"country":"lk","city":"Aluttanayangoda Pahala","coordinates":{"lat":"6.2333333","long":"80.2833333"}},{"country":"lk","city":"Aluttarama","coordinates":{"lat":"7.4","long":"81.0"}},{"country":"lk","city":"Aluttewa","coordinates":{"lat":"7.9333333","long":"80.2833333"}},{"country":"lk","city":"Aluttota","coordinates":{"lat":"7.2833333","long":"79.85"}},{"country":"lk","city":"Alutwala","coordinates":{"lat":"6.1833333","long":"80.1333333"}},{"country":"lk","city":"Alutwatta","coordinates":{"lat":"7.5","long":"80.1666667"}},{"country":"lk","city":"Alutwegedara","coordinates":{"lat":"7.7833333","long":"80.3833333"}},{"country":"lk","city":"Alutwela","coordinates":{"lat":"6.6333333","long":"81.05"}},{"country":"lk","city":"Alutwelagama","coordinates":{"lat":"7.0","long":"81.05"}},{"country":"lk","city":"Alutwewa","coordinates":{"lat":"7.7833333","long":"80.5166667"}},{"country":"lk","city":"Alutwewa","coordinates":{"lat":"7.95","long":"80.55"}},{"country":"lk","city":"Alutwewa","coordinates":{"lat":"7.45","long":"80.15"}},{"country":"lk","city":"Alutwewa","coordinates":{"lat":"6.1833333","long":"80.9"}},{"country":"lk","city":"Alutwewa","coordinates":{"lat":"6.5925","long":"80.9258333"}},{"country":"lk","city":"Aluvihare","coordinates":{"lat":"7.5138889","long":"80.6213889"}},{"country":"lk","city":"Aluvihare Colony","coordinates":{"lat":"7.5","long":"80.6"}},{"country":"lk","city":"Aluwaketuwala","coordinates":{"lat":"8.4666667","long":"80.6333333"}},{"country":"lk","city":"Aluwihare","coordinates":{"lat":"7.5138889","long":"80.6213889"}},{"country":"lk","city":"Alvai","coordinates":{"lat":"9.8166667","long":"80.2166667"}},{"country":"lk","city":"Alvai North","coordinates":{"lat":"9.8166667","long":"80.2166667"}},{"country":"lk","city":"Alvai South","coordinates":{"lat":"9.8","long":"80.2"}},{"country":"lk","city":"Alvai West","coordinates":{"lat":"9.8166667","long":"80.2"}},{"country":"lk","city":"Alvay","coordinates":{"lat":"9.8166667","long":"80.2166667"}},{"country":"lk","city":"Alwatta","coordinates":{"lat":"7.45","long":"80.6666667"}},{"country":"lk","city":"Alwis Town","coordinates":{"lat":"6.9833333","long":"79.8833333"}},{"country":"lk","city":"Amadarapitiya","coordinates":{"lat":"7.7666667","long":"80.1333333"}},{"country":"lk","city":"Amaikuli","coordinates":{"lat":"7.9422222","long":"79.8319444"}},{"country":"lk","city":"Amakuliya","coordinates":{"lat":"7.6166667","long":"79.8166667"}},{"country":"lk","city":"Amanamulla","coordinates":{"lat":"7.45","long":"79.9666667"}},{"country":"lk","city":"Amanawala","coordinates":{"lat":"7.0666667","long":"80.3833333"}},{"country":"lk","city":"Amandoluwa","coordinates":{"lat":"7.15","long":"79.8833333"}},{"country":"lk","city":"Amane","coordinates":{"lat":"8.15","long":"80.5"}},{"country":"lk","city":"Amarakonegama","coordinates":{"lat":"6.8666667","long":"80.8833333"}},{"country":"lk","city":"Amarakongama","coordinates":{"lat":"6.8666667","long":"80.8833333"}},{"country":"lk","city":"Amarakonmulla","coordinates":{"lat":"7.2666667","long":"80.2166667"}},{"country":"lk","city":"Amarakoonmulla","coordinates":{"lat":"7.2666667","long":"80.2166667"}},{"country":"lk","city":"Amaratungama","coordinates":{"lat":"6.2333333","long":"80.8833333"}},{"country":"lk","city":"Amarivayal","coordinates":{"lat":"8.9166667","long":"80.9166667"}},{"country":"lk","city":"Ambadandegama","coordinates":{"lat":"6.8166667","long":"81.05"}},{"country":"lk","city":"Ambadeniya","coordinates":{"lat":"7.1833333","long":"80.4666667"}},{"country":"lk","city":"Ambagahagama","coordinates":{"lat":"8.1833333","long":"80.25"}},{"country":"lk","city":"Ambagahagama","coordinates":{"lat":"8.0166667","long":"80.2166667"}},{"country":"lk","city":"Ambagahagedara","coordinates":{"lat":"7.4166667","long":"80.2166667"}},{"country":"lk","city":"Ambagahahena","coordinates":{"lat":"7.3833333","long":"80.5"}},{"country":"lk","city":"Ambagahahena","coordinates":{"lat":"6.2333333","long":"80.65"}},{"country":"lk","city":"Ambagahakanda","coordinates":{"lat":"6.8833333","long":"80.4166667"}},{"country":"lk","city":"Ambagahakandura","coordinates":{"lat":"7.15","long":"80.9833333"}},{"country":"lk","city":"Ambagahakotuwa","coordinates":{"lat":"7.9","long":"80.4166667"}},{"country":"lk","city":"Ambagahalanda","coordinates":{"lat":"7.65","long":"80.4833333"}},{"country":"lk","city":"Ambagahawadiya","coordinates":{"lat":"7.4","long":"79.8666667"}},{"country":"lk","city":"Ambagahawala","coordinates":{"lat":"8.4","long":"80.5833333"}},{"country":"lk","city":"Ambagahawatta","coordinates":{"lat":"7.4","long":"81.3"}},{"country":"lk","city":"Ambagahawatta","coordinates":{"lat":"7.1666667","long":"79.95"}},{"country":"lk","city":"Ambagahawela","coordinates":{"lat":"7.2666667","long":"81.5666667"}},{"country":"lk","city":"Ambagahawella","coordinates":{"lat":"7.2666667","long":"81.5666667"}},{"country":"lk","city":"Ambagahawewa","coordinates":{"lat":"8.1833333","long":"80.45"}},{"country":"lk","city":"Ambagahawewa","coordinates":{"lat":"7.6","long":"80.1"}},{"country":"lk","city":"Ambagala","coordinates":{"lat":"7.2166667","long":"80.2"}},{"country":"lk","city":"Ambagammana","coordinates":{"lat":"7.4333333","long":"80.25"}},{"country":"lk","city":"Ambagamuwa","coordinates":{"lat":"7.0166667","long":"80.4833333"}},{"country":"lk","city":"Ambagasara","coordinates":{"lat":"6.2833333","long":"80.7333333"}},{"country":"lk","city":"Ambagasdowa","coordinates":{"lat":"6.9238889","long":"80.8941667"}},{"country":"lk","city":"Ambagasduwa","coordinates":{"lat":"6.9238889","long":"80.8941667"}},{"country":"lk","city":"Ambagasmulla","coordinates":{"lat":"6.3","long":"80.7166667"}},{"country":"lk","city":"Ambagaspitiya","coordinates":{"lat":"7.1","long":"80.8166667"}},{"country":"lk","city":"Ambagaspitiya","coordinates":{"lat":"7.0833333","long":"80.0666667"}},{"country":"lk","city":"Ambagassewa","coordinates":{"lat":"7.7166667","long":"80.3333333"}},{"country":"lk","city":"Ambagastenna","coordinates":{"lat":"7.2166667","long":"80.55"}},{"country":"lk","city":"Ambagaswewa","coordinates":{"lat":"7.9333333","long":"80.4833333"}},{"country":"lk","city":"Ambagaswewa","coordinates":{"lat":"7.7166667","long":"80.3333333"}},{"country":"lk","city":"Ambagehewa","coordinates":{"lat":"8.4833333","long":"80.45"}},{"country":"lk","city":"Ambagoda","coordinates":{"lat":"7.5333333","long":"80.5"}},{"country":"lk","city":"Ambagolla","coordinates":{"lat":"7.3666667","long":"80.2833333"}},{"country":"lk","city":"Ambagolla","coordinates":{"lat":"6.7666667","long":"81.3833333"}},{"country":"lk","city":"Ambagolle","coordinates":{"lat":"6.7666667","long":"81.3833333"}},{"country":"lk","city":"Ambahenwewa","coordinates":{"lat":"7.5","long":"80.2"}},{"country":"lk","city":"Ambahera","coordinates":{"lat":"7.45","long":"80.3"}},{"country":"lk","city":"Ambakadawara","coordinates":{"lat":"7.6333333","long":"80.2"}},{"country":"lk","city":"Ambakandawila","coordinates":{"lat":"7.5333333","long":"79.8"}},{"country":"lk","city":"Ambakele North","coordinates":{"lat":"7.7166667","long":"79.9"}},{"country":"lk","city":"Ambakolawewa Colony","coordinates":{"lat":"7.9","long":"80.2666667"}},{"country":"lk","city":"Ambakote","coordinates":{"lat":"7.4833333","long":"80.4666667"}},{"country":"lk","city":"Ambakumbura","coordinates":{"lat":"7.1833333","long":"80.4666667"}},{"country":"lk","city":"Ambakumbura","coordinates":{"lat":"7.1833333","long":"80.6"}},{"country":"lk","city":"Ambala","coordinates":{"lat":"6.0166667","long":"80.7"}},{"country":"lk","city":"Ambalakanda","coordinates":{"lat":"7.1333333","long":"80.45"}},{"country":"lk","city":"Ambalama","coordinates":{"lat":"7.4166667","long":"81.7833333"}},{"country":"lk","city":"Ambalam","coordinates":{"lat":"7.3166667","long":"81.85"}},{"country":"lk","city":"Ambalam","coordinates":{"lat":"8.1166667","long":"79.85"}},{"country":"lk","city":"Ambalammulla","coordinates":{"lat":"7.1166667","long":"79.8833333"}},{"country":"lk","city":"Ambalamoya","coordinates":{"lat":"7.1333333","long":"81.7166667"}},{"country":"lk","city":"Ambalamulla","coordinates":{"lat":"6.0666667","long":"80.6666667"}},{"country":"lk","city":"Ambalam Vattakandal","coordinates":{"lat":"8.1","long":"79.85"}},{"country":"lk","city":"Ambalanda","coordinates":{"lat":"6.9166667","long":"81.4"}},{"country":"lk","city":"Ambalande","coordinates":{"lat":"6.9166667","long":"81.4"}},{"country":"lk","city":"Ambalanduwa","coordinates":{"lat":"6.7333333","long":"79.9166667"}},{"country":"lk","city":"Ambalangoda","coordinates":{"lat":"6.225","long":"80.0566667"}},{"country":"lk","city":"Ambalangoda","coordinates":{"lat":"6.7833333","long":"79.9666667"}},{"country":"lk","city":"Ambalangoddi","coordinates":{"lat":"6.225","long":"80.0566667"}},{"country":"lk","city":"Ambalanmulla","coordinates":{"lat":"7.1166667","long":"79.8833333"}},{"country":"lk","city":"Ambalanpitiya","coordinates":{"lat":"7.6166667","long":"79.9833333"}},{"country":"lk","city":"Ambalanpitiya","coordinates":{"lat":"6.8666667","long":"80.3"}},{"country":"lk","city":"Ambalantota","coordinates":{"lat":"6.1166667","long":"81.0166667"}},{"country":"lk","city":"Ambalanyaya","coordinates":{"lat":"6.7166667","long":"80.5166667"}},{"country":"lk","city":"Ambalapitiya","coordinates":{"lat":"7.1166667","long":"80.5166667"}},{"country":"lk","city":"Ambalaveli","coordinates":{"lat":"7.8833333","long":"79.8333333"}},{"country":"lk","city":"Ambalayaya","coordinates":{"lat":"7.2666667","long":"79.9333333"}},{"country":"lk","city":"Ambale","coordinates":{"lat":"7.2666667","long":"80.8166667"}},{"country":"lk","city":"Ambale","coordinates":{"lat":"7.8","long":"80.0666667"}},{"country":"lk","city":"Ambalewewa","coordinates":{"lat":"7.85","long":"80.25"}},{"country":"lk","city":"Ambaliyadda","coordinates":{"lat":"7.0166667","long":"80.9"}},{"country":"lk","city":"Ambamalla","coordinates":{"lat":"7.0666667","long":"80.3166667"}},{"country":"lk","city":"Ambamulla","coordinates":{"lat":"6.8166667","long":"81.5166667"}},{"country":"lk","city":"Ambana","coordinates":{"lat":"6.2333333","long":"80.2166667"}},{"country":"lk","city":"Ambana","coordinates":{"lat":"7.2333333","long":"80.1"}},{"country":"lk","city":"Ambane","coordinates":{"lat":"7.65","long":"80.6833333"}},{"country":"lk","city":"Ambanella","coordinates":{"lat":"7.0666667","long":"80.9"}},{"country":"lk","city":"Ambanpitiya","coordinates":{"lat":"7.2333333","long":"80.3333333"}},{"country":"lk","city":"Ambanpola","coordinates":{"lat":"7.55","long":"80.5666667"}},{"country":"lk","city":"Ambanpola","coordinates":{"lat":"7.6166667","long":"80.4833333"}},{"country":"lk","city":"Ambanporuwa","coordinates":{"lat":"7.0833333","long":"81.25"}},{"country":"lk","city":"Ambanwala","coordinates":{"lat":"7.2166667","long":"80.5333333"}},{"country":"lk","city":"Ambanwela","coordinates":{"lat":"7.2166667","long":"80.5333333"}},{"country":"lk","city":"Ambanwita","coordinates":{"lat":"7.1","long":"79.9666667"}},{"country":"lk","city":"Ambaoruwa","coordinates":{"lat":"7.35","long":"80.4666667"}},{"country":"lk","city":"Ambatalawa","coordinates":{"lat":"6.9666667","long":"80.5"}},{"country":"lk","city":"Ambatale","coordinates":{"lat":"8.15","long":"80.6"}},{"country":"lk","city":"Ambatale","coordinates":{"lat":"6.9333333","long":"79.9333333"}},{"country":"lk","city":"Ambatenna","coordinates":{"lat":"7.3472222","long":"80.6191667"}},{"country":"lk","city":"Ambatenna","coordinates":{"lat":"7.45","long":"80.5333333"}},{"country":"lk","city":"Ambatenna","coordinates":{"lat":"7.3333333","long":"80.4166667"}},{"country":"lk","city":"Ambatenna","coordinates":{"lat":"7.1","long":"81.0333333"}},{"country":"lk","city":"Ambawa","coordinates":{"lat":"7.3166667","long":"80.45"}},{"country":"lk","city":"Ambawala","coordinates":{"lat":"7.45","long":"79.9333333"}},{"country":"lk","city":"Ambawala","coordinates":{"lat":"7.2","long":"80.3666667"}},{"country":"lk","city":"Ambawela","coordinates":{"lat":"6.8666667","long":"80.8166667"}},{"country":"lk","city":"Ambegoda","coordinates":{"lat":"6.55","long":"80.25"}},{"country":"lk","city":"Ambepitiya","coordinates":{"lat":"6.4675","long":"80.0005556"}},{"country":"lk","city":"Ambepussa","coordinates":{"lat":"7.25","long":"80.2"}},{"country":"lk","city":"Ambepussa","coordinates":{"lat":"7.25","long":"80.1666667"}},{"country":"lk","city":"Ambepussa Old","coordinates":{"lat":"7.25","long":"80.2"}},{"country":"lk","city":"Ambetenna","coordinates":{"lat":"7.0666667","long":"80.8"}},{"country":"lk","city":"Ambewela","coordinates":{"lat":"6.8666667","long":"80.8166667"}},{"country":"lk","city":"Ambogama","coordinates":{"lat":"7.8","long":"80.3166667"}},{"country":"lk","city":"Ambokka","coordinates":{"lat":"7.6333333","long":"80.5666667"}},{"country":"lk","city":"Ambokudena","coordinates":{"lat":"7.6333333","long":"80.6"}},{"country":"lk","city":"Ambokudeniya","coordinates":{"lat":"7.6333333","long":"80.6"}},{"country":"lk","city":"Ambulgama","coordinates":{"lat":"6.9030556","long":"80.0536111"}},{"country":"lk","city":"Ambulugala","coordinates":{"lat":"7.2333333","long":"80.4166667"}},{"country":"lk","city":"Ambuwakka","coordinates":{"lat":"7.1333333","long":"80.3166667"}},{"country":"lk","city":"Ambuwangala","coordinates":{"lat":"7.3166667","long":"80.3166667"}},{"country":"lk","city":"Aminichchiya","coordinates":{"lat":"8.1333333","long":"80.6166667"}},{"country":"lk","city":"Amirthakaly","coordinates":{"lat":"7.7333333","long":"81.7"}},{"country":"lk","city":"Amitirigala","coordinates":{"lat":"7.0305556","long":"80.1838889"}},{"country":"lk","city":"Ammanamulla","coordinates":{"lat":"7.45","long":"79.9666667"}},{"country":"lk","city":"Ammanthanaveli","coordinates":{"lat":"8.1833333","long":"81.4"}},{"country":"lk","city":"Ammatotam","coordinates":{"lat":"8.1666667","long":"79.7333333"}},{"country":"lk","city":"Ammivaittan","coordinates":{"lat":"8.85","long":"80.4166667"}},{"country":"lk","city":"Ammuduwa","coordinates":{"lat":"6.5333333","long":"80.6666667"}},{"country":"lk","city":"Ampagala","coordinates":{"lat":"7.0833333","long":"80.2833333"}},{"country":"lk","city":"Ampakamam","coordinates":{"lat":"9.2","long":"80.4833333"}},{"country":"lk","city":"Ampalavanapokkunai","coordinates":{"lat":"9.35","long":"80.7333333"}},{"country":"lk","city":"Ampalavanpokkanai","coordinates":{"lat":"9.35","long":"80.7333333"}},{"country":"lk","city":"Ampamam","coordinates":{"lat":"9.2","long":"80.4833333"}},{"country":"lk","city":"Ampana","coordinates":{"lat":"7.0333333","long":"80.4166667"}},{"country":"lk","city":"Ampanagala","coordinates":{"lat":"6.2191667","long":"80.5619444"}},{"country":"lk","city":"Ampan","coordinates":{"lat":"9.7166667","long":"80.2666667"}},{"country":"lk","city":"Ampangala","coordinates":{"lat":"6.2191667","long":"80.5619444"}},{"country":"lk","city":"Ampara","coordinates":{"lat":"7.2833333","long":"81.6666667"}},{"country":"lk","city":"Amparai","coordinates":{"lat":"7.2833333","long":"81.6666667"}},{"country":"lk","city":"Ampari","coordinates":{"lat":"7.2833333","long":"81.6666667"}},{"country":"lk","city":"Ampe","coordinates":{"lat":"7.1233333","long":"80.29"}},{"country":"lk","city":"Ampe","coordinates":{"lat":"6.3166667","long":"80.05"}},{"country":"lk","city":"Ampegama","coordinates":{"lat":"6.2","long":"80.15"}},{"country":"lk","city":"Ampe South","coordinates":{"lat":"7.1233333","long":"80.29"}},{"country":"lk","city":"Ampewela","coordinates":{"lat":"7.5833333","long":"80.4666667"}},{"country":"lk","city":"Ampilanturai","coordinates":{"lat":"7.5833333","long":"81.75"}},{"country":"lk","city":"Ampitigala","coordinates":{"lat":"6.65","long":"80.0666667"}},{"country":"lk","city":"Ampitigama","coordinates":{"lat":"7.8333333","long":"80.0"}},{"country":"lk","city":"Ampitigoda","coordinates":{"lat":"7.0666667","long":"80.8"}},{"country":"lk","city":"Ampitiya","coordinates":{"lat":"7.1","long":"80.5166667"}},{"country":"lk","city":"Ampitiya","coordinates":{"lat":"6.8666667","long":"81.4333333"}},{"country":"lk","city":"Ampitiya Pallegama","coordinates":{"lat":"7.2666667","long":"80.65"}},{"country":"lk","city":"Ampitiya Udagama","coordinates":{"lat":"7.2666667","long":"80.6666667"}},{"country":"lk","city":"Amugoda","coordinates":{"lat":"6.1166667","long":"80.2"}},{"country":"lk","city":"Amuhenkanda","coordinates":{"lat":"6.8333333","long":"80.2833333"}},{"country":"lk","city":"Amuna","coordinates":{"lat":"7.25","long":"80.9333333"}},{"country":"lk","city":"Amunakole","coordinates":{"lat":"7.6333333","long":"80.0666667"}},{"country":"lk","city":"Amunekandura","coordinates":{"lat":"6.95","long":"81.2833333"}},{"country":"lk","city":"Amunekumbura","coordinates":{"lat":"7.35","long":"80.3333333"}},{"country":"lk","city":"Amunewala","coordinates":{"lat":"7.6","long":"80.85"}},{"country":"lk","city":"Amunugama","coordinates":{"lat":"7.3166667","long":"80.6666667"}},{"country":"lk","city":"Amunugama","coordinates":{"lat":"7.9666667","long":"80.45"}},{"country":"lk","city":"Amunugama","coordinates":{"lat":"7.4333333","long":"80.3333333"}},{"country":"lk","city":"Amunugoda","coordinates":{"lat":"7.05","long":"79.9666667"}},{"country":"lk","city":"Amunukole","coordinates":{"lat":"8.15","long":"80.4333333"}},{"country":"lk","city":"Amunukole","coordinates":{"lat":"7.6333333","long":"80.0666667"}},{"country":"lk","city":"Amunukumbura","coordinates":{"lat":"7.05","long":"80.0833333"}},{"country":"lk","city":"Amunumulla","coordinates":{"lat":"7.1","long":"80.8666667"}},{"country":"lk","city":"Amunumulla","coordinates":{"lat":"6.7333333","long":"80.75"}},{"country":"lk","city":"Amunumulla","coordinates":{"lat":"6.8666667","long":"80.9166667"}},{"country":"lk","city":"Amunupitiya","coordinates":{"lat":"7.35","long":"80.7666667"}},{"country":"lk","city":"Amunupura","coordinates":{"lat":"7.15","long":"80.6"}},{"country":"lk","city":"Amunupure","coordinates":{"lat":"7.2666667","long":"80.5"}},{"country":"lk","city":"Amunutenna","coordinates":{"lat":"6.7166667","long":"80.5166667"}},{"country":"lk","city":"Amunuwela","coordinates":{"lat":"7.5","long":"79.9833333"}},{"country":"lk","city":"Amunuwetiya","coordinates":{"lat":"8.1333333","long":"80.4"}},{"country":"lk","city":"Amunuwewa","coordinates":{"lat":"7.9666667","long":"80.0166667"}},{"country":"lk","city":"Amunwetiya","coordinates":{"lat":"8.0166667","long":"80.45"}},{"country":"lk","city":"Amupitiya","coordinates":{"lat":"7.35","long":"80.7666667"}},{"country":"lk","city":"Amupitiya","coordinates":{"lat":"6.8833333","long":"80.2333333"}},{"country":"lk","city":"Amutagoda","coordinates":{"lat":"6.7333333","long":"80.3666667"}},{"country":"lk","city":"Amutankulam","coordinates":{"lat":"9.15","long":"80.7"}},{"country":"lk","city":"Amuwatta","coordinates":{"lat":"6.7","long":"80.7166667"}},{"country":"lk","city":"Amuwatugoda","coordinates":{"lat":"6.7","long":"80.7166667"}},{"country":"lk","city":"Anaicottai","coordinates":{"lat":"9.7","long":"79.9833333"}},{"country":"lk","city":"Anaikkoddai","coordinates":{"lat":"9.7","long":"79.9833333"}},{"country":"lk","city":"Anaikutti","coordinates":{"lat":"8.1","long":"79.8333333"}},{"country":"lk","city":"Anaipanthy","coordinates":{"lat":"9.6666667","long":"80.0166667"}},{"country":"lk","city":"Anaippapan","coordinates":{"lat":"8.5666667","long":"79.95"}},{"country":"lk","city":"Anaisuddapottanai","coordinates":{"lat":"7.8833333","long":"81.4666667"}},{"country":"lk","city":"Anaitivu","coordinates":{"lat":"8.2833333","long":"81.3833333"}},{"country":"lk","city":"Anaivilundawa","coordinates":{"lat":"7.7166667","long":"79.8166667"}},{"country":"lk","city":"Anaiviluntan","coordinates":{"lat":"8.5833333","long":"80.3166667"}},{"country":"lk","city":"Anaketawewa","coordinates":{"lat":"7.8833333","long":"80.5666667"}},{"country":"lk","city":"Analaitivu","coordinates":{"lat":"9.6666667","long":"79.7833333"}},{"country":"lk","city":"Analkaddimady","coordinates":{"lat":"8.7833333","long":"81.0833333"}},{"country":"lk","city":"Anamaduwa","coordinates":{"lat":"7.8775","long":"80.0144444"}},{"country":"lk","city":"Anantarpuliyankulam","coordinates":{"lat":"8.9666667","long":"80.6"}},{"country":"lk","city":"Ananthar Puliyankulam","coordinates":{"lat":"8.9666667","long":"80.6"}},{"country":"lk","city":"Anaolondewa","coordinates":{"lat":"8.4333333","long":"80.95"}},{"country":"lk","city":"Anattegoda","coordinates":{"lat":"6.2666667","long":"80.6666667"}},{"country":"lk","city":"Anaulundawa","coordinates":{"lat":"7.9833333","long":"81.0"}},{"country":"lk","city":"Anavilundawa","coordinates":{"lat":"7.9833333","long":"81.0"}},{"country":"lk","city":"Anawilundawa","coordinates":{"lat":"7.7166667","long":"79.8166667"}},{"country":"lk","city":"Andadola","coordinates":{"lat":"6.6166667","long":"80.6666667"}},{"country":"lk","city":"Andadola","coordinates":{"lat":"6.2666667","long":"80.05"}},{"country":"lk","city":"Andadolagama","coordinates":{"lat":"6.35","long":"80.45"}},{"country":"lk","city":"Andagahanatota","coordinates":{"lat":"6.2166667","long":"80.0833333"}},{"country":"lk","city":"Andagala","coordinates":{"lat":"7.3833333","long":"80.5"}},{"country":"lk","city":"Andahena","coordinates":{"lat":"7.7666667","long":"79.9666667"}},{"country":"lk","city":"Andalla","coordinates":{"lat":"6.2333333","long":"81.2166667"}},{"country":"lk","city":"Andalle","coordinates":{"lat":"6.2333333","long":"81.2166667"}},{"country":"lk","city":"Andalugoda","coordinates":{"lat":"6.25","long":"80.75"}},{"country":"lk","city":"Andalu Mahante","coordinates":{"lat":"6.0666667","long":"80.7"}},{"country":"lk","city":"Andaluwa","coordinates":{"lat":"6.2333333","long":"80.6"}},{"country":"lk","city":"Andampane","coordinates":{"lat":"7.7","long":"80.0"}},{"country":"lk","city":"Andampohuwa","coordinates":{"lat":"6.7833333","long":"81.25"}},{"country":"lk","city":"Andanankattuwa","coordinates":{"lat":"7.6833333","long":"79.8833333"}},{"country":"lk","city":"Andanankatuwa","coordinates":{"lat":"7.6833333","long":"79.8833333"}},{"country":"lk","city":"Andanawa","coordinates":{"lat":"7.1833333","long":"80.5"}},{"country":"lk","city":"Andankani","coordinates":{"lat":"8.0833333","long":"79.7166667"}},{"country":"lk","city":"Andankulam","coordinates":{"lat":"8.6","long":"81.1833333"}},{"country":"lk","city":"Andanpahura","coordinates":{"lat":"6.7833333","long":"81.25"}},{"country":"lk","city":"Andaoluwa","coordinates":{"lat":"7.3333333","long":"80.3833333"}},{"country":"lk","city":"Andapolakanda","coordinates":{"lat":"7.6166667","long":"80.5333333"}},{"country":"lk","city":"Andaradeniya","coordinates":{"lat":"6.35","long":"80.5833333"}},{"country":"lk","city":"Andaragasmulla","coordinates":{"lat":"8.05","long":"80.9"}},{"country":"lk","city":"Andaragasyaya","coordinates":{"lat":"6.2166667","long":"81.3166667"}},{"country":"lk","city":"Andaragollewa","coordinates":{"lat":"8.45","long":"80.6666667"}},{"country":"lk","city":"Andarapane","coordinates":{"lat":"7.35","long":"80.2333333"}},{"country":"lk","city":"Andarapona","coordinates":{"lat":"7.35","long":"80.2333333"}},{"country":"lk","city":"Andarawewa","coordinates":{"lat":"8.0166667","long":"80.6"}},{"country":"lk","city":"Andarawewa","coordinates":{"lat":"7.9377778","long":"80.0083333"}},{"country":"lk","city":"Andarewa","coordinates":{"lat":"8.0166667","long":"80.2833333"}},{"country":"lk","city":"Anda Ulpota","coordinates":{"lat":"7.2666667","long":"81.0666667"}},{"country":"lk","city":"Andaulpotagama","coordinates":{"lat":"7.2666667","long":"81.0666667"}},{"country":"lk","city":"Andawala","coordinates":{"lat":"7.1333333","long":"80.8333333"}},{"country":"lk","city":"Andawala","coordinates":{"lat":"6.4166667","long":"80.0333333"}},{"country":"lk","city":"Andawalagama","coordinates":{"lat":"6.9333333","long":"81.0333333"}},{"country":"lk","city":"Andawalayaya","coordinates":{"lat":"6.6666667","long":"81.1166667"}},{"country":"lk","city":"Andawela","coordinates":{"lat":"7.1166667","long":"80.8166667"}},{"country":"lk","city":"Andawela","coordinates":{"lat":"7.6166667","long":"80.6666667"}},{"country":"lk","city":"Andawelagama","coordinates":{"lat":"6.9333333","long":"81.0333333"}},{"country":"lk","city":"Andawelayaya","coordinates":{"lat":"6.6666667","long":"81.1166667"}},{"country":"lk","city":"Andeniya","coordinates":{"lat":"7.0","long":"81.0666667"}},{"country":"lk","city":"Anderapona","coordinates":{"lat":"7.35","long":"80.2333333"}},{"country":"lk","city":"Andiambalama","coordinates":{"lat":"7.1869444","long":"79.9"}},{"country":"lk","city":"Andiambalam Walpola","coordinates":{"lat":"7.1833333","long":"79.9166667"}},{"country":"lk","city":"Andiawela","coordinates":{"lat":"6.6833333","long":"81.5"}},{"country":"lk","city":"Andideniya","coordinates":{"lat":"7.35","long":"80.8833333"}},{"country":"lk","city":"Andigama","coordinates":{"lat":"7.7775","long":"79.9527778"}},{"country":"lk","city":"Andigedara","coordinates":{"lat":"7.5","long":"80.2166667"}},{"country":"lk","city":"Andigoda","coordinates":{"lat":"6.4666667","long":"79.9833333"}},{"country":"lk","city":"Andihindagolla","coordinates":{"lat":"7.4833333","long":"80.1833333"}},{"country":"lk","city":"Andimalla","coordinates":{"lat":"7.2666667","long":"79.9166667"}},{"country":"lk","city":"Andimulla","coordinates":{"lat":"7.2666667","long":"79.9166667"}},{"country":"lk","city":"Andimunai","coordinates":{"lat":"7.7666667","long":"79.7833333"}},{"country":"lk","city":"Andiramada","coordinates":{"lat":"7.3","long":"80.3833333"}},{"country":"lk","city":"Andivakadawala","coordinates":{"lat":"7.95","long":"80.15"}},{"country":"lk","city":"Andiyagala","coordinates":{"lat":"7.9","long":"80.5261111"}},{"country":"lk","city":"Andiyagala","coordinates":{"lat":"7.4666667","long":"80.1333333"}},{"country":"lk","city":"Andiyagoda","coordinates":{"lat":"6.3833333","long":"80.0333333"}},{"country":"lk","city":"Andiyakadawala","coordinates":{"lat":"7.95","long":"80.15"}},{"country":"lk","city":"Andiyakalla","coordinates":{"lat":"7.8333333","long":"80.0833333"}},{"country":"lk","city":"Andiyamalatenna","coordinates":{"lat":"6.8166667","long":"80.5"}},{"country":"lk","city":"Andiyankulama","coordinates":{"lat":"8.3833333","long":"80.4333333"}},{"country":"lk","city":"Andiyapuliyankulam","coordinates":{"lat":"8.7166667","long":"80.25"}},{"country":"lk","city":"Andoluwa","coordinates":{"lat":"6.4","long":"80.7666667"}},{"country":"lk","city":"Andottawa","coordinates":{"lat":"7.6166667","long":"80.1166667"}},{"country":"lk","city":"Anduaketiyawa","coordinates":{"lat":"8.4166667","long":"80.45"}},{"country":"lk","city":"Andugoda","coordinates":{"lat":"6.0166667","long":"80.3833333"}},{"country":"lk","city":"Andungama Palkumbura","coordinates":{"lat":"7.35","long":"80.55"}},{"country":"lk","city":"Andupe","coordinates":{"lat":"7.2666667","long":"80.15"}},{"country":"lk","city":"Andupelena","coordinates":{"lat":"6.1166667","long":"80.85"}},{"country":"lk","city":"Andurangoda","coordinates":{"lat":"6.2","long":"80.0666667"}},{"country":"lk","city":"Andurubebila","coordinates":{"lat":"7.2666667","long":"80.5666667"}},{"country":"lk","city":"Anduwaketiyawa","coordinates":{"lat":"8.4166667","long":"80.45"}},{"country":"lk","city":"Anduwawala","coordinates":{"lat":"7.25","long":"80.45"}},{"country":"lk","city":"Anekatti","coordinates":{"lat":"8.6333333","long":"80.45"}},{"country":"lk","city":"Anekattiya","coordinates":{"lat":"8.6333333","long":"80.45"}},{"country":"lk","city":"Aneuradhapura","coordinates":{"lat":"8.35","long":"80.3833333"}},{"country":"lk","city":"Angagoda","coordinates":{"lat":"6.4166667","long":"80.0"}},{"country":"lk","city":"Angakkadawala","coordinates":{"lat":"8.0333333","long":"80.35"}},{"country":"lk","city":"Angamedilla","coordinates":{"lat":"7.85","long":"80.9166667"}},{"country":"lk","city":"Angamedille","coordinates":{"lat":"7.85","long":"80.9166667"}},{"country":"lk","city":"Angammana","coordinates":{"lat":"7.15","long":"80.5833333"}},{"country":"lk","city":"Angammana","coordinates":{"lat":"6.6833333","long":"80.4166667"}},{"country":"lk","city":"Angamole","coordinates":{"lat":"7.95","long":"80.3333333"}},{"country":"lk","city":"Angampitiya","coordinates":{"lat":"7.2833333","long":"79.85"}},{"country":"lk","city":"Angampitiya","coordinates":{"lat":"6.8502778","long":"80.1166667"}},{"country":"lk","city":"Angamuwa","coordinates":{"lat":"8.1833333","long":"80.2166667"}},{"country":"lk","city":"Anganaketiya","coordinates":{"lat":"6.2666667","long":"80.1166667"}},{"country":"lk","city":"Angangoda","coordinates":{"lat":"6.5333333","long":"79.9833333"}},{"country":"lk","city":"Anganpitiya","coordinates":{"lat":"6.8502778","long":"80.1166667"}},{"country":"lk","city":"Anghandiya","coordinates":{"lat":"7.2666667","long":"80.2666667"}},{"country":"lk","city":"Angoda","coordinates":{"lat":"7.35","long":"80.55"}},{"country":"lk","city":"Angoda","coordinates":{"lat":"8.2333333","long":"81.25"}},{"country":"lk","city":"Angoda","coordinates":{"lat":"7.25","long":"80.4833333"}},{"country":"lk","city":"Angoda","coordinates":{"lat":"7.0333333","long":"81.0833333"}},{"country":"lk","city":"Angoda","coordinates":{"lat":"6.9333333","long":"79.9166667"}},{"country":"lk","city":"Angodakanda","coordinates":{"lat":"6.5","long":"80.4"}},{"country":"lk","city":"Angomugama","coordinates":{"lat":"7.8833333","long":"80.35"}},{"country":"lk","city":"Angomuwa","coordinates":{"lat":"7.55","long":"80.1166667"}},{"country":"lk","city":"Angomuwa","coordinates":{"lat":"6.8333333","long":"80.1"}},{"country":"lk","city":"Angulana","coordinates":{"lat":"6.7994444","long":"79.8716667"}},{"country":"lk","city":"Angulgamuwa","coordinates":{"lat":"7.75","long":"80.5"}},{"country":"lk","city":"Angulmaduwa","coordinates":{"lat":"6.0666667","long":"80.75"}},{"country":"lk","city":"Angulugaha","coordinates":{"lat":"6.0333333","long":"80.3166667"}},{"country":"lk","city":"Angulugalla","coordinates":{"lat":"6.3","long":"80.1166667"}},{"country":"lk","city":"Anguluwa","coordinates":{"lat":"7.4833333","long":"79.9"}},{"country":"lk","city":"Angunachchiya","coordinates":{"lat":"8.55","long":"80.55"}},{"country":"lk","city":"Angunakolapelessa","coordinates":{"lat":"6.1644444","long":"80.8980556"}},{"country":"lk","city":"Angunakolapelessa","coordinates":{"lat":"6.45","long":"81.0166667"}},{"country":"lk","city":"Angunakolawewa","coordinates":{"lat":"6.4166667","long":"81.0833333"}},{"country":"lk","city":"Angunawala","coordinates":{"lat":"7.2333333","long":"80.5833333"}},{"country":"lk","city":"Angunawela","coordinates":{"lat":"7.2333333","long":"80.5833333"}},{"country":"lk","city":"Angunawila","coordinates":{"lat":"7.7666667","long":"79.85"}},{"country":"lk","city":"Angunna","coordinates":{"lat":"6.0166667","long":"80.5333333"}},{"country":"lk","city":"Angunuwila","coordinates":{"lat":"7.7666667","long":"79.85"}},{"country":"lk","city":"Angurukandagara","coordinates":{"lat":"7.45","long":"80.1333333"}},{"country":"lk","city":"Angurukandagare","coordinates":{"lat":"7.45","long":"80.1333333"}},{"country":"lk","city":"Anguruwagala Ihala","coordinates":{"lat":"7.5333333","long":"80.1166667"}},{"country":"lk","city":"Anguruwagala Pahala","coordinates":{"lat":"7.5333333","long":"80.1166667"}},{"country":"lk","city":"Anguruwatota","coordinates":{"lat":"6.6383333","long":"80.0861111"}},{"country":"lk","city":"Anguruwawala","coordinates":{"lat":"6.4333333","long":"80.6833333"}},{"country":"lk","city":"Anguruwela","coordinates":{"lat":"7.25","long":"80.8333333"}},{"country":"lk","city":"Anguruwella","coordinates":{"lat":"7.25","long":"80.8333333"}},{"country":"lk","city":"Anguruwella","coordinates":{"lat":"7.9","long":"80.3166667"}},{"country":"lk","city":"Anguruwella","coordinates":{"lat":"7.0666667","long":"80.2666667"}},{"country":"lk","city":"Anhandigoda","coordinates":{"lat":"6.1","long":"80.1666667"}},{"country":"lk","city":"Anhandiya","coordinates":{"lat":"7.2666667","long":"80.2666667"}},{"country":"lk","city":"Anhettigama","coordinates":{"lat":"6.9166667","long":"80.3666667"}},{"country":"lk","city":"Aninchiyankulam","coordinates":{"lat":"9.1333333","long":"80.3166667"}},{"country":"lk","city":"Ankada","coordinates":{"lat":"6.9","long":"81.1833333"}},{"country":"lk","city":"Ankande Colony","coordinates":{"lat":"7.5833333","long":"80.65"}},{"country":"lk","city":"Ankendagolla","coordinates":{"lat":"7.1333333","long":"80.8"}},{"country":"lk","city":"Ankendewa","coordinates":{"lat":"8.05","long":"80.2666667"}},{"country":"lk","city":"Ankokkawala","coordinates":{"lat":"6.0666667","long":"80.2833333"}},{"country":"lk","city":"Ankokkewela","coordinates":{"lat":"6.0666667","long":"80.2833333"}},{"country":"lk","city":"Ankumbura","coordinates":{"lat":"7.4333333","long":"80.5666667"}},{"country":"lk","city":"Ankumbura Pallegama","coordinates":{"lat":"7.4333333","long":"80.5666667"}},{"country":"lk","city":"Ankumbura Udagama","coordinates":{"lat":"7.4333333","long":"80.5666667"}},{"country":"lk","city":"Ankuttankulama","coordinates":{"lat":"7.8333333","long":"79.95"}},{"country":"lk","city":"Annaiwilundawa","coordinates":{"lat":"7.7166667","long":"79.8166667"}},{"country":"lk","city":"Annamalai","coordinates":{"lat":"7.4333333","long":"81.75"}},{"country":"lk","city":"Annamaly","coordinates":{"lat":"7.45","long":"81.7833333"}},{"country":"lk","city":"Annammakulam","coordinates":{"lat":"8.8","long":"79.9833333"}},{"country":"lk","city":"Annarugama","coordinates":{"lat":"7.7666667","long":"80.1"}},{"country":"lk","city":"Annatevanmadu","coordinates":{"lat":"9.1166667","long":"80.5833333"}},{"country":"lk","city":"Antanantidai","coordinates":{"lat":"9.7333333","long":"80.1833333"}},{"country":"lk","city":"Antavadi","coordinates":{"lat":"8.1833333","long":"79.7166667"}},{"country":"lk","city":"Antayadi","coordinates":{"lat":"8.1833333","long":"79.7166667"}},{"country":"lk","city":"Antonimelingikulam","coordinates":{"lat":"8.7833333","long":"79.9333333"}},{"country":"lk","city":"Antonimelingilkulam","coordinates":{"lat":"8.7833333","long":"79.9333333"}},{"country":"lk","city":"Anukkana","coordinates":{"lat":"7.5333333","long":"79.9833333"}},{"country":"lk","city":"Anukkane","coordinates":{"lat":"7.5333333","long":"79.9833333"}},{"country":"lk","city":"Anukkangala","coordinates":{"lat":"6.4","long":"81.0666667"}},{"country":"lk","city":"Anukkanhena","coordinates":{"lat":"7.5333333","long":"80.1166667"}},{"country":"lk","city":"Anukkanpitiya","coordinates":{"lat":"7.3666667","long":"80.0"}},{"country":"lk","city":"Anukkanwila","coordinates":{"lat":"7.7166667","long":"80.0666667"}},{"country":"lk","city":"Anumethigama","coordinates":{"lat":"7.6166667","long":"79.9666667"}},{"country":"lk","city":"Anumetigama","coordinates":{"lat":"7.6166667","long":"79.9666667"}},{"country":"lk","city":"Anuradhapura","coordinates":{"lat":"8.35","long":"80.3833333"}},{"country":"lk","city":"Anuradhapur","coordinates":{"lat":"8.35","long":"80.3833333"}},{"country":"lk","city":"Anuradhapura Town","coordinates":{"lat":"8.35","long":"80.3833333"}},{"country":"lk","city":"Anuragoda","coordinates":{"lat":"7.0","long":"80.1166667"}},{"country":"lk","city":"Anwarama","coordinates":{"lat":"7.25","long":"80.4333333"}},{"country":"lk","city":"Aparekka","coordinates":{"lat":"6.0","long":"80.6"}},{"country":"lk","city":"Apdalac Chena","coordinates":{"lat":"7.25","long":"81.85"}},{"country":"lk","city":"Aperekka","coordinates":{"lat":"6.0","long":"80.6"}},{"country":"lk","city":"Appakkuddikinattadi","coordinates":{"lat":"9.0833333","long":"80.4666667"}},{"country":"lk","city":"Appakkuttikinattadi","coordinates":{"lat":"9.0833333","long":"80.4666667"}},{"country":"lk","city":"Appakuddikinattadi","coordinates":{"lat":"9.0833333","long":"80.4666667"}},{"country":"lk","city":"Appallagoda","coordinates":{"lat":"7.2","long":"80.55"}},{"country":"lk","city":"Appugama","coordinates":{"lat":"8.0","long":"80.5833333"}},{"country":"lk","city":"Appukuttigama","coordinates":{"lat":"8.0333333","long":"80.4333333"}},{"country":"lk","city":"Appuwewa","coordinates":{"lat":"8.55","long":"80.6666667"}},{"country":"lk","city":"Arabboda","coordinates":{"lat":"6.4833333","long":"80.4333333"}},{"country":"lk","city":"Araboda","coordinates":{"lat":"6.25","long":"80.7166667"}},{"country":"lk","city":"Arabodda","coordinates":{"lat":"6.495","long":"80.4597222"}},{"country":"lk","city":"Arabokka","coordinates":{"lat":"6.15","long":"81.1"}},{"country":"lk","city":"Arabokke","coordinates":{"lat":"6.15","long":"81.1"}},{"country":"lk","city":"Arachchigama","coordinates":{"lat":"7.6166667","long":"80.1833333"}},{"country":"lk","city":"Arachchikanda","coordinates":{"lat":"6.15","long":"80.1166667"}},{"country":"lk","city":"Arachchikattuwa","coordinates":{"lat":"7.6666667","long":"79.8333333"}},{"country":"lk","city":"Arachchikulam","coordinates":{"lat":"8.9166667","long":"80.6"}},{"country":"lk","city":"Arachchikumbura","coordinates":{"lat":"6.4333333","long":"80.6666667"}},{"country":"lk","city":"Arachchimulla","coordinates":{"lat":"6.4166667","long":"80.0166667"}},{"country":"lk","city":"Arachchivillu","coordinates":{"lat":"8.0166667","long":"79.8666667"}},{"country":"lk","city":"Aragama","coordinates":{"lat":"7.6","long":"80.45"}},{"country":"lk","city":"Aragoda","coordinates":{"lat":"7.3666667","long":"80.35"}},{"country":"lk","city":"Araipattai","coordinates":{"lat":"7.6666667","long":"81.7333333"}},{"country":"lk","city":"Arakagoda","coordinates":{"lat":"6.6833333","long":"80.0166667"}},{"country":"lk","city":"Arakawila","coordinates":{"lat":"6.8","long":"80.15"}},{"country":"lk","city":"Arakyala","coordinates":{"lat":"7.5166667","long":"80.1666667"}},{"country":"lk","city":"Arali","coordinates":{"lat":"9.7","long":"79.9666667"}},{"country":"lk","city":"Arali East","coordinates":{"lat":"9.7","long":"79.9666667"}},{"country":"lk","city":"Arali North","coordinates":{"lat":"9.7166667","long":"79.95"}},{"country":"lk","city":"Arali South","coordinates":{"lat":"9.7","long":"79.95"}},{"country":"lk","city":"Arali West","coordinates":{"lat":"9.7333333","long":"79.9333333"}},{"country":"lk","city":"Aralugahawewa Ihala","coordinates":{"lat":"7.6666667","long":"80.1166667"}},{"country":"lk","city":"Aralugahawewa Pahala","coordinates":{"lat":"7.6833333","long":"80.1166667"}},{"country":"lk","city":"Aralupitiya","coordinates":{"lat":"7.3166667","long":"81.2333333"}},{"country":"lk","city":"Aralutalawa","coordinates":{"lat":"6.7666667","long":"80.8666667"}},{"country":"lk","city":"Araluwinna","coordinates":{"lat":"6.9833333","long":"81.3166667"}},{"country":"lk","city":"Araly","coordinates":{"lat":"9.7166667","long":"79.9333333"}},{"country":"lk","city":"Araly East","coordinates":{"lat":"9.7","long":"79.9666667"}},{"country":"lk","city":"Araly North","coordinates":{"lat":"9.7166667","long":"79.95"}},{"country":"lk","city":"Araly South","coordinates":{"lat":"9.7","long":"79.95"}},{"country":"lk","city":"Araly West","coordinates":{"lat":"9.7333333","long":"79.9333333"}},{"country":"lk","city":"Arama","coordinates":{"lat":"7.1333333","long":"80.4666667"}},{"country":"lk","city":"Aramandakatuwa","coordinates":{"lat":"7.8833333","long":"80.5166667"}},{"country":"lk","city":"Aramandakotuwa","coordinates":{"lat":"7.8833333","long":"80.5166667"}},{"country":"lk","city":"Aramangoda","coordinates":{"lat":"7.0333333","long":"80.05"}},{"country":"lk","city":"Arambagama","coordinates":{"lat":"7.35","long":"80.5666667"}},{"country":"lk","city":"Arambe","coordinates":{"lat":"7.15","long":"79.9"}},{"country":"lk","city":"Arambegama","coordinates":{"lat":"7.2666667","long":"80.55"}},{"country":"lk","city":"Arambegama","coordinates":{"lat":"7.2833333","long":"80.3666667"}},{"country":"lk","city":"Arambegodella","coordinates":{"lat":"7.1","long":"80.0333333"}},{"country":"lk","city":"Arambegrama","coordinates":{"lat":"7.2833333","long":"80.3666667"}},{"country":"lk","city":"Arambepola","coordinates":{"lat":"7.3833333","long":"80.6"}},{"country":"lk","city":"Arambepola","coordinates":{"lat":"7.4","long":"80.3333333"}},{"country":"lk","city":"Aramonagolla","coordinates":{"lat":"6.7333333","long":"80.05"}},{"country":"lk","city":"Arampola","coordinates":{"lat":"7.4508333","long":"80.4502778"}},{"country":"lk","city":"Aranayaka","coordinates":{"lat":"7.1430556","long":"80.4658333"}},{"country":"lk","city":"Aranayake","coordinates":{"lat":"7.1430556","long":"80.4658333"}},{"country":"lk","city":"Arandara","coordinates":{"lat":"7.1833333","long":"80.3"}},{"country":"lk","city":"Arangala","coordinates":{"lat":"6.35","long":"80.0166667"}},{"country":"lk","city":"Arangala","coordinates":{"lat":"6.8855556","long":"79.9619444"}},{"country":"lk","city":"Arankele","coordinates":{"lat":"7.65","long":"80.4166667"}},{"country":"lk","city":"Aranpitiya","coordinates":{"lat":"7.0833333","long":"80.8833333"}},{"country":"lk","city":"Aranwala","coordinates":{"lat":"5.9666667","long":"80.3833333"}},{"country":"lk","city":"Aranwela","coordinates":{"lat":"5.9666667","long":"80.3833333"}},{"country":"lk","city":"Arapangama","coordinates":{"lat":"6.9333333","long":"80.1333333"}},{"country":"lk","city":"Arapattai","coordinates":{"lat":"7.6666667","long":"81.7333333"}},{"country":"lk","city":"Arapotta","coordinates":{"lat":"7.4833333","long":"81.3666667"}},{"country":"lk","city":"Arasadichchenai","coordinates":{"lat":"7.6833333","long":"81.6"}},{"country":"lk","city":"Arasadichenai","coordinates":{"lat":"7.6833333","long":"81.6"}},{"country":"lk","city":"Arasaditivu","coordinates":{"lat":"7.6","long":"81.7166667"}},{"country":"lk","city":"Arasanwewa","coordinates":{"lat":"7.7666667","long":"79.9333333"}},{"country":"lk","city":"Arattana","coordinates":{"lat":"7.2166667","long":"80.5666667"}},{"country":"lk","city":"Arattanagoda","coordinates":{"lat":"6.0","long":"80.7166667"}},{"country":"lk","city":"Aratumedilla","coordinates":{"lat":"7.1","long":"81.2666667"}},{"country":"lk","city":"Aravakumbura","coordinates":{"lat":"7.0666667","long":"81.2"}},{"country":"lk","city":"Aravawatte","coordinates":{"lat":"7.0166667","long":"81.6"}},{"country":"lk","city":"Arawa","coordinates":{"lat":"7.1666667","long":"81.0833333"}},{"country":"lk","city":"Arawakumbura","coordinates":{"lat":"7.0666667","long":"81.2"}},{"country":"lk","city":"Arawatta","coordinates":{"lat":"7.3333333","long":"81.05"}},{"country":"lk","city":"Arawegoda","coordinates":{"lat":"6.5833333","long":"80.7333333"}},{"country":"lk","city":"Arawwawala","coordinates":{"lat":"7.2333333","long":"80.5666667"}},{"country":"lk","city":"Arawwawela","coordinates":{"lat":"7.2333333","long":"80.5666667"}},{"country":"lk","city":"Arialai","coordinates":{"lat":"9.65","long":"80.0666667"}},{"country":"lk","city":"Arippu","coordinates":{"lat":"8.3166667","long":"81.3166667"}},{"country":"lk","city":"Arippu","coordinates":{"lat":"8.8","long":"79.9166667"}},{"country":"lk","city":"Arippuveddukulam","coordinates":{"lat":"8.8","long":"79.9333333"}},{"country":"lk","city":"Arivichenai North","coordinates":{"lat":"8.0666667","long":"79.8666667"}},{"country":"lk","city":"Ariyalai","coordinates":{"lat":"9.65","long":"80.0666667"}},{"country":"lk","city":"Ariyamadu","coordinates":{"lat":"9.0","long":"80.65"}},{"country":"lk","city":"Ariyankurisuddakulam","coordinates":{"lat":"8.8833333","long":"80.4"}},{"country":"lk","city":"Ariyankurisuttakulam","coordinates":{"lat":"8.8833333","long":"80.4"}},{"country":"lk","city":"Ariyaripulam","coordinates":{"lat":"9.6","long":"79.85"}},{"country":"lk","city":"Ariyarmadam","coordinates":{"lat":"9.6833333","long":"80.0"}},{"country":"lk","city":"Arsanagar","coordinates":{"lat":"8.0","long":"81.1666667"}},{"country":"lk","city":"Arsanwewa","coordinates":{"lat":"8.0","long":"80.2666667"}},{"country":"lk","city":"Arsenwewa","coordinates":{"lat":"7.7666667","long":"79.9333333"}},{"country":"lk","city":"Artiadimunai","coordinates":{"lat":"7.9666667","long":"81.2"}},{"country":"lk","city":"Arugampuleliya","coordinates":{"lat":"8.7166667","long":"80.45"}},{"country":"lk","city":"Aruggammana","coordinates":{"lat":"7.1166667","long":"80.3"}},{"country":"lk","city":"Aruggoda","coordinates":{"lat":"6.4333333","long":"80.5"}},{"country":"lk","city":"Arukarkudah","coordinates":{"lat":"8.1","long":"81.45"}},{"country":"lk","city":"Arukgammana","coordinates":{"lat":"7.1166667","long":"80.3"}},{"country":"lk","city":"Arukgoda","coordinates":{"lat":"7.2166667","long":"80.1666667"}},{"country":"lk","city":"Arukmulla","coordinates":{"lat":"7.1666667","long":"80.3333333"}},{"country":"lk","city":"Arukmulle","coordinates":{"lat":"7.1666667","long":"80.3333333"}},{"country":"lk","city":"Arukpassa","coordinates":{"lat":"7.0833333","long":"80.1166667"}},{"country":"lk","city":"Arukuveli","coordinates":{"lat":"9.6166667","long":"80.1666667"}},{"country":"lk","city":"Arukwatta","coordinates":{"lat":"7.15","long":"80.9"}},{"country":"lk","city":"Arukwatta","coordinates":{"lat":"6.85","long":"80.1"}},{"country":"lk","city":"Arumukattanputukkulam","coordinates":{"lat":"8.9166667","long":"80.5666667"}},{"country":"lk","city":"Arupassa","coordinates":{"lat":"7.0833333","long":"80.1166667"}},{"country":"lk","city":"Aruppala","coordinates":{"lat":"7.19","long":"80.2638889"}},{"country":"lk","city":"Aruppola","coordinates":{"lat":"7.3","long":"80.65"}},{"country":"lk","city":"Aruvichena North","coordinates":{"lat":"8.0666667","long":"79.8666667"}},{"country":"lk","city":"Aruvichena South","coordinates":{"lat":"8.05","long":"79.85"}},{"country":"lk","city":"Asamanakanda","coordinates":{"lat":"6.6333333","long":"80.6"}},{"country":"lk","city":"Asanakotuwa","coordinates":{"lat":"7.6333333","long":"80.0166667"}},{"country":"lk","city":"Asgangula","coordinates":{"lat":"6.85","long":"80.2666667"}},{"country":"lk","city":"Asgeriya","coordinates":{"lat":"7.3","long":"80.6333333"}},{"country":"lk","city":"Asgeriya","coordinates":{"lat":"7.1","long":"79.9833333"}},{"country":"lk","city":"Asgiriwalpola","coordinates":{"lat":"7.1166667","long":"79.9833333"}},{"country":"lk","city":"Asgiriya","coordinates":{"lat":"7.3","long":"80.6333333"}},{"country":"lk","city":"Asgiriya","coordinates":{"lat":"7.1","long":"79.9833333"}},{"country":"lk","city":"Asideniya","coordinates":{"lat":"7.2333333","long":"80.2833333"}},{"country":"lk","city":"Asikulam","coordinates":{"lat":"8.7","long":"80.5333333"}},{"country":"lk","city":"Asingammedda","coordinates":{"lat":"7.4833333","long":"80.6666667"}},{"country":"lk","city":"Asiragoda","coordinates":{"lat":"6.0166667","long":"80.5666667"}},{"country":"lk","city":"Asirikgama","coordinates":{"lat":"8.5","long":"80.35"}},{"country":"lk","city":"Asmadala","coordinates":{"lat":"7.1833333","long":"80.4166667"}},{"country":"lk","city":"Asmagoda","coordinates":{"lat":"6.1166667","long":"80.4833333"}},{"country":"lk","city":"Asrikgama","coordinates":{"lat":"8.5","long":"80.35"}},{"country":"lk","city":"Assedduma","coordinates":{"lat":"7.4666667","long":"80.05"}},{"country":"lk","city":"Assedduma","coordinates":{"lat":"6.7166667","long":"80.55"}},{"country":"lk","city":"Asseddungoda","coordinates":{"lat":"6.7","long":"80.75"}},{"country":"lk","city":"Asseddunwela","coordinates":{"lat":"6.7166667","long":"80.7666667"}},{"country":"lk","city":"Assenawatta","coordinates":{"lat":"7.2","long":"79.9833333"}},{"country":"lk","city":"Assennawatta","coordinates":{"lat":"7.2","long":"79.9833333"}},{"country":"lk","city":"Aswalapitiya","coordinates":{"lat":"7.2833333","long":"80.7166667"}},{"country":"lk","city":"Aswayabendiwewa","coordinates":{"lat":"8.2833333","long":"80.7"}},{"country":"lk","city":"Aswedduma","coordinates":{"lat":"7.9666667","long":"80.6333333"}},{"country":"lk","city":"Aswedduma","coordinates":{"lat":"7.5","long":"80.3333333"}},{"country":"lk","city":"Asweddumegama","coordinates":{"lat":"7.0666667","long":"81.0166667"}},{"country":"lk","city":"Asweddummulla","coordinates":{"lat":"6.9666667","long":"80.9666667"}},{"country":"lk","city":"Asweddumwelagama","coordinates":{"lat":"6.9666667","long":"80.9666667"}},{"country":"lk","city":"Asweddunwela","coordinates":{"lat":"7.3","long":"80.8"}},{"country":"lk","city":"Atabage","coordinates":{"lat":"7.1333333","long":"80.6"}},{"country":"lk","city":"Atabage Pallegama","coordinates":{"lat":"7.1333333","long":"80.6"}},{"country":"lk","city":"Atadahewatugoda","coordinates":{"lat":"5.9833333","long":"80.35"}},{"country":"lk","city":"Atakalanpanne","coordinates":{"lat":"6.5333333","long":"80.5833333"}},{"country":"lk","city":"Atalawa","coordinates":{"lat":"7.1","long":"80.2666667"}},{"country":"lk","city":"Atale","coordinates":{"lat":"7.15","long":"80.2833333"}},{"country":"lk","city":"Atale","coordinates":{"lat":"6.8666667","long":"81.25"}},{"country":"lk","city":"Atale","coordinates":{"lat":"6.45","long":"80.2666667"}},{"country":"lk","city":"Atalla","coordinates":{"lat":"7.55","long":"80.4333333"}},{"country":"lk","city":"Atallawela","coordinates":{"lat":"6.6","long":"80.7833333"}},{"country":"lk","city":"Atallewela","coordinates":{"lat":"6.6","long":"80.7833333"}},{"country":"lk","city":"Atamune","coordinates":{"lat":"7.5","long":"80.3833333"}},{"country":"lk","city":"Atanchikulam","coordinates":{"lat":"8.6833333","long":"80.15"}},{"country":"lk","city":"Atanikita","coordinates":{"lat":"6.0166667","long":"80.35"}},{"country":"lk","city":"Atapattugama","coordinates":{"lat":"6.2166667","long":"80.8666667"}},{"country":"lk","city":"Atapattu Siyambalewa","coordinates":{"lat":"7.9","long":"80.2"}},{"country":"lk","city":"Ataudagama","coordinates":{"lat":"7.7","long":"80.4"}},{"country":"lk","city":"Ataudakanda","coordinates":{"lat":"7.1333333","long":"80.2"}},{"country":"lk","city":"Atawalmada","coordinates":{"lat":"7.6333333","long":"80.45"}},{"country":"lk","city":"Atawarala","coordinates":{"lat":"7.8166667","long":"80.25"}},{"country":"lk","city":"Atawerala","coordinates":{"lat":"7.8166667","long":"80.25"}},{"country":"lk","city":"Atchuvely","coordinates":{"lat":"9.7666667","long":"80.1"}},{"country":"lk","city":"Atgalgoda","coordinates":{"lat":"6.9333333","long":"79.9"}},{"country":"lk","city":"Athagama","coordinates":{"lat":"6.5333333","long":"79.9666667"}},{"country":"lk","city":"Athalawa","coordinates":{"lat":"7.1","long":"80.2666667"}},{"country":"lk","city":"Athapattusiyambalawata","coordinates":{"lat":"7.9","long":"80.2"}},{"country":"lk","city":"Athaudagama","coordinates":{"lat":"7.8666667","long":"80.4"}},{"country":"lk","city":"Athgalgoda","coordinates":{"lat":"6.9333333","long":"79.9"}},{"country":"lk","city":"Athgangoda","coordinates":{"lat":"6.5333333","long":"79.9833333"}},{"country":"lk","city":"Athimale Colony","coordinates":{"lat":"6.8166667","long":"81.55"}},{"country":"lk","city":"Aththikulama","coordinates":{"lat":"7.8333333","long":"80.0166667"}},{"country":"lk","city":"Athuruwela","coordinates":{"lat":"7.35","long":"80.15"}},{"country":"lk","city":"Athuruwella","coordinates":{"lat":"6.4","long":"80.0"}},{"country":"lk","city":"Atigala","coordinates":{"lat":"6.8833333","long":"80.05"}},{"country":"lk","city":"Atirahapitiya","coordinates":{"lat":"7.4166667","long":"80.65"}},{"country":"lk","city":"Attambagaskandura","coordinates":{"lat":"7.1666667","long":"81.05"}},{"country":"lk","city":"Attanagalla","coordinates":{"lat":"7.1119444","long":"80.1327778"}},{"country":"lk","city":"Attanagoda","coordinates":{"lat":"7.2333333","long":"80.4"}},{"country":"lk","city":"Attanagola","coordinates":{"lat":"7.0333333","long":"81.2"}},{"country":"lk","city":"Attanagolla","coordinates":{"lat":"7.0333333","long":"81.2"}},{"country":"lk","city":"Attanakadawala","coordinates":{"lat":"7.85","long":"80.8666667"}},{"country":"lk","city":"Attanakitta","coordinates":{"lat":"6.0166667","long":"80.35"}},{"country":"lk","city":"Attanakumbura","coordinates":{"lat":"7.0666667","long":"80.8"}},{"country":"lk","city":"Attanapitiya","coordinates":{"lat":"7.4","long":"80.35"}},{"country":"lk","city":"Attanapola","coordinates":{"lat":"7.9333333","long":"80.3333333"}},{"country":"lk","city":"Attanavala","coordinates":{"lat":"6.1666667","long":"80.7833333"}},{"country":"lk","city":"Attanayakagammedda","coordinates":{"lat":"7.2833333","long":"80.8666667"}},{"country":"lk","city":"Attanayala","coordinates":{"lat":"6.1666667","long":"80.7833333"}},{"country":"lk","city":"Attangane","coordinates":{"lat":"7.7","long":"79.8666667"}},{"country":"lk","city":"Attapitiya","coordinates":{"lat":"7.2166667","long":"80.45"}},{"country":"lk","city":"Attaragalla","coordinates":{"lat":"7.3166667","long":"80.7166667"}},{"country":"lk","city":"Attaragalla","coordinates":{"lat":"7.9166667","long":"80.2833333"}},{"country":"lk","city":"Attaragallewa","coordinates":{"lat":"7.7333333","long":"80.8166667"}},{"country":"lk","city":"Attaragama","coordinates":{"lat":"7.35","long":"80.5833333"}},{"country":"lk","city":"Attaragama Hunnana-oya","coordinates":{"lat":"7.35","long":"80.5833333"}},{"country":"lk","city":"Attaragama Hunnanoya","coordinates":{"lat":"7.35","long":"80.5833333"}},{"country":"lk","city":"Attaragoda","coordinates":{"lat":"6.0333333","long":"80.25"}},{"country":"lk","city":"Attavillu","coordinates":{"lat":"7.9833333","long":"79.85"}},{"country":"lk","city":"Attavilluwa","coordinates":{"lat":"7.9666667","long":"79.85"}},{"country":"lk","city":"Attidiya","coordinates":{"lat":"6.8333333","long":"79.8833333"}},{"country":"lk","city":"Attikkuli","coordinates":{"lat":"8.5666667","long":"79.9666667"}},{"country":"lk","city":"Attikkull","coordinates":{"lat":"8.5666667","long":"79.9666667"}},{"country":"lk","city":"Attikulama","coordinates":{"lat":"8.1","long":"80.5333333"}},{"country":"lk","city":"Attikulama","coordinates":{"lat":"7.8333333","long":"80.0166667"}},{"country":"lk","city":"Attimoddai","coordinates":{"lat":"9.05","long":"80.1"}},{"country":"lk","city":"Attuchenai","coordinates":{"lat":"7.55","long":"81.65"}},{"country":"lk","city":"Attudawa","coordinates":{"lat":"6.0","long":"80.5333333"}},{"country":"lk","city":"Atugoda","coordinates":{"lat":"7.2","long":"80.3333333"}},{"country":"lk","city":"Atukoralayagama","coordinates":{"lat":"7.9833333","long":"80.3"}},{"country":"lk","city":"Atulugama","coordinates":{"lat":"6.9833333","long":"80.2666667"}},{"country":"lk","city":"Atulugama","coordinates":{"lat":"6.7","long":"80.0"}},{"country":"lk","city":"Atupatdeniya","coordinates":{"lat":"7.2833333","long":"80.15"}},{"country":"lk","city":"Atupotdeniya","coordinates":{"lat":"7.2833333","long":"80.15"}},{"country":"lk","city":"Atupothdeniya","coordinates":{"lat":"7.2833333","long":"80.15"}},{"country":"lk","city":"Atura","coordinates":{"lat":"6.65","long":"80.1833333"}},{"country":"lk","city":"Aturaliya","coordinates":{"lat":"6.75","long":"80.45"}},{"country":"lk","city":"Aturaliya","coordinates":{"lat":"6.0666667","long":"80.5"}},{"country":"lk","city":"Ature","coordinates":{"lat":"6.65","long":"80.1833333"}},{"country":"lk","city":"Aturugiriya","coordinates":{"lat":"6.8686111","long":"79.9922222"}},{"country":"lk","city":"Aturukurutenne","coordinates":{"lat":"7.6333333","long":"80.4"}},{"country":"lk","city":"Aturupana","coordinates":{"lat":"7.1666667","long":"80.3833333"}},{"country":"lk","city":"Aturupolayagama","coordinates":{"lat":"8.0","long":"80.0333333"}},{"country":"lk","city":"Aturuwala","coordinates":{"lat":"7.35","long":"80.15"}},{"country":"lk","city":"Aturuwella","coordinates":{"lat":"6.4","long":"80.0"}},{"country":"lk","city":"Atweltota","coordinates":{"lat":"6.5447222","long":"80.2825"}},{"country":"lk","city":"Avaddaveli","coordinates":{"lat":"7.7333333","long":"81.45"}},{"country":"lk","city":"Avaddiyaveli","coordinates":{"lat":"7.7333333","long":"81.45"}},{"country":"lk","city":"Avanam","coordinates":{"lat":"8.85","long":"79.95"}},{"country":"lk","city":"Avarankal","coordinates":{"lat":"9.75","long":"80.1166667"}},{"country":"lk","city":"Avarankulam","coordinates":{"lat":"8.85","long":"80.3333333"}},{"country":"lk","city":"Avarantulawa","coordinates":{"lat":"8.7","long":"80.4"}},{"country":"lk","city":"Avariwatta","coordinates":{"lat":"6.45","long":"79.9833333"}},{"country":"lk","city":"Avissawella","coordinates":{"lat":"6.9530556","long":"80.2183333"}},{"country":"lk","city":"Avudangawa","coordinates":{"lat":"7.9833333","long":"80.7333333"}},{"country":"lk","city":"Avulegama","coordinates":{"lat":"7.6833333","long":"80.1833333"}},{"country":"lk","city":"Awarantulawa","coordinates":{"lat":"8.7","long":"80.4"}},{"country":"lk","city":"Awariwatta","coordinates":{"lat":"6.45","long":"79.9833333"}},{"country":"lk","city":"Awukonagoda","coordinates":{"lat":"6.0666667","long":"80.7666667"}},{"country":"lk","city":"Awukongoda","coordinates":{"lat":"6.0666667","long":"80.7666667"}},{"country":"lk","city":"Awulbodale","coordinates":{"lat":"7.3166667","long":"80.4666667"}},{"country":"lk","city":"Ayagama","coordinates":{"lat":"6.6405556","long":"80.3097222"}},{"country":"lk","city":"Ayiladi","coordinates":{"lat":"9.05","long":"80.5833333"}},{"country":"lk","city":"Ayili","coordinates":{"lat":"8.2666667","long":"79.85"}},{"country":"lk","city":"Ayiniyankankani Alavakkai","coordinates":{"lat":"8.8","long":"79.95"}},{"country":"lk","city":"Ayittiyamalai","coordinates":{"lat":"7.6833333","long":"81.5666667"}},{"country":"lk","city":"Ayiwela","coordinates":{"lat":"7.1","long":"81.2333333"}},{"country":"lk","city":"Ayiyatigewewa","coordinates":{"lat":"8.6333333","long":"80.7"}},{"country":"lk","city":"Ayliyadichenai","coordinates":{"lat":"7.6","long":"81.5833333"}},{"country":"lk","city":"Ayuwandama","coordinates":{"lat":"7.5333333","long":"80.3333333"}},{"country":"lk","city":"Babarenda Central","coordinates":{"lat":"5.9666667","long":"80.6666667"}},{"country":"lk","city":"Babarenda North","coordinates":{"lat":"5.9666667","long":"80.65"}},{"country":"lk","city":"Babarenda South I","coordinates":{"lat":"5.9666667","long":"80.65"}},{"country":"lk","city":"Babarenda South II","coordinates":{"lat":"5.9666667","long":"80.65"}},{"country":"lk","city":"Baburugama","coordinates":{"lat":"7.4333333","long":"80.25"}},{"country":"lk","city":"Badabadda","coordinates":{"lat":"6.1166667","long":"80.6666667"}},{"country":"lk","city":"Badabadda","coordinates":{"lat":"7.3166667","long":"80.0166667"}},{"country":"lk","city":"Badabedda","coordinates":{"lat":"7.4833333","long":"80.4333333"}},{"country":"lk","city":"Badabeddegama","coordinates":{"lat":"7.6666667","long":"80.2"}},{"country":"lk","city":"Badabeddewa","coordinates":{"lat":"7.8666667","long":"80.2"}},{"country":"lk","city":"Badagane","coordinates":{"lat":"7.5166667","long":"80.45"}},{"country":"lk","city":"Badagomuwa","coordinates":{"lat":"7.5","long":"80.4"}},{"country":"lk","city":"Badahalagoda","coordinates":{"lat":"6.5","long":"80.0"}},{"country":"lk","city":"Badaheddara","coordinates":{"lat":"7.45","long":"80.3333333"}},{"country":"lk","city":"Badahela","coordinates":{"lat":"6.8333333","long":"80.25"}},{"country":"lk","city":"Badahela Etawetunuwewa","coordinates":{"lat":"8.5333333","long":"80.7"}},{"country":"lk","city":"Badahelagama","coordinates":{"lat":"8.2833333","long":"80.2"}},{"country":"lk","city":"Badahelagama","coordinates":{"lat":"7.35","long":"79.9"}},{"country":"lk","city":"Badahelagoda","coordinates":{"lat":"6.6166667","long":"80.7333333"}},{"country":"lk","city":"Badahelagoda","coordinates":{"lat":"5.95","long":"80.5166667"}},{"country":"lk","city":"Badahelamulla","coordinates":{"lat":"7.55","long":"79.8333333"}},{"country":"lk","city":"Badahela Ranorewa","coordinates":{"lat":"8.2333333","long":"80.25"}},{"country":"lk","city":"Badahelgoda","coordinates":{"lat":"6.7833333","long":"80.35"}},{"country":"lk","city":"Badaigama","coordinates":{"lat":"7.85","long":"80.2333333"}},{"country":"lk","city":"Badalagama","coordinates":{"lat":"7.1333333","long":"80.7833333"}},{"country":"lk","city":"Badalagama","coordinates":{"lat":"7.5166667","long":"80.25"}},{"country":"lk","city":"Badalagammana","coordinates":{"lat":"7.1","long":"81.25"}},{"country":"lk","city":"Badalgama","coordinates":{"lat":"7.6333333","long":"80.2"}},{"country":"lk","city":"Badalgama","coordinates":{"lat":"7.2822222","long":"79.9908333"}},{"country":"lk","city":"Badalgama Ihala","coordinates":{"lat":"7.6","long":"80.1666667"}},{"country":"lk","city":"Badalgama Pahala","coordinates":{"lat":"7.6","long":"80.1333333"}},{"country":"lk","city":"Badalgammedda","coordinates":{"lat":"7.4","long":"80.6333333"}},{"country":"lk","city":"Badalgeda","coordinates":{"lat":"5.9666667","long":"80.6333333"}},{"country":"lk","city":"Badalgedara","coordinates":{"lat":"7.65","long":"80.2"}},{"country":"lk","city":"Badalgoda","coordinates":{"lat":"5.9666667","long":"80.6333333"}},{"country":"lk","city":"Badalgoda","coordinates":{"lat":"6.5333333","long":"79.9833333"}},{"country":"lk","city":"Badalkumbura","coordinates":{"lat":"6.9","long":"81.2333333"}},{"country":"lk","city":"Badalkumbure Town","coordinates":{"lat":"6.9","long":"81.2333333"}},{"country":"lk","city":"Badalmulla","coordinates":{"lat":"7.3833333","long":"80.2833333"}},{"country":"lk","city":"Badanagoda","coordinates":{"lat":"6.4833333","long":"80.0166667"}},{"country":"lk","city":"Badanamure","coordinates":{"lat":"6.4833333","long":"80.6833333"}},{"country":"lk","city":"Badanegedara","coordinates":{"lat":"7.3666667","long":"80.0333333"}},{"country":"lk","city":"Badaweltota","coordinates":{"lat":"6.9666667","long":"81.05"}},{"country":"lk","city":"Badawetiye Kuppayama","coordinates":{"lat":"7.95","long":"80.3"}},{"country":"lk","city":"Baddamulla","coordinates":{"lat":"7.4166667","long":"80.9166667"}},{"country":"lk","city":"Baddegama","coordinates":{"lat":"7.5833333","long":"80.2166667"}},{"country":"lk","city":"Baddegama","coordinates":{"lat":"6.1666667","long":"80.1666667"}},{"country":"lk","city":"Baddegama East","coordinates":{"lat":"6.1666667","long":"80.2"}},{"country":"lk","city":"Baddegama North","coordinates":{"lat":"6.1666667","long":"80.1833333"}},{"country":"lk","city":"Baddegama South","coordinates":{"lat":"6.15","long":"80.1666667"}},{"country":"lk","city":"Baddegammedda","coordinates":{"lat":"5.9813889","long":"80.6380556"}},{"country":"lk","city":"Badugama","coordinates":{"lat":"6.5","long":"80.1166667"}},{"country":"lk","city":"Badulla","coordinates":{"lat":"6.0166667","long":"80.5333333"}},{"country":"lk","city":"Badulla","coordinates":{"lat":"6.9833333","long":"81.05"}},{"country":"lk","city":"Badullagasgedara","coordinates":{"lat":"7.1666667","long":"81.2833333"}},{"country":"lk","city":"Badullawala","coordinates":{"lat":"7.0","long":"80.3166667"}},{"country":"lk","city":"Badullegama","coordinates":{"lat":"6.5333333","long":"80.7"}},{"country":"lk","city":"Badullewa","coordinates":{"lat":"7.4333333","long":"80.2166667"}},{"country":"lk","city":"Baduludena","coordinates":{"lat":"6.6833333","long":"80.85"}},{"country":"lk","city":"Badulugasgedara","coordinates":{"lat":"7.1666667","long":"81.2833333"}},{"country":"lk","city":"Badulugasgedera","coordinates":{"lat":"7.1666667","long":"81.2833333"}},{"country":"lk","city":"Badulupitiya","coordinates":{"lat":"7.2833333","long":"80.45"}},{"country":"lk","city":"Badulupitiyagama","coordinates":{"lat":"7.0","long":"81.0666667"}},{"country":"lk","city":"Badulupitiyegama","coordinates":{"lat":"7.0","long":"81.0666667"}},{"country":"lk","city":"Baduluwela","coordinates":{"lat":"7.0833333","long":"81.4333333"}},{"country":"lk","city":"Badungala","coordinates":{"lat":"6.3666667","long":"80.0166667"}},{"country":"lk","city":"Badungoda","coordinates":{"lat":"6.0666667","long":"80.25"}},{"country":"lk","city":"Badureliya","coordinates":{"lat":"6.5194444","long":"80.2513889"}},{"country":"lk","city":"Baduwalakanda","coordinates":{"lat":"6.7833333","long":"80.25"}},{"country":"lk","city":"Baduwatugoda","coordinates":{"lat":"7.1166667","long":"80.0166667"}},{"country":"lk","city":"Bagature","coordinates":{"lat":"6.6166667","long":"80.8166667"}},{"country":"lk","city":"Bahiragaldowa","coordinates":{"lat":"7.1666667","long":"80.9333333"}},{"country":"lk","city":"Bahirawakanda","coordinates":{"lat":"7.3","long":"80.6166667"}},{"country":"lk","city":"Bajjangoda","coordinates":{"lat":"7.2833333","long":"80.1666667"}},{"country":"lk","city":"Bakamuna","coordinates":{"lat":"7.7833333","long":"80.8166667"}},{"country":"lk","city":"Bakamune","coordinates":{"lat":"7.7833333","long":"80.8166667"}},{"country":"lk","city":"Bakamuneulpota","coordinates":{"lat":"7.8","long":"80.8166667"}},{"country":"lk","city":"Bakinidandugolla","coordinates":{"lat":"7.2833333","long":"81.1333333"}},{"country":"lk","city":"Bakinidandugollegama","coordinates":{"lat":"7.2833333","long":"81.1333333"}},{"country":"lk","city":"Bakinigahapitiya","coordinates":{"lat":"7.0","long":"81.5166667"}},{"country":"lk","city":"Bakinigahawela","coordinates":{"lat":"6.9333333","long":"81.2833333"}},{"country":"lk","city":"Bakinigahawela Vidiya","coordinates":{"lat":"7.0","long":"81.2833333"}},{"country":"lk","city":"Bakinilanda","coordinates":{"lat":"7.0833333","long":"81.1333333"}},{"country":"lk","city":"Bakinipitiya","coordinates":{"lat":"7.0","long":"81.5166667"}},{"country":"lk","city":"Bakkiella","coordinates":{"lat":"7.4666667","long":"81.65"}},{"country":"lk","city":"Bakmeegahaulpota","coordinates":{"lat":"7.9333333","long":"80.6333333"}},{"country":"lk","city":"Bakmeegahaulpotha","coordinates":{"lat":"7.8666667","long":"80.4833333"}},{"country":"lk","city":"Bakmeegahawatta","coordinates":{"lat":"7.85","long":"80.3"}},{"country":"lk","city":"Bakmeegolla","coordinates":{"lat":"7.5333333","long":"80.4333333"}},{"country":"lk","city":"Bakmeeruppa","coordinates":{"lat":"7.5666667","long":"79.9166667"}},{"country":"lk","city":"Bakmeewewa","coordinates":{"lat":"7.7333333","long":"80.35"}},{"country":"lk","city":"Bakmetota","coordinates":{"lat":"6.5666667","long":"81.6166667"}},{"country":"lk","city":"Bakmideniya","coordinates":{"lat":"7.2333333","long":"80.45"}},{"country":"lk","city":"Bakmigahaulpota","coordinates":{"lat":"7.8666667","long":"80.4833333"}},{"country":"lk","city":"Bakmigahawatta","coordinates":{"lat":"7.85","long":"80.3"}},{"country":"lk","city":"Bakmigolla","coordinates":{"lat":"7.5333333","long":"80.4333333"}},{"country":"lk","city":"Bakmikada","coordinates":{"lat":"8.7166667","long":"80.9666667"}},{"country":"lk","city":"Bakmilande","coordinates":{"lat":"7.0833333","long":"81.1333333"}},{"country":"lk","city":"Bakmitiyawa","coordinates":{"lat":"7.0166667","long":"81.65"}},{"country":"lk","city":"Bakmiwewa","coordinates":{"lat":"7.7333333","long":"80.35"}},{"country":"lk","city":"Bakulwala","coordinates":{"lat":"7.1666667","long":"80.4666667"}},{"country":"lk","city":"Bakunawala","coordinates":{"lat":"7.6666667","long":"80.0666667"}},{"country":"lk","city":"Bakunawela","coordinates":{"lat":"7.6666667","long":"80.0666667"}},{"country":"lk","city":"Bala-attara","coordinates":{"lat":"7.0","long":"81.5"}},{"country":"lk","city":"Bala-at-tare","coordinates":{"lat":"7.0","long":"81.5"}},{"country":"lk","city":"Balabokka","coordinates":{"lat":"6.2333333","long":"80.0666667"}},{"country":"lk","city":"Balabowa","coordinates":{"lat":"7.15","long":"80.0"}},{"country":"lk","city":"Baladangolla","coordinates":{"lat":"7.2333333","long":"81.0666667"}},{"country":"lk","city":"Baladora Gurugoda","coordinates":{"lat":"7.6333333","long":"80.15"}},{"country":"lk","city":"Baladora Ihalagama","coordinates":{"lat":"7.65","long":"80.15"}},{"country":"lk","city":"Baladora Pahalagama","coordinates":{"lat":"7.65","long":"80.1333333"}},{"country":"lk","city":"Balagahagama","coordinates":{"lat":"7.6166667","long":"80.3333333"}},{"country":"lk","city":"Balagahatenna","coordinates":{"lat":"7.3333333","long":"80.7666667"}},{"country":"lk","city":"Balagahayaya Ihala","coordinates":{"lat":"7.65","long":"80.2"}},{"country":"lk","city":"Balagahayaya Pahala","coordinates":{"lat":"7.65","long":"80.1833333"}},{"country":"lk","city":"Balagala","coordinates":{"lat":"7.45","long":"80.4833333"}},{"country":"lk","city":"Balagala","coordinates":{"lat":"6.9333333","long":"80.9"}},{"country":"lk","city":"Balagalla","coordinates":{"lat":"7.0333333","long":"80.9333333"}},{"country":"lk","city":"Balagalla","coordinates":{"lat":"7.2333333","long":"80.0333333"}},{"country":"lk","city":"Balagammana","coordinates":{"lat":"7.4166667","long":"80.1166667"}},{"country":"lk","city":"Balagangoda","coordinates":{"lat":"6.7166667","long":"80.3333333"}},{"country":"lk","city":"Balagegoda","coordinates":{"lat":"6.0666667","long":"80.7833333"}},{"country":"lk","city":"Balagoda","coordinates":{"lat":"6.1166667","long":"80.2"}},{"country":"lk","city":"Balagolla","coordinates":{"lat":"7.2166667","long":"80.7833333"}},{"country":"lk","city":"Balagolla","coordinates":{"lat":"7.65","long":"80.1"}},{"country":"lk","city":"Balagolla","coordinates":{"lat":"7.1666667","long":"81.05"}},{"country":"lk","city":"Balagollagama","coordinates":{"lat":"8.1833333","long":"80.2166667"}},{"country":"lk","city":"Balagollagama","coordinates":{"lat":"7.75","long":"80.1"}},{"country":"lk","city":"Balagommana","coordinates":{"lat":"7.4166667","long":"80.1166667"}},{"country":"lk","city":"Balaharuwa","coordinates":{"lat":"7.1833333","long":"80.2166667"}},{"country":"lk","city":"Balaharuwa","coordinates":{"lat":"6.5666667","long":"81.05"}},{"country":"lk","city":"Balahinda","coordinates":{"lat":"7.4","long":"81.2666667"}},{"country":"lk","city":"Balahitiyawa","coordinates":{"lat":"7.5666667","long":"80.4"}},