[{"country":"mm","city":"Aba-wa","coordinates":{"lat":"17.65","long":"96.7333333"}},{"country":"mm","city":"Abaw","coordinates":{"lat":"15.25","long":"97.8166667"}},{"country":"mm","city":"Abazu","coordinates":{"lat":"17.6166667","long":"96.7333333"}},{"country":"mm","city":"Abegong","coordinates":{"lat":"27.2","long":"98.5"}},{"country":"mm","city":"Abeuk","coordinates":{"lat":"20.1166667","long":"93.9"}},{"country":"mm","city":"Abit","coordinates":{"lat":"16.265","long":"97.5530556"}},{"country":"mm","city":"Abok","coordinates":{"lat":"26.65","long":"98.15"}},{"country":"mm","city":"Abok","coordinates":{"lat":"15.25","long":"97.9"}},{"country":"mm","city":"Abya","coordinates":{"lat":"17.5","long":"96.7666667"}},{"country":"mm","city":"Abya Bode","coordinates":{"lat":"17.5166667","long":"96.7166667"}},{"country":"mm","city":"Abya Thaiktugon","coordinates":{"lat":"17.5","long":"96.7833333"}},{"country":"mm","city":"Abyauk","coordinates":{"lat":"16.6205556","long":"96.0455556"}},{"country":"mm","city":"Abyit","coordinates":{"lat":"16.4416667","long":"96.1916667"}},{"country":"mm","city":"Abyitkon","coordinates":{"lat":"16.4469444","long":"96.1833333"}},{"country":"mm","city":"Acha","coordinates":{"lat":"16.2166667","long":"95.7"}},{"country":"mm","city":"Achaw","coordinates":{"lat":"16.6666667","long":"95.65"}},{"country":"mm","city":"Achitchaung","coordinates":{"lat":"19.6166667","long":"93.8333333"}},{"country":"mm","city":"Achyika","coordinates":{"lat":"24.7166667","long":"96.0166667"}},{"country":"mm","city":"Ada","coordinates":{"lat":"17.5333333","long":"95.5"}},{"country":"mm","city":"Adalauk","coordinates":{"lat":"16.8666667","long":"94.9666667"}},{"country":"mm","city":"Adamagon","coordinates":{"lat":"16.9636111","long":"97.3436111"}},{"country":"mm","city":"Adama Thitpôk","coordinates":{"lat":"15.7833333","long":"94.9833333"}},{"country":"mm","city":"Adan","coordinates":{"lat":"26.1166667","long":"98.0666667"}},{"country":"mm","city":"Adanghpu","coordinates":{"lat":"27.4166667","long":"98.4666667"}},{"country":"mm","city":"Adaraw","coordinates":{"lat":"27.1666667","long":"98.5166667"}},{"country":"mm","city":"Adengri","coordinates":{"lat":"21.0666667","long":"92.6166667"}},{"country":"mm","city":"Adet-hngetthe","coordinates":{"lat":"20.8166667","long":"92.6"}},{"country":"mm","city":"Adetkyi","coordinates":{"lat":"19.4","long":"96.3666667"}},{"country":"mm","city":"Adinsung","coordinates":{"lat":"27.4","long":"98.2166667"}},{"country":"mm","city":"Adon","coordinates":{"lat":"12.5666667","long":"98.8"}},{"country":"mm","city":"Adu","coordinates":{"lat":"17.15","long":"96.6666667"}},{"country":"mm","city":"Adula","coordinates":{"lat":"27.1666667","long":"98.45"}},{"country":"mm","city":"Adun","coordinates":{"lat":"16.7166667","long":"95.85"}},{"country":"mm","city":"Adung Long","coordinates":{"lat":"28.1166667","long":"97.7"}},{"country":"mm","city":"Aeng","coordinates":{"lat":"19.7833333","long":"94.0333333"}},{"country":"mm","city":"Agadwin","coordinates":{"lat":"19.4833333","long":"93.6333333"}},{"country":"mm","city":"Agat","coordinates":{"lat":"16.5666667","long":"95.3166667"}},{"country":"mm","city":"Agayan","coordinates":{"lat":"16.6","long":"95.3333333"}},{"country":"mm","city":"Agegyi","coordinates":{"lat":"16.3333333","long":"95.8"}},{"country":"mm","city":"Agetu","coordinates":{"lat":"27.1833333","long":"98.45"}},{"country":"mm","city":"Agywezidônbweywa","coordinates":{"lat":"21.0","long":"92.6333333"}},{"country":"mm","city":"Ahauk","coordinates":{"lat":"16.5658333","long":"97.4113889"}},{"country":"mm","city":"Aheik","coordinates":{"lat":"16.7333333","long":"95.6166667"}},{"country":"mm","city":"Ahkail","coordinates":{"lat":"26.9333333","long":"98.2166667"}},{"country":"mm","city":"Ahkawhtawng","coordinates":{"lat":"26.7","long":"98.4333333"}},{"country":"mm","city":"Ahkran","coordinates":{"lat":"27.3666667","long":"98.1833333"}},{"country":"mm","city":"Ahlaikkon","coordinates":{"lat":"16.4583333","long":"97.7819444"}},{"country":"mm","city":"Ahlaing Myaukkin","coordinates":{"lat":"18.1166667","long":"96.6833333"}},{"country":"mm","city":"Ahlan","coordinates":{"lat":"17.2833333","long":"97.6333333"}},{"country":"mm","city":"Ahlaw","coordinates":{"lat":"24.0833333","long":"94.35"}},{"country":"mm","city":"Ahlele","coordinates":{"lat":"19.4666667","long":"94.95"}},{"country":"mm","city":"Ahlone","coordinates":{"lat":"16.7833333","long":"96.1166667"}},{"country":"mm","city":"A-hmaw-u","coordinates":{"lat":"22.35","long":"95.9833333"}},{"country":"mm","city":"Ahmu","coordinates":{"lat":"20.65","long":"94.6666667"}},{"country":"mm","city":"Ahnyinzôn","coordinates":{"lat":"11.6","long":"98.75"}},{"country":"mm","city":"Ahonwa","coordinates":{"lat":"17.3","long":"97.2333333"}},{"country":"mm","city":"Ahonwa-ashekon","coordinates":{"lat":"17.3","long":"97.25"}},{"country":"mm","city":"Ahpokhi","coordinates":{"lat":"17.6166667","long":"97.0166667"}},{"country":"mm","city":"Ahpyan","coordinates":{"lat":"16.8","long":"95.2166667"}},{"country":"mm","city":"Ahru","coordinates":{"lat":"21.9","long":"93.1666667"}},{"country":"mm","city":"Ahshan","coordinates":{"lat":"21.3833333","long":"92.8666667"}},{"country":"mm","city":"Ahtaung","coordinates":{"lat":"17.35","long":"95.3333333"}},{"country":"mm","city":"Ah Teing","coordinates":{"lat":"21.4333333","long":"93.1833333"}},{"country":"mm","city":"Ahtet-bade-kyun","coordinates":{"lat":"19.2833333","long":"93.8666667"}},{"country":"mm","city":"Ahtet Pho","coordinates":{"lat":"20.4833333","long":"93.9166667"}},{"country":"mm","city":"Ahtôkthe","coordinates":{"lat":"20.3333333","long":"92.95"}},{"country":"mm","city":"A-hu-chai","coordinates":{"lat":"23.2833333","long":"98.8166667"}},{"country":"mm","city":"Aibur","coordinates":{"lat":"22.3666667","long":"93.4333333"}},{"country":"mm","city":"Aie","coordinates":{"lat":"23.0833333","long":"98.1833333"}},{"country":"mm","city":"Aifang","coordinates":{"lat":"24.0333333","long":"98.6"}},{"country":"mm","city":"Ai-hkam","coordinates":{"lat":"20.7","long":"99.3166667"}},{"country":"mm","city":"Ai-hpa","coordinates":{"lat":"20.6833333","long":"99.3"}},{"country":"mm","city":"Aika","coordinates":{"lat":"22.1833333","long":"93.6166667"}},{"country":"mm","city":"Aikhla","coordinates":{"lat":"17.6333333","long":"95.7"}},{"country":"mm","city":"Aikma","coordinates":{"lat":"23.9833333","long":"96.05"}},{"country":"mm","city":"Ai-kyaw","coordinates":{"lat":"23.35","long":"98.9333333"}},{"country":"mm","city":"Ai-kyawpa","coordinates":{"lat":"23.2666667","long":"98.75"}},{"country":"mm","city":"Aikyeng","coordinates":{"lat":"22.7166667","long":"99.25"}},{"country":"mm","city":"Aikywa","coordinates":{"lat":"22.8166667","long":"94.8833333"}},{"country":"mm","city":"Ailongwanham","coordinates":{"lat":"20.5","long":"97.4833333"}},{"country":"mm","city":"Aimagan","coordinates":{"lat":"19.75","long":"94.6"}},{"country":"mm","city":"Ainda","coordinates":{"lat":"25.6333333","long":"95.8666667"}},{"country":"mm","city":"Aindin","coordinates":{"lat":"20.2666667","long":"92.95"}},{"country":"mm","city":"Aingbaukkon","coordinates":{"lat":"20.6333333","long":"95.2166667"}},{"country":"mm","city":"Aingbaukkyi","coordinates":{"lat":"22.85","long":"95.6666667"}},{"country":"mm","city":"Aingbaunggyaung","coordinates":{"lat":"22.4333333","long":"95.1"}},{"country":"mm","city":"Aing Baung Yaung","coordinates":{"lat":"22.4333333","long":"95.1"}},{"country":"mm","city":"Aingbok","coordinates":{"lat":"20.4666667","long":"95.9833333"}},{"country":"mm","city":"Aingbu","coordinates":{"lat":"19.5","long":"94.1333333"}},{"country":"mm","city":"Aingbyaunggyaung","coordinates":{"lat":"22.9","long":"95.5"}},{"country":"mm","city":"Aingdaing","coordinates":{"lat":"22.1166667","long":"96.0166667"}},{"country":"mm","city":"Aingdama","coordinates":{"lat":"22.15","long":"95.7166667"}},{"country":"mm","city":"Aingdo","coordinates":{"lat":"17.6833333","long":"95.4"}},{"country":"mm","city":"Aingdo","coordinates":{"lat":"20.15","long":"95.3666667"}},{"country":"mm","city":"Aingdo","coordinates":{"lat":"20.3666667","long":"95.9333333"}},{"country":"mm","city":"Aingdon","coordinates":{"lat":"18.1333333","long":"96.4666667"}},{"country":"mm","city":"Ainggalaw","coordinates":{"lat":"17.9333333","long":"95.2"}},{"country":"mm","city":"Ainggin","coordinates":{"lat":"21.0833333","long":"94.3833333"}},{"country":"mm","city":"Ainggo","coordinates":{"lat":"15.95","long":"94.4"}},{"country":"mm","city":"Ainggon","coordinates":{"lat":"18.6166667","long":"95.5"}},{"country":"mm","city":"Ainggye","coordinates":{"lat":"19.6833333","long":"96.1166667"}},{"country":"mm","city":"Ainggye Taung","coordinates":{"lat":"19.9","long":"96.6166667"}},{"country":"mm","city":"Ainggyi","coordinates":{"lat":"17.5833333","long":"95.5"}},{"country":"mm","city":"Ainggyi","coordinates":{"lat":"20.7666667","long":"94.8666667"}},{"country":"mm","city":"Ainggyi","coordinates":{"lat":"21.2166667","long":"95.1333333"}},{"country":"mm","city":"Ainggyi","coordinates":{"lat":"23.7","long":"95.4166667"}},{"country":"mm","city":"Ainggyi","coordinates":{"lat":"16.7697222","long":"96.0286111"}},{"country":"mm","city":"Ainggyi East","coordinates":{"lat":"21.2166667","long":"95.1333333"}},{"country":"mm","city":"Ainggyigon","coordinates":{"lat":"20.1333333","long":"95.15"}},{"country":"mm","city":"Ainggyikon","coordinates":{"lat":"20.1333333","long":"95.15"}},{"country":"mm","city":"Ainggyile Okshitkon","coordinates":{"lat":"20.7666667","long":"95.9833333"}},{"country":"mm","city":"Ainggyi West","coordinates":{"lat":"21.2166667","long":"95.1166667"}},{"country":"mm","city":"Aingkalaung","coordinates":{"lat":"17.3833333","long":"95.8166667"}},{"country":"mm","city":"Aingkye","coordinates":{"lat":"21.3333333","long":"94.3333333"}},{"country":"mm","city":"Aingma","coordinates":{"lat":"17.2","long":"95.3"}},{"country":"mm","city":"Aingma","coordinates":{"lat":"20.1166667","long":"94.6333333"}},{"country":"mm","city":"Aingma","coordinates":{"lat":"20.8666667","long":"95.45"}},{"country":"mm","city":"Aingma","coordinates":{"lat":"22.0333333","long":"94.5666667"}},{"country":"mm","city":"Aingmagyi","coordinates":{"lat":"20.65","long":"95.5666667"}},{"country":"mm","city":"Aingmayo","coordinates":{"lat":"21.15","long":"95.6333333"}},{"country":"mm","city":"Aingpu","coordinates":{"lat":"19.5","long":"94.1333333"}},{"country":"mm","city":"Aingshe","coordinates":{"lat":"22.5","long":"95.1833333"}},{"country":"mm","city":"Aingshe","coordinates":{"lat":"14.45","long":"98.1"}},{"country":"mm","city":"Aingtha","coordinates":{"lat":"21.1166667","long":"95.95"}},{"country":"mm","city":"Aingtha","coordinates":{"lat":"22.6333333","long":"94.7666667"}},{"country":"mm","city":"Aingthabyu","coordinates":{"lat":"17.5333333","long":"95.1666667"}},{"country":"mm","city":"Aingwaing","coordinates":{"lat":"20.05","long":"93.85"}},{"country":"mm","city":"Aingwin","coordinates":{"lat":"19.1833333","long":"95.7333333"}},{"country":"mm","city":"Aingwun","coordinates":{"lat":"20.2","long":"93.2333333"}},{"country":"mm","city":"Aingya","coordinates":{"lat":"22.4666667","long":"95.3333333"}},{"country":"mm","city":"Aingya","coordinates":{"lat":"20.6333333","long":"96.6833333"}},{"country":"mm","city":"Aingywa","coordinates":{"lat":"20.7","long":"95.1833333"}},{"country":"mm","city":"Aingzauk","coordinates":{"lat":"17.35","long":"94.9666667"}},{"country":"mm","city":"Aingzauk","coordinates":{"lat":"19.7666667","long":"96.25"}},{"country":"mm","city":"Aingzauk","coordinates":{"lat":"19.0166667","long":"95.3833333"}},{"country":"mm","city":"Aininagan","coordinates":{"lat":"19.75","long":"94.6"}},{"country":"mm","city":"Ainshebyin","coordinates":{"lat":"13.3","long":"98.5833333"}},{"country":"mm","city":"Ai-nu","coordinates":{"lat":"20.9072222","long":"100.3966667"}},{"country":"mm","city":"Ai-pan","coordinates":{"lat":"20.1333333","long":"99.3166667"}},{"country":"mm","city":"Aipha","coordinates":{"lat":"23.4666667","long":"93.7666667"}},{"country":"mm","city":"Aipong","coordinates":{"lat":"22.7333333","long":"97.0833333"}},{"country":"mm","city":"Aisih","coordinates":{"lat":"23.9666667","long":"93.6166667"}},{"country":"mm","city":"Ai-to","coordinates":{"lat":"20.3366667","long":"99.2961111"}},{"country":"mm","city":"Aitsa","coordinates":{"lat":"21.1","long":"93.4833333"}},{"country":"mm","city":"Ai-tzu-tou","coordinates":{"lat":"23.5166667","long":"98.7833333"}},{"country":"mm","city":"Aive","coordinates":{"lat":"22.65","long":"93.7333333"}},{"country":"mm","city":"Aju","coordinates":{"lat":"25.5333333","long":"98.0166667"}},{"country":"mm","city":"Akalaw","coordinates":{"lat":"16.1383333","long":"97.9783333"}},{"country":"mm","city":"Akan","coordinates":{"lat":"15.3","long":"97.9666667"}},{"country":"mm","city":"Akauktaung","coordinates":{"lat":"25.05","long":"97.0833333"}},{"country":"mm","city":"Akaw","coordinates":{"lat":"16.4","long":"95.5166667"}},{"country":"mm","city":"Ake","coordinates":{"lat":"16.8166667","long":"94.85"}},{"country":"mm","city":"Akechaungwa","coordinates":{"lat":"16.2","long":"95.85"}},{"country":"mm","city":"Akegyaungwa","coordinates":{"lat":"16.2","long":"95.85"}},{"country":"mm","city":"Akegyi","coordinates":{"lat":"17.2833333","long":"95.3333333"}},{"country":"mm","city":"Ako","coordinates":{"lat":"21.1","long":"94.1333333"}},{"country":"mm","city":"Akuai Chai","coordinates":{"lat":"24.1","long":"98.7333333"}},{"country":"mm","city":"Akun","coordinates":{"lat":"16.1666667","long":"97.7166667"}},{"country":"mm","city":"Akwe-chai","coordinates":{"lat":"23.2833333","long":"98.7666667"}},{"country":"mm","city":"Akwi","coordinates":{"lat":"17.1166667","long":"95.4833333"}},{"country":"mm","city":"Akyab","coordinates":{"lat":"20.15","long":"92.9"}},{"country":"mm","city":"Akyagwin","coordinates":{"lat":"17.9","long":"95.1166667"}},{"country":"mm","city":"Akya-in","coordinates":{"lat":"18.4666667","long":"96.4666667"}},{"country":"mm","city":"Akyat-in","coordinates":{"lat":"18.4666667","long":"96.4666667"}},{"country":"mm","city":"Akyauk","coordinates":{"lat":"25.7666667","long":"98.2333333"}},{"country":"mm","city":"Akyaw","coordinates":{"lat":"17.2333333","long":"95.5333333"}},{"country":"mm","city":"Akyawkhi","coordinates":{"lat":"15.8833333","long":"98.5333333"}},{"country":"mm","city":"Akye","coordinates":{"lat":"25.3","long":"97.2666667"}},{"country":"mm","city":"Akyekadin","coordinates":{"lat":"21.1666667","long":"94.1666667"}},{"country":"mm","city":"Akyiban","coordinates":{"lat":"21.6666667","long":"94.1666667"}},{"country":"mm","city":"Akywesi","coordinates":{"lat":"21.0","long":"92.6333333"}},{"country":"mm","city":"Akywesi Htonbweywa","coordinates":{"lat":"21.0","long":"92.6333333"}},{"country":"mm","city":"Alagon","coordinates":{"lat":"16.7458333","long":"96.6802778"}},{"country":"mm","city":"Alagyun","coordinates":{"lat":"24.4","long":"96.0666667"}},{"country":"mm","city":"Alaichaung","coordinates":{"lat":"18.9833333","long":"94.9333333"}},{"country":"mm","city":"Alaingni","coordinates":{"lat":"17.2666667","long":"96.35"}},{"country":"mm","city":"Alaingni-atet","coordinates":{"lat":"17.3","long":"96.3666667"}},{"country":"mm","city":"Alam","coordinates":{"lat":"25.5666667","long":"97.5"}},{"country":"mm","city":"Alan","coordinates":{"lat":"16.65","long":"95.65"}},{"country":"mm","city":"Alanbalut","coordinates":{"lat":"16.15","long":"95.6166667"}},{"country":"mm","city":"Alanbe","coordinates":{"lat":"20.25","long":"94.8333333"}},{"country":"mm","city":"Alanbe","coordinates":{"lat":"21.2166667","long":"95.8333333"}},{"country":"mm","city":"Alanbo","coordinates":{"lat":"24.95","long":"96.5"}},{"country":"mm","city":"Alanbya","coordinates":{"lat":"17.2833333","long":"96.8833333"}},{"country":"mm","city":"Alandaing","coordinates":{"lat":"15.7833333","long":"95.5"}},{"country":"mm","city":"Alangabo","coordinates":{"lat":"17.1166667","long":"96.3333333"}},{"country":"mm","city":"Alangdunhku","coordinates":{"lat":"27.2833333","long":"97.7"}},{"country":"mm","city":"Alangon","coordinates":{"lat":"17.8666667","long":"95.6"}},{"country":"mm","city":"Alangon","coordinates":{"lat":"16.7458333","long":"96.6802778"}},{"country":"mm","city":"Alanwa","coordinates":{"lat":"16.5833333","long":"95.5"}},{"country":"mm","city":"Alanzu","coordinates":{"lat":"18.1166667","long":"95.7833333"}},{"country":"mm","city":"Alat-ywa","coordinates":{"lat":"16.6813889","long":"96.3169444"}},{"country":"mm","city":"Alaung","coordinates":{"lat":"21.9333333","long":"96.0166667"}},{"country":"mm","city":"Alawang","coordinates":{"lat":"26.7166667","long":"98.4"}},{"country":"mm","city":"Alawbum","coordinates":{"lat":"24.55","long":"97.5333333"}},{"country":"mm","city":"Alawchi","coordinates":{"lat":"19.1166667","long":"96.6333333"}},{"country":"mm","city":"Alawngbauk","coordinates":{"lat":"20.4333333","long":"96.5666667"}},{"country":"mm","city":"Alawpum","coordinates":{"lat":"24.55","long":"97.5333333"}},{"country":"mm","city":"Ale","coordinates":{"lat":"18.0","long":"96.5"}},{"country":"mm","city":"Alèban","coordinates":{"lat":"20.4333333","long":"94.35"}},{"country":"mm","city":"Alebo","coordinates":{"lat":"19.8833333","long":"95.2666667"}},{"country":"mm","city":"Alebôn","coordinates":{"lat":"20.5","long":"94.2333333"}},{"country":"mm","city":"Alebon","coordinates":{"lat":"22.1833333","long":"96.1166667"}},{"country":"mm","city":"Alechaung","coordinates":{"lat":"19.9833333","long":"93.7166667"}},{"country":"mm","city":"Alechaung","coordinates":{"lat":"16.95","long":"95.7"}},{"country":"mm","city":"Alechaung","coordinates":{"lat":"18.9833333","long":"94.9333333"}},{"country":"mm","city":"Alechaung","coordinates":{"lat":"12.6166667","long":"98.8166667"}},{"country":"mm","city":"Aledaw","coordinates":{"lat":"23.8833333","long":"96.1166667"}},{"country":"mm","city":"Alègan","coordinates":{"lat":"19.5333333","long":"95.1833333"}},{"country":"mm","city":"Alegan","coordinates":{"lat":"21.0","long":"96.15"}},{"country":"mm","city":"Alegan","coordinates":{"lat":"24.3166667","long":"95.9166667"}},{"country":"mm","city":"Alègin","coordinates":{"lat":"18.2","long":"96.5666667"}},{"country":"mm","city":"Alegôn","coordinates":{"lat":"16.5333333","long":"94.2666667"}},{"country":"mm","city":"Alegon","coordinates":{"lat":"20.4833333","long":"95.0666667"}},{"country":"mm","city":"Alegon","coordinates":{"lat":"20.35","long":"96.1333333"}},{"country":"mm","city":"Alegon","coordinates":{"lat":"18.0","long":"95.6833333"}},{"country":"mm","city":"Alegon","coordinates":{"lat":"23.5666667","long":"94.45"}},{"country":"mm","city":"Alègu","coordinates":{"lat":"20.2833333","long":"94.3333333"}},{"country":"mm","city":"Alegyaung","coordinates":{"lat":"20.45","long":"93.1"}},{"country":"mm","city":"Alegyaung","coordinates":{"lat":"16.1166667","long":"95.3333333"}},{"country":"mm","city":"Alegyaung","coordinates":{"lat":"18.8","long":"96.7"}},{"country":"mm","city":"Alegyaung","coordinates":{"lat":"19.3666667","long":"94.9"}},{"country":"mm","city":"Alegyaung","coordinates":{"lat":"19.5","long":"96.6166667"}},{"country":"mm","city":"Alegyaung","coordinates":{"lat":"21.0","long":"96.5666667"}},{"country":"mm","city":"Alegyaung","coordinates":{"lat":"16.4205556","long":"96.2127778"}},{"country":"mm","city":"Alegyaung Atet","coordinates":{"lat":"19.4833333","long":"96.5833333"}},{"country":"mm","city":"Alegyaung Auk","coordinates":{"lat":"19.1666667","long":"96.5833333"}},{"country":"mm","city":"Alegyaung Auk","coordinates":{"lat":"19.4833333","long":"96.5833333"}},{"country":"mm","city":"Alègyaung-ywa","coordinates":{"lat":"21.1166667","long":"92.5666667"}},{"country":"mm","city":"Alegyun","coordinates":{"lat":"19.5333333","long":"93.8333333"}},{"country":"mm","city":"Alegyun","coordinates":{"lat":"20.6166667","long":"94.4666667"}},{"country":"mm","city":"Alegyun","coordinates":{"lat":"19.5333333","long":"96.3"}},{"country":"mm","city":"Alegyun","coordinates":{"lat":"23.95","long":"95.7333333"}},{"country":"mm","city":"Ale-hman","coordinates":{"lat":"11.3","long":"98.55"}},{"country":"mm","city":"Alein Ale","coordinates":{"lat":"17.1166667","long":"95.9333333"}},{"country":"mm","city":"Ale-in","coordinates":{"lat":"17.15","long":"96.1166667"}},{"country":"mm","city":"Ale Kalaywa","coordinates":{"lat":"20.9333333","long":"92.3333333"}},{"country":"mm","city":"Ale Kodu","coordinates":{"lat":"19.9","long":"93.9833333"}},{"country":"mm","city":"Alekon","coordinates":{"lat":"23.6","long":"95.6666667"}},{"country":"mm","city":"Ale-kon","coordinates":{"lat":"23.8333333","long":"95.75"}},{"country":"mm","city":"Alekwin","coordinates":{"lat":"12.1666667","long":"98.8166667"}},{"country":"mm","city":"Ale Kyaukkhôk","coordinates":{"lat":"19.7","long":"94.4833333"}},{"country":"mm","city":"Ale Kyidaung","coordinates":{"lat":"19.6833333","long":"94.2166667"}},{"country":"mm","city":"Ale Linkôn","coordinates":{"lat":"19.7","long":"94.0666667"}},{"country":"mm","city":"Ale Mahtein","coordinates":{"lat":"19.7666667","long":"94.1166667"}},{"country":"mm","city":"Ale-man Ywa","coordinates":{"lat":"11.3","long":"98.55"}},{"country":"mm","city":"Alè Mèkane","coordinates":{"lat":"16.6666667","long":"98.4166667"}},{"country":"mm","city":"Ale Minyon","coordinates":{"lat":"19.7666667","long":"94.1833333"}},{"country":"mm","city":"Alèmyaung","coordinates":{"lat":"18.1","long":"96.5"}},{"country":"mm","city":"Alemyaung","coordinates":{"lat":"20.5166667","long":"96.9333333"}},{"country":"mm","city":"Ale Ngapye","coordinates":{"lat":"19.9","long":"94.2"}},{"country":"mm","city":"Ale-on","coordinates":{"lat":"27.7","long":"98.1166667"}},{"country":"mm","city":"Ale Palaung","coordinates":{"lat":"21.7833333","long":"96.9166667"}},{"country":"mm","city":"Alesengyaung","coordinates":{"lat":"18.7333333","long":"96.7"}},{"country":"mm","city":"Alèsho","coordinates":{"lat":"22.85","long":"95.6833333"}},{"country":"mm","city":"Alè Su","coordinates":{"lat":"23.9833333","long":"95.4166667"}},{"country":"mm","city":"Alethangvaw","coordinates":{"lat":"20.6833333","long":"92.4333333"}},{"country":"mm","city":"Alethangyaw","coordinates":{"lat":"20.6833333","long":"92.4333333"}},{"country":"mm","city":"Alethaung","coordinates":{"lat":"21.8833333","long":"95.5666667"}},{"country":"mm","city":"Ale Tinkang","coordinates":{"lat":"20.8166667","long":"93.4333333"}},{"country":"mm","city":"Aletu","coordinates":{"lat":"25.3","long":"96.4666667"}},{"country":"mm","city":"Alet Yungyaung","coordinates":{"lat":"20.7333333","long":"93.0333333"}},{"country":"mm","city":"Ale Wingon","coordinates":{"lat":"16.8816667","long":"96.4847222"}},{"country":"mm","city":"Aleyegyaw","coordinates":{"lat":"16.2","long":"95.05"}},{"country":"mm","city":"Ale-ywa","coordinates":{"lat":"17.6","long":"94.5833333"}},{"country":"mm","city":"Aleywa","coordinates":{"lat":"18.55","long":"94.3333333"}},{"country":"mm","city":"Ale-ywa","coordinates":{"lat":"20.0","long":"93.95"}},{"country":"mm","city":"Aleywa","coordinates":{"lat":"20.75","long":"93.2"}},{"country":"mm","city":"Aleywa","coordinates":{"lat":"17.7166667","long":"95.35"}},{"country":"mm","city":"Ale-ywa","coordinates":{"lat":"16.8541667","long":"97.8352778"}},{"country":"mm","city":"Ale-ywa","coordinates":{"lat":"19.0","long":"94.9333333"}},{"country":"mm","city":"Aleywa","coordinates":{"lat":"19.1","long":"95.1166667"}},{"country":"mm","city":"Aleywa","coordinates":{"lat":"20.7666667","long":"95.7833333"}},{"country":"mm","city":"Alèywa","coordinates":{"lat":"17.9166667","long":"96.7"}},{"country":"mm","city":"Aleywa","coordinates":{"lat":"22.0","long":"94.9666667"}},{"country":"mm","city":"Ale-ywa","coordinates":{"lat":"24.3166667","long":"96.5"}},{"country":"mm","city":"Ale-ywa","coordinates":{"lat":"16.75","long":"97.45"}},{"country":"mm","city":"Ale-ywa","coordinates":{"lat":"16.3247222","long":"96.1119444"}},{"country":"mm","city":"Alezu","coordinates":{"lat":"17.0166667","long":"95.5333333"}},{"country":"mm","city":"Alezu","coordinates":{"lat":"22.4333333","long":"95.9833333"}},{"country":"mm","city":"Alezu","coordinates":{"lat":"23.9166667","long":"95.7"}},{"country":"mm","city":"Aligyaung","coordinates":{"lat":"21.1166667","long":"92.5666667"}},{"country":"mm","city":"Alimdam","coordinates":{"lat":"28.1666667","long":"97.6833333"}},{"country":"mm","city":"Alinchein","coordinates":{"lat":"19.3","long":"93.8666667"}},{"country":"mm","city":"Alingkang","coordinates":{"lat":"27.7666667","long":"98.0"}},{"country":"mm","city":"Ali-ywa","coordinates":{"lat":"16.8541667","long":"97.8352778"}},{"country":"mm","city":"Allagappa","coordinates":{"lat":"21.9166667","long":"95.5"}},{"country":"mm","city":"Allanmyo","coordinates":{"lat":"19.3666667","long":"95.2166667"}},{"country":"mm","city":"Alodawya","coordinates":{"lat":"18.9833333","long":"95.4166667"}},{"country":"mm","city":"Alôn","coordinates":{"lat":"21.7333333","long":"94.9166667"}},{"country":"mm","city":"Alon","coordinates":{"lat":"22.2","long":"95.0833333"}},{"country":"mm","city":"Al-tzu-tou","coordinates":{"lat":"23.5","long":"98.7666667"}},{"country":"mm","city":"Alu-anauk","coordinates":{"lat":"17.25","long":"97.15"}},{"country":"mm","city":"Alugale","coordinates":{"lat":"17.2666667","long":"97.1666667"}},{"country":"mm","city":"Alugyi","coordinates":{"lat":"17.2833333","long":"97.1666667"}},{"country":"mm","city":"Alun","coordinates":{"lat":"25.9","long":"97.55"}},{"country":"mm","city":"Alyne","coordinates":{"lat":"11.15","long":"98.7333333"}},{"country":"mm","city":"Ama","coordinates":{"lat":"15.8","long":"95.2833333"}},{"country":"mm","city":"A-magan","coordinates":{"lat":"23.8833333","long":"95.7166667"}},{"country":"mm","city":"Amarapura","coordinates":{"lat":"21.9","long":"96.05"}},{"country":"mm","city":"Amarapura Hmandan","coordinates":{"lat":"21.9","long":"96.05"}},{"country":"mm","city":"Amatgyigon","coordinates":{"lat":"24.4666667","long":"96.7666667"}},{"country":"mm","city":"Amaukkon","coordinates":{"lat":"17.2","long":"95.9333333"}},{"country":"mm","city":"Amaukwe","coordinates":{"lat":"17.1833333","long":"95.9333333"}},{"country":"mm","city":"Amaw","coordinates":{"lat":"18.8333333","long":"94.0833333"}},{"country":"mm","city":"Amawchok","coordinates":{"lat":"16.3833333","long":"95.5333333"}},{"country":"mm","city":"Amayabuya","coordinates":{"lat":"21.9","long":"96.05"}},{"country":"mm","city":"Amayadaung","coordinates":{"lat":"19.4166667","long":"96.5"}},{"country":"mm","city":"Ame-gin","coordinates":{"lat":"20.3666667","long":"92.95"}},{"country":"mm","city":"Amegon","coordinates":{"lat":"18.55","long":"96.5"}},{"country":"mm","city":"Ameikywa","coordinates":{"lat":"20.7","long":"94.0666667"}},{"country":"mm","city":"Amekhin","coordinates":{"lat":"20.3666667","long":"92.95"}},{"country":"mm","city":"Amherst","coordinates":{"lat":"22.55","long":"96.0"}},{"country":"mm","city":"Amherst","coordinates":{"lat":"16.08","long":"97.5675"}},{"country":"mm","city":"Amila","coordinates":{"lat":"21.1166667","long":"92.5"}},{"country":"mm","city":"Amimi","coordinates":{"lat":"25.55","long":"94.9166667"}},{"country":"mm","city":"Amlaung","coordinates":{"lat":"21.35","long":"93.9"}},{"country":"mm","city":"Ammawhpai","coordinates":{"lat":"20.65","long":"97.4833333"}},{"country":"mm","city":"Amtuila","coordinates":{"lat":"21.3666667","long":"92.2833333"}},{"country":"mm","city":"Amya","coordinates":{"lat":"13.8166667","long":"99.0"}},{"country":"mm","city":"Amyaunggan","coordinates":{"lat":"20.7","long":"95.0166667"}},{"country":"mm","city":"Amyaunggon","coordinates":{"lat":"20.7","long":"95.0166667"}},{"country":"mm","city":"Amyet","coordinates":{"lat":"17.55","long":"95.6833333"}},{"country":"mm","city":"Amyethtwet","coordinates":{"lat":"19.9","long":"93.45"}},{"country":"mm","city":"Amyin","coordinates":{"lat":"21.9333333","long":"95.15"}},{"country":"mm","city":"Amyingyun","coordinates":{"lat":"20.3","long":"92.8833333"}},{"country":"mm","city":"Anachaung","coordinates":{"lat":"12.2833333","long":"99.0166667"}},{"country":"mm","city":"Anaingpun","coordinates":{"lat":"17.1833333","long":"97.2"}},{"country":"mm","city":"An","coordinates":{"lat":"19.7833333","long":"94.0333333"}},{"country":"mm","city":"Ananbaw","coordinates":{"lat":"18.2333333","long":"96.6666667"}},{"country":"mm","city":"Ananbin","coordinates":{"lat":"16.7963889","long":"97.4730556"}},{"country":"mm","city":"Ananbingon","coordinates":{"lat":"16.9","long":"97.5"}},{"country":"mm","city":"Anangôn","coordinates":{"lat":"17.2","long":"94.85"}},{"country":"mm","city":"Anankwin","coordinates":{"lat":"15.6833333","long":"97.9833333"}},{"country":"mm","city":"Anaukbet","coordinates":{"lat":"19.9833333","long":"93.8333333"}},{"country":"mm","city":"Anauk Gangaw","coordinates":{"lat":"22.15","long":"94.1166667"}},{"country":"mm","city":"Anauk Kabyu","coordinates":{"lat":"21.15","long":"94.7166667"}},{"country":"mm","city":"Anaukkahtaing","coordinates":{"lat":"12.1166667","long":"98.9166667"}},{"country":"mm","city":"Anaukkôn","coordinates":{"lat":"22.55","long":"94.85"}},{"country":"mm","city":"Anauk Manan","coordinates":{"lat":"20.8","long":"93.65"}},{"country":"mm","city":"Anauk Myinhlut","coordinates":{"lat":"20.6166667","long":"92.5166667"}},{"country":"mm","city":"Anaukpyin","coordinates":{"lat":"20.4","long":"92.7833333"}},{"country":"mm","city":"Anauktaw","coordinates":{"lat":"21.3333333","long":"94.8"}},{"country":"mm","city":"Anauktaw","coordinates":{"lat":"21.7833333","long":"95.6666667"}},{"country":"mm","city":"Anauk Wunbade","coordinates":{"lat":"21.7333333","long":"96.0166667"}},{"country":"mm","city":"Anauk-ywa","coordinates":{"lat":"18.9833333","long":"93.75"}},{"country":"mm","city":"Anawrang","coordinates":{"lat":"26.9","long":"98.3833333"}},{"country":"mm","city":"Anbari","coordinates":{"lat":"20.1666667","long":"92.8666667"}},{"country":"mm","city":"Andaing","coordinates":{"lat":"21.1833333","long":"94.9666667"}},{"country":"mm","city":"Andaw","coordinates":{"lat":"18.4666667","long":"94.3833333"}},{"country":"mm","city":"Andin","coordinates":{"lat":"15.35","long":"97.7666667"}},{"country":"mm","city":"Anein","coordinates":{"lat":"21.4","long":"94.2166667"}},{"country":"mm","city":"Anein","coordinates":{"lat":"21.5333333","long":"95.3666667"}},{"country":"mm","city":"Anein","coordinates":{"lat":"21.8333333","long":"95.1666667"}},{"country":"mm","city":"Aneintaunggyun","coordinates":{"lat":"21.5166667","long":"95.3666667"}},{"country":"mm","city":"Anga","coordinates":{"lat":"21.0166667","long":"92.65"}},{"country":"mm","city":"Angdung","coordinates":{"lat":"25.6","long":"96.6"}},{"country":"mm","city":"Anghkak","coordinates":{"lat":"21.9333333","long":"99.9166667"}},{"country":"mm","city":"Angim-loisah","coordinates":{"lat":"21.3166667","long":"93.55"}},{"country":"mm","city":"Ang-nu","coordinates":{"lat":"21.8666667","long":"97.75"}},{"country":"mm","city":"Angteung","coordinates":{"lat":"22.2166667","long":"97.8166667"}},{"country":"mm","city":"Angtung","coordinates":{"lat":"21.5833333","long":"92.7833333"}},{"country":"mm","city":"A-ngu","coordinates":{"lat":"16.6194444","long":"96.3222222"}},{"country":"mm","city":"Angyi","coordinates":{"lat":"20.7","long":"94.15"}},{"country":"mm","city":"An Htang","coordinates":{"lat":"21.4166667","long":"93.2166667"}},{"country":"mm","city":"Anhtwei","coordinates":{"lat":"21.6333333","long":"93.2166667"}},{"country":"mm","city":"Aniang","coordinates":{"lat":"23.5166667","long":"93.6333333"}},{"country":"mm","city":"Anin","coordinates":{"lat":"15.6666667","long":"97.7666667"}},{"country":"mm","city":"Anisakan","coordinates":{"lat":"21.9666667","long":"96.4166667"}},{"country":"mm","city":"An Kang","coordinates":{"lat":"21.25","long":"93.0333333"}},{"country":"mm","city":"An Kang","coordinates":{"lat":"20.8833333","long":"98.0333333"}},{"country":"mm","city":"Ankare","coordinates":{"lat":"16.4111111","long":"97.8522222"}},{"country":"mm","city":"Ankaung","coordinates":{"lat":"16.4666667","long":"98.2166667"}},{"country":"mm","city":"Ankhe","coordinates":{"lat":"15.8","long":"97.7333333"}},{"country":"mm","city":"Anlung","coordinates":{"lat":"23.7333333","long":"93.7666667"}},{"country":"mm","city":"Anngedaung","coordinates":{"lat":"21.3166667","long":"94.3833333"}},{"country":"mm","city":"Anogyaunggale","coordinates":{"lat":"16.6311111","long":"96.2116667"}},{"country":"mm","city":"Anphagale","coordinates":{"lat":"16.5166667","long":"98.25"}},{"country":"mm","city":"Anphagyi","coordinates":{"lat":"16.5","long":"98.2666667"}},{"country":"mm","city":"Antare","coordinates":{"lat":"21.3666667","long":"93.1166667"}},{"country":"mm","city":"Antawsai","coordinates":{"lat":"23.0","long":"98.2"}},{"country":"mm","city":"An Teing","coordinates":{"lat":"21.15","long":"93.2"}},{"country":"mm","city":"Antu","coordinates":{"lat":"20.9166667","long":"95.8"}},{"country":"mm","city":"Antwe","coordinates":{"lat":"16.2833333","long":"98.2333333"}},{"country":"mm","city":"Anyaban","coordinates":{"lat":"21.6833333","long":"94.2333333"}},{"country":"mm","city":"Anyadan","coordinates":{"lat":"17.2833333","long":"95.3166667"}},{"country":"mm","city":"Anyadan","coordinates":{"lat":"17.9","long":"95.7166667"}},{"country":"mm","city":"Anyadaw","coordinates":{"lat":"21.65","long":"95.0833333"}},{"country":"mm","city":"Anyakadin","coordinates":{"lat":"21.1833333","long":"94.15"}},{"country":"mm","city":"Anyasu","coordinates":{"lat":"16.5833333","long":"95.25"}},{"country":"mm","city":"Anyawcon","coordinates":{"lat":"16.8836111","long":"97.5302778"}},{"country":"mm","city":"Anyawkon","coordinates":{"lat":"16.8836111","long":"97.5302778"}},{"country":"mm","city":"Anyazu","coordinates":{"lat":"16.5833333","long":"95.25"}},{"country":"mm","city":"Anyazu","coordinates":{"lat":"17.2833333","long":"96.7333333"}},{"country":"mm","city":"Anyazuywa","coordinates":{"lat":"18.7666667","long":"96.4333333"}},{"country":"mm","city":"Anyin","coordinates":{"lat":"12.3","long":"98.7166667"}},{"country":"mm","city":"Anyindaung","coordinates":{"lat":"20.8666667","long":"93.1166667"}},{"country":"mm","city":"Anyon","coordinates":{"lat":"21.7666667","long":"95.4"}},{"country":"mm","city":"Aonbaw","coordinates":{"lat":"26.4166667","long":"95.3666667"}},{"country":"mm","city":"Apadawywa","coordinates":{"lat":"20.7","long":"94.0166667"}},{"country":"mm","city":"Apaing","coordinates":{"lat":"17.2","long":"96.55"}},{"country":"mm","city":"Apala","coordinates":{"lat":"17.75","long":"96.8333333"}},{"country":"mm","city":"Apalon","coordinates":{"lat":"15.4666667","long":"98.2333333"}},{"country":"mm","city":"Apaukkyi","coordinates":{"lat":"23.8","long":"96.05"}},{"country":"mm","city":"Apaukwa","coordinates":{"lat":"20.7166667","long":"92.95"}},{"country":"mm","city":"Apaumka-taung","coordinates":{"lat":"23.9333333","long":"98.2166667"}},{"country":"mm","city":"Apaung","coordinates":{"lat":"16.2","long":"95.7166667"}},{"country":"mm","city":"Aphaung","coordinates":{"lat":"16.6833333","long":"96.6333333"}},{"country":"mm","city":"Apinhnase","coordinates":{"lat":"17.0833333","long":"95.05"}},{"country":"mm","city":"Apoki","coordinates":{"lat":"17.6166667","long":"97.0166667"}},{"country":"mm","city":"Apongdam","coordinates":{"lat":"27.6333333","long":"98.2666667"}},{"country":"mm","city":"Apwagan","coordinates":{"lat":"16.7794444","long":"96.6569444"}},{"country":"mm","city":"Apyauk","coordinates":{"lat":"17.3833333","long":"95.7"}},{"country":"mm","city":"Apyauk","coordinates":{"lat":"16.6205556","long":"96.0455556"}},{"country":"mm","city":"Apyin Nangat","coordinates":{"lat":"17.9","long":"95.45"}},{"country":"mm","city":"Apyinthebyu","coordinates":{"lat":"16.9333333","long":"95.9666667"}},{"country":"mm","city":"Arahku","coordinates":{"lat":"26.8666667","long":"98.15"}},{"country":"mm","city":"Araitho","coordinates":{"lat":"21.2","long":"92.5666667"}},{"country":"mm","city":"A-ram","coordinates":{"lat":"23.0166667","long":"97.15"}},{"country":"mm","city":"Arang","coordinates":{"lat":"25.8166667","long":"97.2333333"}},{"country":"mm","city":"Asasan","coordinates":{"lat":"19.9666667","long":"95.2833333"}},{"country":"mm","city":"Ase","coordinates":{"lat":"16.2833333","long":"95.9166667"}},{"country":"mm","city":"Asegwin","coordinates":{"lat":"17.9833333","long":"95.35"}},{"country":"mm","city":"Aseiktaung","coordinates":{"lat":"17.5333333","long":"96.3333333"}},{"country":"mm","city":"Ase-ywa","coordinates":{"lat":"16.5963889","long":"96.4638889"}},{"country":"mm","city":"Ashang","coordinates":{"lat":"24.3833333","long":"97.6666667"}},{"country":"mm","city":"Ashebette","coordinates":{"lat":"21.1166667","long":"95.45"}},{"country":"mm","city":"Ashebyin","coordinates":{"lat":"21.9833333","long":"96.1166667"}},{"country":"mm","city":"Ashedaik","coordinates":{"lat":"23.0166667","long":"95.3666667"}},{"country":"mm","city":"Ashegon","coordinates":{"lat":"24.4166667","long":"94.9166667"}},{"country":"mm","city":"Ashegyaung","coordinates":{"lat":"16.9333333","long":"95.0666667"}},{"country":"mm","city":"Ashe Kabyu","coordinates":{"lat":"21.15","long":"94.7333333"}},{"country":"mm","city":"Ashe-magyibin","coordinates":{"lat":"21.1833333","long":"95.4333333"}},{"country":"mm","city":"Ashemodu","coordinates":{"lat":"14.25","long":"98.0666667"}},{"country":"mm","city":"Ashe Mudu","coordinates":{"lat":"14.25","long":"98.0666667"}},{"country":"mm","city":"Ashetaik","coordinates":{"lat":"23.0166667","long":"95.3666667"}},{"country":"mm","city":"Ashe Wunbade","coordinates":{"lat":"21.7333333","long":"96.0"}},{"country":"mm","city":"Asheye","coordinates":{"lat":"19.0","long":"93.7666667"}},{"country":"mm","city":"Asigale","coordinates":{"lat":"16.3333333","long":"95.55"}},{"country":"mm","city":"Asin","coordinates":{"lat":"24.4833333","long":"97.1833333"}},{"country":"mm","city":"Asin","coordinates":{"lat":"15.2166667","long":"97.7833333"}},{"country":"mm","city":"Asln","coordinates":{"lat":"15.2166667","long":"97.7833333"}},{"country":"mm","city":"Ason","coordinates":{"lat":"16.35","long":"98.3166667"}},{"country":"mm","city":"Ason","coordinates":{"lat":"21.0333333","long":"95.6"}},{"country":"mm","city":"Asuchaung","coordinates":{"lat":"17.5","long":"97.2666667"}},{"country":"mm","city":"Asugyi","coordinates":{"lat":"16.5333333","long":"95.7333333"}},{"country":"mm","city":"Asugyi","coordinates":{"lat":"22.4333333","long":"95.9833333"}},{"country":"mm","city":"Asugyi","coordinates":{"lat":"16.9","long":"95.9833333"}},{"country":"mm","city":"Asugyi","coordinates":{"lat":"23.9333333","long":"96.5333333"}},{"country":"mm","city":"Asun","coordinates":{"lat":"15.2166667","long":"97.7833333"}},{"country":"mm","city":"Atanbe Te","coordinates":{"lat":"18.6333333","long":"96.1666667"}},{"country":"mm","city":"Atang","coordinates":{"lat":"25.7166667","long":"97.8833333"}},{"country":"mm","city":"Atankawng","coordinates":{"lat":"25.8333333","long":"97.7833333"}},{"country":"mm","city":"Ataung","coordinates":{"lat":"17.35","long":"95.3333333"}},{"country":"mm","city":"Atayaw","coordinates":{"lat":"16.5166667","long":"95.8333333"}},{"country":"mm","city":"Atayu","coordinates":{"lat":"17.0833333","long":"96.15"}},{"country":"mm","city":"Atet Bandayaw","coordinates":{"lat":"18.15","long":"96.2666667"}},{"country":"mm","city":"Atet Dodan","coordinates":{"lat":"19.7666667","long":"94.2166667"}},{"country":"mm","city":"Atet Gyogyaung","coordinates":{"lat":"17.9833333","long":"96.5166667"}},{"country":"mm","city":"Atet Kamyingan","coordinates":{"lat":"19.8666667","long":"94.2833333"}},{"country":"mm","city":"Atet Kunthidaw","coordinates":{"lat":"11.8666667","long":"99.2"}},{"country":"mm","city":"Atet Kwingale","coordinates":{"lat":"16.6","long":"98.4"}},{"country":"mm","city":"Atet Kyaukkhôk","coordinates":{"lat":"19.7","long":"94.4833333"}},{"country":"mm","city":"Atet Kyaungdaung","coordinates":{"lat":"20.5833333","long":"92.6666667"}},{"country":"mm","city":"Atetkyi","coordinates":{"lat":"19.4","long":"96.3666667"}},{"country":"mm","city":"Atet Kyidaung","coordinates":{"lat":"19.6666667","long":"94.2166667"}},{"country":"mm","city":"Atetlè","coordinates":{"lat":"20.6333333","long":"94.1666667"}},{"country":"mm","city":"Atet Linkôn","coordinates":{"lat":"19.7166667","long":"94.0833333"}},{"country":"mm","city":"Atet Mèkane","coordinates":{"lat":"16.65","long":"98.4166667"}},{"country":"mm","city":"Atet Minyon","coordinates":{"lat":"19.7833333","long":"94.1833333"}},{"country":"mm","city":"Atet Nanchaung","coordinates":{"lat":"18.4333333","long":"94.35"}},{"country":"mm","city":"Atet Ngetthe","coordinates":{"lat":"20.8166667","long":"92.6"}},{"country":"mm","city":"Atet-nyin","coordinates":{"lat":"21.25","long":"95.0333333"}},{"country":"mm","city":"Atet Paingkyon","coordinates":{"lat":"17.0166667","long":"98.0166667"}},{"country":"mm","city":"Atet Pwègale","coordinates":{"lat":"17.7833333","long":"96.4833333"}},{"country":"mm","city":"Atetpyunwa","coordinates":{"lat":"16.2","long":"94.6666667"}},{"country":"mm","city":"Atet Sidi","coordinates":{"lat":"17.3","long":"96.4833333"}},{"country":"mm","city":"Atet Singwe","coordinates":{"lat":"23.9333333","long":"95.2833333"}},{"country":"mm","city":"Atet-Sinkwe","coordinates":{"lat":"23.9333333","long":"95.2833333"}},{"country":"mm","city":"Atet Sundet","coordinates":{"lat":"19.8333333","long":"94.1833333"}},{"country":"mm","city":"Atet Than Htaung","coordinates":{"lat":"20.8166667","long":"93.3"}},{"country":"mm","city":"Atet Thidaya","coordinates":{"lat":"23.7333333","long":"95.6"}},{"country":"mm","city":"Atet-wa","coordinates":{"lat":"18.4","long":"94.4666667"}},{"country":"mm","city":"Atet Yegyaw","coordinates":{"lat":"17.85","long":"96.6333333"}},{"country":"mm","city":"Atet Yintha","coordinates":{"lat":"24.25","long":"95.3"}},{"country":"mm","city":"Atet-zagani","coordinates":{"lat":"23.9833333","long":"95.75"}},{"country":"mm","city":"Ate-ywa","coordinates":{"lat":"24.3166667","long":"96.5"}},{"country":"mm","city":"Athalun","coordinates":{"lat":"18.05","long":"95.3666667"}},{"country":"mm","city":"Athanaw","coordinates":{"lat":"17.7","long":"95.6666667"}},{"country":"mm","city":"Atharaw","coordinates":{"lat":"17.6666667","long":"95.6666667"}},{"country":"mm","city":"Athingon","coordinates":{"lat":"19.6833333","long":"96.3333333"}},{"country":"mm","city":"Athok","coordinates":{"lat":"17.2","long":"95.0833333"}},{"country":"mm","city":"Aton","coordinates":{"lat":"16.9980556","long":"96.5241667"}},{"country":"mm","city":"Atsi Gahtawng","coordinates":{"lat":"26.35","long":"97.9333333"}},{"country":"mm","city":"Atsilap","coordinates":{"lat":"27.3","long":"98.2"}},{"country":"mm","city":"Atu","coordinates":{"lat":"18.3833333","long":"94.5"}},{"country":"mm","city":"Atwin Bokpyin","coordinates":{"lat":"11.2333333","long":"98.8"}},{"country":"mm","city":"Atwinbyin","coordinates":{"lat":"19.0833333","long":"93.7333333"}},{"country":"mm","city":"Atwingyi","coordinates":{"lat":"12.2166667","long":"98.7833333"}},{"country":"mm","city":"Atwinpadan","coordinates":{"lat":"16.8719444","long":"96.0305556"}},{"country":"mm","city":"Aubonyun","coordinates":{"lat":"16.7433333","long":"96.7330556"}},{"country":"mm","city":"Auche","coordinates":{"lat":"25.55","long":"97.1333333"}},{"country":"mm","city":"Auhke","coordinates":{"lat":"25.1833333","long":"97.6666667"}},{"country":"mm","city":"Auhmun","coordinates":{"lat":"23.1","long":"93.5166667"}},{"country":"mm","city":"Aukan","coordinates":{"lat":"25.75","long":"98.1166667"}},{"country":"mm","city":"Auk Byazin","coordinates":{"lat":"20.7166667","long":"93.4166667"}},{"country":"mm","city":"Aukchaing","coordinates":{"lat":"19.0333333","long":"95.3166667"}},{"country":"mm","city":"Auk Chi-Kyaw","coordinates":{"lat":"20.3166667","long":"93.8833333"}},{"country":"mm","city":"Aukchin","coordinates":{"lat":"17.7333333","long":"96.95"}},{"country":"mm","city":"Auk Dodan","coordinates":{"lat":"19.7666667","long":"94.2333333"}},{"country":"mm","city":"Aukhlaing","coordinates":{"lat":"20.6","long":"94.6333333"}},{"country":"mm","city":"Aukin","coordinates":{"lat":"17.2","long":"95.0333333"}},{"country":"mm","city":"Aukka","coordinates":{"lat":"23.6833333","long":"97.4166667"}},{"country":"mm","city":"Aukkaba","coordinates":{"lat":"16.1166667","long":"95.6333333"}},{"country":"mm","city":"Aukkaba","coordinates":{"lat":"17.4666667","long":"96.35"}},{"country":"mm","city":"Auk Kaing","coordinates":{"lat":"19.7333333","long":"94.65"}},{"country":"mm","city":"Aukkalon","coordinates":{"lat":"23.6833333","long":"95.5"}},{"country":"mm","city":"Auk Kamyingan","coordinates":{"lat":"19.8666667","long":"94.25"}},{"country":"mm","city":"Auk Kamyingon","coordinates":{"lat":"19.8666667","long":"94.25"}},{"country":"mm","city":"Aukklon","coordinates":{"lat":"23.6833333","long":"95.5"}},{"country":"mm","city":"Aukkon","coordinates":{"lat":"18.6333333","long":"95.3833333"}},{"country":"mm","city":"Auk Kunthidaw","coordinates":{"lat":"11.8833333","long":"99.15"}},{"country":"mm","city":"Auk-kyauk-wut","coordinates":{"lat":"13.6166667","long":"98.1666667"}},{"country":"mm","city":"Auk Kyidaung","coordinates":{"lat":"19.6833333","long":"94.2"}},{"country":"mm","city":"Aukkyin","coordinates":{"lat":"21.3666667","long":"94.0833333"}},{"country":"mm","city":"Aukkyin","coordinates":{"lat":"21.95","long":"95.65"}},{"country":"mm","city":"Aukkyin","coordinates":{"lat":"16.9366667","long":"96.6369444"}},{"country":"mm","city":"Auk Kyôndamingyi","coordinates":{"lat":"16.15","long":"95.75"}},{"country":"mm","city":"Aukkyun","coordinates":{"lat":"12.1","long":"98.9833333"}},{"country":"mm","city":"Aukla","coordinates":{"lat":"20.7333333","long":"92.9"}},{"country":"mm","city":"Aukle","coordinates":{"lat":"20.7","long":"94.75"}},{"country":"mm","city":"Aukleng","coordinates":{"lat":"21.4333333","long":"97.65"}},{"country":"mm","city":"Aukma","coordinates":{"lat":"17.3","long":"94.9"}},{"country":"mm","city":"Auk Namaw","coordinates":{"lat":"23.9333333","long":"95.7"}},{"country":"mm","city":"Auk Nanchaung","coordinates":{"lat":"18.45","long":"94.35"}},{"country":"mm","city":"Auk Nanra","coordinates":{"lat":"20.55","long":"92.6833333"}},{"country":"mm","city":"Auk Ngapye","coordinates":{"lat":"19.8833333","long":"94.1833333"}},{"country":"mm","city":"Auko","coordinates":{"lat":"21.7833333","long":"95.1666667"}},{"country":"mm","city":"Aukohaing","coordinates":{"lat":"19.0333333","long":"95.3166667"}},{"country":"mm","city":"Auk-pan-i","coordinates":{"lat":"20.7","long":"94.2"}},{"country":"mm","city":"Auk Pho","coordinates":{"lat":"20.3833333","long":"93.8833333"}},{"country":"mm","city":"Aukpôn","coordinates":{"lat":"20.4666667","long":"94.25"}},{"country":"mm","city":"Auk-pôngôn","coordinates":{"lat":"20.45","long":"94.25"}},{"country":"mm","city":"Auk Satha","coordinates":{"lat":"22.8166667","long":"94.5"}},{"country":"mm","city":"Auk-seik","coordinates":{"lat":"20.8666667","long":"94.7333333"}},{"country":"mm","city":"Aukseindaw","coordinates":{"lat":"22.15","long":"95.2333333"}},{"country":"mm","city":"Aukshindaw","coordinates":{"lat":"22.15","long":"95.2333333"}},{"country":"mm","city":"Auk Sidi-anauk","coordinates":{"lat":"17.2666667","long":"96.4833333"}},{"country":"mm","city":"Auk Sidi-ashe","coordinates":{"lat":"17.2833333","long":"96.4833333"}},{"country":"mm","city":"Auk Singwe","coordinates":{"lat":"23.9166667","long":"95.2833333"}},{"country":"mm","city":"Auk Sinkwe","coordinates":{"lat":"23.9166667","long":"95.2833333"}},{"country":"mm","city":"Auksu","coordinates":{"lat":"16.2888889","long":"96.0075"}},{"country":"mm","city":"Auk Su","coordinates":{"lat":"23.9666667","long":"95.4166667"}},{"country":"mm","city":"Auk Sundet","coordinates":{"lat":"19.8333333","long":"94.15"}},{"country":"mm","city":"Auk Tage","coordinates":{"lat":"17.3166667","long":"96.6833333"}},{"country":"mm","city":"Auktarngdshe","coordinates":{"lat":"19.7333333","long":"93.6"}},{"country":"mm","city":"Auktaung","coordinates":{"lat":"24.0666667","long":"94.6"}},{"country":"mm","city":"Auk Taungbyin","coordinates":{"lat":"20.6833333","long":"92.95"}},{"country":"mm","city":"Auk-taung-ya","coordinates":{"lat":"23.8666667","long":"95.6833333"}},{"country":"mm","city":"Auktaw","coordinates":{"lat":"21.7833333","long":"95.8166667"}},{"country":"mm","city":"Auktawgyi","coordinates":{"lat":"23.3666667","long":"94.3666667"}},{"country":"mm","city":"Aukte","coordinates":{"lat":"23.6","long":"95.7333333"}},{"country":"mm","city":"Aukthada","coordinates":{"lat":"16.9333333","long":"94.7666667"}},{"country":"mm","city":"Auk Than Htaung","coordinates":{"lat":"20.85","long":"93.25"}},{"country":"mm","city":"Aukthaung","coordinates":{"lat":"17.2833333","long":"96.7166667"}},{"country":"mm","city":"Aukthayetchaung","coordinates":{"lat":"13.5","long":"98.45"}},{"country":"mm","city":"Auk Thinbondan","coordinates":{"lat":"20.65","long":"92.85"}},{"country":"mm","city":"Auk Thitaya","coordinates":{"lat":"23.7166667","long":"95.6166667"}},{"country":"mm","city":"Aukton","coordinates":{"lat":"16.8","long":"95.4833333"}},{"country":"mm","city":"Aukwa","coordinates":{"lat":"20.3","long":"94.3333333"}},{"country":"mm","city":"Auk Yebein","coordinates":{"lat":"19.6833333","long":"94.0833333"}},{"country":"mm","city":"Auk Yebôk","coordinates":{"lat":"19.7666667","long":"94.1333333"}},{"country":"mm","city":"Auk Yegyaw","coordinates":{"lat":"17.85","long":"96.65"}},{"country":"mm","city":"Auk Yin","coordinates":{"lat":"20.9833333","long":"93.75"}},{"country":"mm","city":"Auk Yungyaung","coordinates":{"lat":"20.7333333","long":"93.0333333"}},{"country":"mm","city":"Aukywa","coordinates":{"lat":"19.7666667","long":"94.0333333"}},{"country":"mm","city":"Auk Zaha","coordinates":{"lat":"18.4","long":"96.6"}},{"country":"mm","city":"Auk Zigaing","coordinates":{"lat":"20.3166667","long":"92.85"}},{"country":"mm","city":"Aulawsaukhi","coordinates":{"lat":"18.1016667","long":"97.6022222"}},{"country":"mm","city":"Aung","coordinates":{"lat":"21.6166667","long":"94.1333333"}},{"country":"mm","city":"Aung Ba","coordinates":{"lat":"10.55","long":"98.4833333"}},{"country":"mm","city":"Aung Bai","coordinates":{"lat":"10.2666667","long":"98.5333333"}},{"country":"mm","city":"Aungban","coordinates":{"lat":"20.6666667","long":"96.6333333"}},{"country":"mm","city":"Aungbangon","coordinates":{"lat":"21.35","long":"95.65"}},{"country":"mm","city":"Aungbangyaung","coordinates":{"lat":"21.45","long":"95.2666667"}},{"country":"mm","city":"Aungbansein","coordinates":{"lat":"16.7658333","long":"96.735"}},{"country":"mm","city":"Aungbauk","coordinates":{"lat":"20.0","long":"95.4666667"}},{"country":"mm","city":"Aungbauk","coordinates":{"lat":"21.3","long":"96.3166667"}},{"country":"mm","city":"Aungbaw","coordinates":{"lat":"21.75","long":"95.4333333"}},{"country":"mm","city":"Aungbin","coordinates":{"lat":"23.6833333","long":"95.1"}},{"country":"mm","city":"Aungbingon","coordinates":{"lat":"24.1","long":"95.4333333"}},{"country":"mm","city":"Aungbinle","coordinates":{"lat":"21.95","long":"96.1333333"}},{"country":"mm","city":"Aungbon","coordinates":{"lat":"24.1666667","long":"96.2833333"}},{"country":"mm","city":"Aungbongyi-athin","coordinates":{"lat":"17.15","long":"96.7833333"}},{"country":"mm","city":"Aung Bwei","coordinates":{"lat":"21.3666667","long":"93.0666667"}},{"country":"mm","city":"Aung Chak","coordinates":{"lat":"10.25","long":"98.5166667"}},{"country":"mm","city":"Aungchantha","coordinates":{"lat":"21.6333333","long":"95.7"}},{"country":"mm","city":"Aungchantha","coordinates":{"lat":"21.95","long":"95.0333333"}},{"country":"mm","city":"Aungchantha","coordinates":{"lat":"16.8477778","long":"96.7308333"}},{"country":"mm","city":"Aungdaing","coordinates":{"lat":"20.2333333","long":"92.8"}},{"country":"mm","city":"Aungdat","coordinates":{"lat":"16.9","long":"94.7333333"}},{"country":"mm","city":"Aungdaung","coordinates":{"lat":"16.3666667","long":"95.3333333"}},{"country":"mm","city":"Aungghlaing","coordinates":{"lat":"16.4833333","long":"98.2833333"}},{"country":"mm","city":"Aunggon","coordinates":{"lat":"19.6666667","long":"96.25"}},{"country":"mm","city":"Aunggon","coordinates":{"lat":"23.7","long":"95.5166667"}},{"country":"mm","city":"Aung-gon","coordinates":{"lat":"23.9166667","long":"95.7"}},{"country":"mm","city":"Aunggon","coordinates":{"lat":"23.9","long":"95.2666667"}},{"country":"mm","city":"Aunggraw","coordinates":{"lat":"20.95","long":"92.8666667"}},{"country":"mm","city":"Aunggrawywa","coordinates":{"lat":"20.95","long":"92.8666667"}},{"country":"mm","city":"Aunggyantha","coordinates":{"lat":"19.2166667","long":"96.3666667"}},{"country":"mm","city":"Aunggyantha","coordinates":{"lat":"22.3333333","long":"95.15"}},{"country":"mm","city":"Aunggyawgon","coordinates":{"lat":"23.8","long":"95.8"}},{"country":"mm","city":"Aunggyi","coordinates":{"lat":"17.8166667","long":"96.7666667"}},{"country":"mm","city":"Aunggyigon","coordinates":{"lat":"19.65","long":"95.9833333"}},{"country":"mm","city":"Aunggyin","coordinates":{"lat":"23.6333333","long":"95.7666667"}},{"country":"mm","city":"Aunggyi Ywathit","coordinates":{"lat":"17.8166667","long":"96.7666667"}},{"country":"mm","city":"Aunghla","coordinates":{"lat":"20.9","long":"92.7333333"}},{"country":"mm","city":"Aunghlabyin","coordinates":{"lat":"18.9833333","long":"93.75"}},{"country":"mm","city":"Aunghlaing","coordinates":{"lat":"15.7666667","long":"94.9833333"}},{"country":"mm","city":"Aunghlaing","coordinates":{"lat":"16.4833333","long":"98.2833333"}},{"country":"mm","city":"Aunghla Te","coordinates":{"lat":"18.6166667","long":"96.1"}},{"country":"mm","city":"Aunghlaywa","coordinates":{"lat":"20.9","long":"92.7333333"}},{"country":"mm","city":"Aungkanhlaing","coordinates":{"lat":"16.9005556","long":"96.7858333"}},{"country":"mm","city":"Aung Kaung","coordinates":{"lat":"21.1833333","long":"93.0833333"}},{"country":"mm","city":"Aungkon","coordinates":{"lat":"23.9","long":"95.2666667"}},{"country":"mm","city":"Aunglaing","coordinates":{"lat":"16.4833333","long":"98.2833333"}},{"country":"mm","city":"Aunglan","coordinates":{"lat":"19.3666667","long":"95.2166667"}},{"country":"mm","city":"Aunglanmyo","coordinates":{"lat":"19.3666667","long":"95.2166667"}},{"country":"mm","city":"Aunglauk","coordinates":{"lat":"20.8833333","long":"93.2"}},{"country":"mm","city":"Aunglaungzein","coordinates":{"lat":"18.4833333","long":"96.65"}},{"country":"mm","city":"Aungleba","coordinates":{"lat":"17.5833333","long":"97.6333333"}},{"country":"mm","city":"Aunglet","coordinates":{"lat":"18.8666667","long":"93.5333333"}},{"country":"mm","city":"Aunglut","coordinates":{"lat":"22.8","long":"96.4833333"}},{"country":"mm","city":"Aungmeiktha","coordinates":{"lat":"16.8833333","long":"96.7833333"}},{"country":"mm","city":"Aungmin","coordinates":{"lat":"19.7","long":"96.0"}},{"country":"mm","city":"Aungmo","coordinates":{"lat":"22.1833333","long":"95.0666667"}},{"country":"mm","city":"Aungmya","coordinates":{"lat":"17.65","long":"96.15"}},{"country":"mm","city":"Aungmye","coordinates":{"lat":"17.0166667","long":"96.7666667"}},{"country":"mm","city":"Aungmye Thazi","coordinates":{"lat":"22.1333333","long":"95.8666667"}},{"country":"mm","city":"Aungmyingon","coordinates":{"lat":"19.3166667","long":"95.4833333"}},{"country":"mm","city":"Aungmyin-in","coordinates":{"lat":"21.1166667","long":"96.8"}},{"country":"mm","city":"Aungnainggyi","coordinates":{"lat":"16.9333333","long":"96.7833333"}},{"country":"mm","city":"Aungsaing","coordinates":{"lat":"16.8255556","long":"97.3841667"}},{"country":"mm","city":"Aungsaingbuda-kwin","coordinates":{"lat":"16.8608333","long":"97.36"}},{"country":"mm","city":"Aungseik","coordinates":{"lat":"20.5833333","long":"92.9833333"}},{"country":"mm","city":"Aung Tang","coordinates":{"lat":"21.1666667","long":"93.0333333"}},{"country":"mm","city":"Aungtha","coordinates":{"lat":"20.7666667","long":"92.6333333"}},{"country":"mm","city":"Aungtha","coordinates":{"lat":"19.5","long":"96.1333333"}},{"country":"mm","city":"Aungtha","coordinates":{"lat":"21.9666667","long":"95.85"}},{"country":"mm","city":"Aungtha","coordinates":{"lat":"16.9780556","long":"96.7033333"}},{"country":"mm","city":"Aungthadan","coordinates":{"lat":"16.8188889","long":"96.7658333"}},{"country":"mm","city":"Aungtha North","coordinates":{"lat":"21.5666667","long":"95.9833333"}},{"country":"mm","city":"Aungtha South","coordinates":{"lat":"21.2333333","long":"95.8166667"}},{"country":"mm","city":"Aungtha Tè","coordinates":{"lat":"19.1333333","long":"95.8833333"}},{"country":"mm","city":"Aungthawara","coordinates":{"lat":"13.3166667","long":"99.0"}},{"country":"mm","city":"Aungya","coordinates":{"lat":"20.95","long":"92.9333333"}},{"country":"mm","city":"Aung Yang","coordinates":{"lat":"24.3666667","long":"96.85"}},{"country":"mm","city":"Aungyeiktha","coordinates":{"lat":"22.3666667","long":"95.35"}},{"country":"mm","city":"Aungywa","coordinates":{"lat":"20.5166667","long":"94.2"}},{"country":"mm","city":"Aungzaiya","coordinates":{"lat":"20.65","long":"92.9833333"}},{"country":"mm","city":"Aungzatkwin","coordinates":{"lat":"17.6166667","long":"95.0166667"}},{"country":"mm","city":"Aungzeik","coordinates":{"lat":"20.4166667","long":"92.7"}},{"country":"mm","city":"Aungzeya","coordinates":{"lat":"21.8833333","long":"95.5166667"}},{"country":"mm","city":"Aungzeya","coordinates":{"lat":"16.9736111","long":"96.8061111"}},{"country":"mm","city":"Aungzu","coordinates":{"lat":"21.3","long":"92.25"}},{"country":"mm","city":"Aungzu","coordinates":{"lat":"20.0333333","long":"95.6"}},{"country":"mm","city":"Aungzwa","coordinates":{"lat":"23.1666667","long":"95.35"}},{"country":"mm","city":"Aura","coordinates":{"lat":"25.25","long":"96.25"}},{"country":"mm","city":"Aurapum","coordinates":{"lat":"24.85","long":"97.6833333"}},{"country":"mm","city":"Aushe","coordinates":{"lat":"25.9333333","long":"96.9833333"}},{"country":"mm","city":"Aushegahtawng","coordinates":{"lat":"25.9333333","long":"96.9833333"}},{"country":"mm","city":"Auyawpa","coordinates":{"lat":"17.45","long":"96.3333333"}},{"country":"mm","city":"Ava","coordinates":{"lat":"21.85","long":"95.9666667"}},{"country":"mm","city":"Awa","coordinates":{"lat":"18.9","long":"93.9166667"}},{"country":"mm","city":"Awabeik","coordinates":{"lat":"16.2666667","long":"94.5666667"}},{"country":"mm","city":"Awabye","coordinates":{"lat":"16.0833333","long":"95.5"}},{"country":"mm","city":"Awabyin","coordinates":{"lat":"19.1166667","long":"93.7"}},{"country":"mm","city":"Awadaung","coordinates":{"lat":"19.2333333","long":"93.6166667"}},{"country":"mm","city":"Awa-ein","coordinates":{"lat":"18.65","long":"96.75"}},{"country":"mm","city":"Awagan","coordinates":{"lat":"20.1833333","long":"93.0166667"}},{"country":"mm","city":"Awagauk","coordinates":{"lat":"16.6613889","long":"96.6611111"}},{"country":"mm","city":"Awagyaik","coordinates":{"lat":"15.3333333","long":"97.9"}},{"country":"mm","city":"Awagyaw","coordinates":{"lat":"20.05","long":"93.1166667"}},{"country":"mm","city":"Awaing","coordinates":{"lat":"17.0166667","long":"96.25"}},{"country":"mm","city":"Awaing","coordinates":{"lat":"15.3666667","long":"97.9"}},{"country":"mm","city":"Awaing","coordinates":{"lat":"16.9994444","long":"96.2577778"}},{"country":"mm","city":"Awainggale","coordinates":{"lat":"15.3833333","long":"97.8166667"}},{"country":"mm","city":"Awal","coordinates":{"lat":"27.4166667","long":"98.25"}},{"country":"mm","city":"Aw","coordinates":{"lat":"21.5166667","long":"99.6833333"}},{"country":"mm","city":"Aw","coordinates":{"lat":"13.35","long":"98.5333333"}},{"country":"mm","city":"Awebindat","coordinates":{"lat":"11.6666667","long":"98.7833333"}},{"country":"mm","city":"Awegyun","coordinates":{"lat":"12.7333333","long":"98.7333333"}},{"country":"mm","city":"Aw-ga","coordinates":{"lat":"23.8666667","long":"95.7333333"}},{"country":"mm","city":"Awgyi","coordinates":{"lat":"12.1166667","long":"98.9833333"}},{"country":"mm","city":"Awingyi-ashe","coordinates":{"lat":"17.1666667","long":"97.3166667"}},{"country":"mm","city":"Awingyi","coordinates":{"lat":"17.1666667","long":"97.3166667"}},{"country":"mm","city":"Awiwang","coordinates":{"lat":"27.4666667","long":"98.1333333"}},{"country":"mm","city":"Aw-ka-tha","coordinates":{"lat":"24.2","long":"97.2166667"}},{"country":"mm","city":"Awkawng","coordinates":{"lat":"21.3666667","long":"97.4666667"}},{"country":"mm","city":"Awkhke","coordinates":{"lat":"23.6166667","long":"97.8666667"}},{"country":"mm","city":"Awlanbyin","coordinates":{"lat":"20.9333333","long":"92.5"}},{"country":"mm","city":"Awlawngpang","coordinates":{"lat":"21.6833333","long":"93.8666667"}},{"country":"mm","city":"Awngchit","coordinates":{"lat":"25.8166667","long":"98.1666667"}},{"country":"mm","city":"Awnglawng","coordinates":{"lat":"24.2833333","long":"97.3166667"}},{"country":"mm","city":"Awng Niu","coordinates":{"lat":"20.5333333","long":"97.15"}},{"country":"mm","city":"Awngsa","coordinates":{"lat":"24.2333333","long":"97.3166667"}},{"country":"mm","city":"Awrama","coordinates":{"lat":"20.6","long":"92.8333333"}},{"country":"mm","city":"Awrama Hkamwe","coordinates":{"lat":"20.6833333","long":"92.7833333"}},{"country":"mm","city":"Awrawa","coordinates":{"lat":"20.6","long":"92.8333333"}},{"country":"mm","city":"Awsai","coordinates":{"lat":"23.15","long":"99.0333333"}},{"country":"mm","city":"Awthaw","coordinates":{"lat":"24.7666667","long":"95.0333333"}},{"country":"mm","city":"A-wu","coordinates":{"lat":"20.05","long":"98.8166667"}},{"country":"mm","city":"Awzachan","coordinates":{"lat":"20.95","long":"95.55"}},{"country":"mm","city":"Awzadaw","coordinates":{"lat":"20.7333333","long":"95.0"}},{"country":"mm","city":"Axin","coordinates":{"lat":"15.8833333","long":"98.4833333"}},{"country":"mm","city":"Ayadaw","coordinates":{"lat":"20.9166667","long":"94.9833333"}},{"country":"mm","city":"Ayadaw","coordinates":{"lat":"19.0166667","long":"95.6333333"}},{"country":"mm","city":"Ayadaw","coordinates":{"lat":"22.2833333","long":"95.45"}},{"country":"mm","city":"Ayaingge","coordinates":{"lat":"21.0166667","long":"94.1"}},{"country":"mm","city":"Ayaingzu","coordinates":{"lat":"18.0666667","long":"96.5166667"}},{"country":"mm","city":"Ayaw","coordinates":{"lat":"20.6833333","long":"94.1166667"}},{"country":"mm","city":"Ayeching","coordinates":{"lat":"26.0833333","long":"95.3833333"}},{"country":"mm","city":"Ayegyaungzok","coordinates":{"lat":"20.9","long":"93.85"}},{"country":"mm","city":"Ayeindama","coordinates":{"lat":"24.9833333","long":"97.2333333"}},{"country":"mm","city":"Ayetthema","coordinates":{"lat":"17.2333333","long":"97.0666667"}},{"country":"mm","city":"Ayinlo","coordinates":{"lat":"19.7166667","long":"96.1833333"}},{"country":"mm","city":"Ayithoze-ywa","coordinates":{"lat":"21.2","long":"92.5666667"}},{"country":"mm","city":"Ayobon","coordinates":{"lat":"17.0333333","long":"96.8166667"}},{"country":"mm","city":"Ayoda","coordinates":{"lat":"16.4833333","long":"94.65"}},{"country":"mm","city":"Ayodaung","coordinates":{"lat":"16.6333333","long":"95.9666667"}},{"country":"mm","city":"Ayogon","coordinates":{"lat":"18.0166667","long":"95.3166667"}},{"country":"mm","city":"Ayogon","coordinates":{"lat":"17.8","long":"95.4833333"}},{"country":"mm","city":"Ayu","coordinates":{"lat":"16.6666667","long":"98.2166667"}},{"country":"mm","city":"Ayu","coordinates":{"lat":"13.65","long":"99.0333333"}},{"country":"mm","city":"Ayunzok","coordinates":{"lat":"16.6833333","long":"96.25"}},{"country":"mm","city":"A-ywe","coordinates":{"lat":"16.9333333","long":"95.85"}},{"country":"mm","city":"Azin","coordinates":{"lat":"15.8833333","long":"98.4833333"}},{"country":"mm","city":"Aziyanghtawng","coordinates":{"lat":"26.85","long":"98.4166667"}},{"country":"mm","city":"Azôkkyi","coordinates":{"lat":"16.15","long":"95.5833333"}},{"country":"mm","city":"Azuwa","coordinates":{"lat":"16.7447222","long":"96.6058333"}},{"country":"mm","city":"Babanbin","coordinates":{"lat":"18.2666667","long":"96.5666667"}},{"country":"mm","city":"Ba-battiya","coordinates":{"lat":"22.05","long":"96.45"}},{"country":"mm","city":"Ba Baw","coordinates":{"lat":"27.35","long":"97.9"}},{"country":"mm","city":"Babudaung","coordinates":{"lat":"20.3333333","long":"93.2666667"}},{"country":"mm","city":"Babugon","coordinates":{"lat":"16.5169444","long":"97.6777778"}},{"country":"mm","city":"Badadaw","coordinates":{"lat":"27.15","long":"98.5333333"}},{"country":"mm","city":"Badaga","coordinates":{"lat":"21.2","long":"92.4166667"}},{"country":"mm","city":"Badana","coordinates":{"lat":"21.0","long":"92.4833333"}},{"country":"mm","city":"Badaukkon","coordinates":{"lat":"15.8666667","long":"94.7"}},{"country":"mm","city":"Badawngzup","coordinates":{"lat":"25.45","long":"97.0333333"}},{"country":"mm","city":"Badazo","coordinates":{"lat":"21.1833333","long":"95.7833333"}},{"country":"mm","city":"Badupi","coordinates":{"lat":"21.6","long":"93.45"}},{"country":"mm","city":"Badu Tat Myo","coordinates":{"lat":"21.2666667","long":"96.8333333"}},{"country":"mm","city":"Ba-e-gôn","coordinates":{"lat":"15.7833333","long":"95.2833333"}},{"country":"mm","city":"Bagan","coordinates":{"lat":"21.3666667","long":"95.4666667"}},{"country":"mm","city":"Bago","coordinates":{"lat":"17.3333333","long":"96.4833333"}},{"country":"mm","city":"Bagônna","coordinates":{"lat":"20.8333333","long":"92.5333333"}},{"country":"mm","city":"Baguna","coordinates":{"lat":"20.8333333","long":"92.5333333"}},{"country":"mm","city":"Bahandaung","coordinates":{"lat":"19.4","long":"96.5333333"}},{"country":"mm","city":"Bahe","coordinates":{"lat":"23.3833333","long":"96.5666667"}},{"country":"mm","city":"Bahèdo","coordinates":{"lat":"18.95","long":"96.8333333"}},{"country":"mm","city":"Bahet","coordinates":{"lat":"21.5666667","long":"95.6833333"}},{"country":"mm","city":"Bahin","coordinates":{"lat":"21.7166667","long":"94.6833333"}},{"country":"mm","city":"Bahku","coordinates":{"lat":"26.8166667","long":"98.0666667"}},{"country":"mm","city":"Ba Hpang","coordinates":{"lat":"23.7","long":"97.2333333"}},{"country":"mm","city":"Ba Htoo Myo","coordinates":{"lat":"21.2666667","long":"96.8333333"}},{"country":"mm","city":"Bahumaing","coordinates":{"lat":"25.6833333","long":"95.85"}},{"country":"mm","city":"Baik","coordinates":{"lat":"14.7166667","long":"97.85"}},{"country":"mm","city":"Baikthayet","coordinates":{"lat":"22.0166667","long":"94.9333333"}},{"country":"mm","city":"Baik Ywa","coordinates":{"lat":"14.7166667","long":"97.85"}},{"country":"mm","city":"Baila","coordinates":{"lat":"21.2166667","long":"93.2"}},{"country":"mm","city":"Baingbin","coordinates":{"lat":"22.7","long":"94.1"}},{"country":"mm","city":"Baingbin Sakan","coordinates":{"lat":"23.6333333","long":"96.25"}},{"country":"mm","city":"Baingda","coordinates":{"lat":"17.9666667","long":"96.4666667"}},{"country":"mm","city":"Baingdaunggyaung","coordinates":{"lat":"16.0166667","long":"94.8"}},{"country":"mm","city":"Bainggyaw","coordinates":{"lat":"19.5833333","long":"94.6333333"}},{"country":"mm","city":"Bainglaung","coordinates":{"lat":"16.6658333","long":"97.3288889"}},{"country":"mm","city":"Baingle","coordinates":{"lat":"24.0333333","long":"94.8166667"}},{"country":"mm","city":"Baingyagon","coordinates":{"lat":"19.45","long":"95.45"}},{"country":"mm","city":"Bakaleko","coordinates":{"lat":"18.9666667","long":"96.9333333"}},{"country":"mm","city":"Bakan","coordinates":{"lat":"24.7833333","long":"96.9833333"}},{"country":"mm","city":"Bakye","coordinates":{"lat":"17.3833333","long":"97.3666667"}},{"country":"mm","city":"Bala","coordinates":{"lat":"18.0833333","long":"95.6333333"}},{"country":"mm","city":"Bala","coordinates":{"lat":"16.9872222","long":"96.1858333"}},{"country":"mm","city":"Balaing","coordinates":{"lat":"21.7333333","long":"92.85"}},{"country":"mm","city":"Balaki","coordinates":{"lat":"19.0","long":"96.9166667"}},{"country":"mm","city":"Balakwin","coordinates":{"lat":"17.0666667","long":"95.0666667"}},{"country":"mm","city":"Balatitola","coordinates":{"lat":"18.5","long":"96.4666667"}},{"country":"mm","city":"Balauk","coordinates":{"lat":"17.1666667","long":"96.7166667"}},{"country":"mm","city":"Balauk","coordinates":{"lat":"16.1833333","long":"97.6333333"}},{"country":"mm","city":"Balawkhi","coordinates":{"lat":"18.45","long":"97.05"}},{"country":"mm","city":"Balawko","coordinates":{"lat":"17.6166667","long":"97.1333333"}},{"country":"mm","city":"Balawng Dingsa","coordinates":{"lat":"23.8833333","long":"97.4333333"}},{"country":"mm","city":"Balawng-gahtawng","coordinates":{"lat":"24.15","long":"97.6166667"}},{"country":"mm","city":"Balbil","coordinates":{"lat":"23.7833333","long":"94.05"}},{"country":"mm","city":"Bale","coordinates":{"lat":"16.5833333","long":"95.3166667"}},{"country":"mm","city":"Ba-le","coordinates":{"lat":"25.9833333","long":"98.4"}},{"country":"mm","city":"Baledo","coordinates":{"lat":"16.4166667","long":"98.65"}},{"country":"mm","city":"Balei","coordinates":{"lat":"21.9666667","long":"93.55"}},{"country":"mm","city":"Baliblawkyo","coordinates":{"lat":"17.5666667","long":"97.1666667"}},{"country":"mm","city":"Balilawkyo","coordinates":{"lat":"17.5666667","long":"97.1666667"}},{"country":"mm","city":"Balolo","coordinates":{"lat":"18.0","long":"96.9666667"}},{"country":"mm","city":"Balon","coordinates":{"lat":"20.7666667","long":"95.4166667"}},{"country":"mm","city":"Balubwe","coordinates":{"lat":"19.8333333","long":"93.5"}},{"country":"mm","city":"Balugôn","coordinates":{"lat":"16.55","long":"94.65"}},{"country":"mm","city":"Baluywa","coordinates":{"lat":"20.9","long":"94.6166667"}},{"country":"mm","city":"Balwe","coordinates":{"lat":"21.9","long":"95.3833333"}},{"country":"mm","city":"Bamadauksôk","coordinates":{"lat":"20.7333333","long":"94.1333333"}},{"country":"mm","city":"Bamado","coordinates":{"lat":"21.1","long":"96.85"}},{"country":"mm","city":"Baman","coordinates":{"lat":"22.9","long":"96.5"}},{"country":"mm","city":"Bamaw","coordinates":{"lat":"16.4","long":"95.4"}},{"country":"mm","city":"Bamaw","coordinates":{"lat":"18.0630556","long":"97.6027778"}},{"country":"mm","city":"Bamawgyaung","coordinates":{"lat":"16.4833333","long":"95.0833333"}},{"country":"mm","city":"Bamaw-wa","coordinates":{"lat":"16.65","long":"94.9"}},{"country":"mm","city":"Bambwegon","coordinates":{"lat":"17.2666667","long":"97.2166667"}},{"country":"mm","city":"Bamhkam","coordinates":{"lat":"26.0333333","long":"98.2666667"}},{"country":"mm","city":"Bamo","coordinates":{"lat":"18.95","long":"96.6833333"}},{"country":"mm","city":"Bamon","coordinates":{"lat":"23.0833333","long":"96.65"}},{"country":"mm","city":"Bampin","coordinates":{"lat":"20.3666667","long":"96.6666667"}},{"country":"mm","city":"Bampon","coordinates":{"lat":"20.5","long":"97.75"}},{"country":"mm","city":"Bamyaw","coordinates":{"lat":"25.7666667","long":"98.0833333"}},{"country":"mm","city":"Banaw","coordinates":{"lat":"21.8","long":"96.0166667"}},{"country":"mm","city":"Banawgyaung","coordinates":{"lat":"16.4833333","long":"95.0833333"}},{"country":"mm","city":"Banawhklang","coordinates":{"lat":"22.6166667","long":"93.15"}},{"country":"mm","city":"Banawn Auk","coordinates":{"lat":"18.85","long":"97.3333333"}},{"country":"mm","city":"Banawn","coordinates":{"lat":"18.85","long":"97.3333333"}},{"country":"mm","city":"Ban Baw","coordinates":{"lat":"23.8166667","long":"98.4"}},{"country":"mm","city":"Banbin","coordinates":{"lat":"20.2666667","long":"96.85"}},{"country":"mm","city":"Banbwe","coordinates":{"lat":"17.0833333","long":"97.5833333"}},{"country":"mm","city":"Banbwe","coordinates":{"lat":"22.2166667","long":"95.0166667"}},{"country":"mm","city":"Banbwe","coordinates":{"lat":"22.1833333","long":"96.65"}},{"country":"mm","city":"Banbwe","coordinates":{"lat":"16.6608333","long":"96.4669444"}},{"country":"mm","city":"Banbwebin","coordinates":{"lat":"19.3666667","long":"96.1"}},{"country":"mm","city":"Banbwebyet","coordinates":{"lat":"18.9","long":"95.4833333"}},{"country":"mm","city":"Banbwedaung","coordinates":{"lat":"19.1","long":"95.6"}},{"country":"mm","city":"Banbwegon","coordinates":{"lat":"17.0833333","long":"96.1"}},{"country":"mm","city":"Banbwegon","coordinates":{"lat":"23.45","long":"94.4"}},{"country":"mm","city":"Banbwe-gon","coordinates":{"lat":"23.8","long":"95.9333333"}},{"country":"mm","city":"Banbwegon","coordinates":{"lat":"16.5975","long":"97.4986111"}},{"country":"mm","city":"Banbwegon","coordinates":{"lat":"16.6763889","long":"96.3122222"}},{"country":"mm","city":"Banbwegyin","coordinates":{"lat":"18.9666667","long":"95.05"}},{"country":"mm","city":"Banbwe Myauk","coordinates":{"lat":"22.2166667","long":"95.0166667"}},{"country":"mm","city":"Banbwengu","coordinates":{"lat":"16.5147222","long":"96.0144444"}},{"country":"mm","city":"Banbwe Taung","coordinates":{"lat":"22.2","long":"95.0166667"}},{"country":"mm","city":"Banbyaw Te","coordinates":{"lat":"18.7666667","long":"96.05"}},{"country":"mm","city":"Banbyin","coordinates":{"lat":"19.4166667","long":"95.0333333"}},{"country":"mm","city":"Banchaung","coordinates":{"lat":"13.8","long":"98.6833333"}},{"country":"mm","city":"Bandabin","coordinates":{"lat":"17.0","long":"96.8333333"}},{"country":"mm","city":"Bandan","coordinates":{"lat":"20.2666667","long":"94.7333333"}},{"country":"mm","city":"Bandane","coordinates":{"lat":"12.1333333","long":"98.7166667"}},{"country":"mm","city":"Bandauk","coordinates":{"lat":"22.3666667","long":"96.3166667"}},{"country":"mm","city":"Bandayaw","coordinates":{"lat":"18.15","long":"96.2666667"}},{"country":"mm","city":"Bandi","coordinates":{"lat":"22.3666667","long":"96.3166667"}},{"country":"mm","city":"Bandwegon","coordinates":{"lat":"23.45","long":"94.4"}},{"country":"mm","city":"Baneng","coordinates":{"lat":"21.6833333","long":"93.4666667"}},{"country":"mm","city":"Bangjung","coordinates":{"lat":"24.1333333","long":"97.5833333"}},{"country":"mm","city":"Bangon","coordinates":{"lat":"19.3333333","long":"95.0"}},{"country":"mm","city":"Bangshan","coordinates":{"lat":"24.25","long":"97.5666667"}},{"country":"mm","city":"Bangyaung","coordinates":{"lat":"21.0166667","long":"92.7333333"}},{"country":"mm","city":"Bangyi","coordinates":{"lat":"17.1","long":"95.35"}},{"country":"mm","city":"Bangyok","coordinates":{"lat":"12.1166667","long":"99.15"}},{"country":"mm","city":"Banhasri","coordinates":{"lat":"10.0","long":"98.55"}},{"country":"mm","city":"Banhat","coordinates":{"lat":"20.5166667","long":"96.7"}},{"country":"mm","city":"Ban Hpap","coordinates":{"lat":"10.5166667","long":"98.7666667"}},{"country":"mm","city":"Ban Hung","coordinates":{"lat":"21.45","long":"100.1"}},{"country":"mm","city":"Banit","coordinates":{"lat":"17.05","long":"95.4"}},{"country":"mm","city":"Banka","coordinates":{"lat":"13.0833333","long":"98.8"}},{"country":"mm","city":"Bankachon","coordinates":{"lat":"10.15","long":"98.6"}},{"country":"mm","city":"Ban Kala","coordinates":{"lat":"11.45","long":"99.0"}},{"country":"mm","city":"Ban Kalam","coordinates":{"lat":"10.3333333","long":"98.7166667"}},{"country":"mm","city":"Ban Kamou","coordinates":{"lat":"10.35","long":"98.6333333"}},{"country":"mm","city":"Bankan","coordinates":{"lat":"20.35","long":"96.9"}},{"country":"mm","city":"Bankhunchaung","coordinates":{"lat":"11.6166667","long":"99.1"}},{"country":"mm","city":"Ban Kiu","coordinates":{"lat":"10.5166667","long":"98.8166667"}},{"country":"mm","city":"Ban Koh","coordinates":{"lat":"10.35","long":"98.7333333"}},{"country":"mm","city":"Bankom","coordinates":{"lat":"18.8333333","long":"97.3833333"}},{"country":"mm","city":"Banlamut","coordinates":{"lat":"12.1666667","long":"98.9333333"}},{"country":"mm","city":"Banlaung","coordinates":{"lat":"18.4666667","long":"96.4666667"}},{"country":"mm","city":"Banlaung-wa","coordinates":{"lat":"18.4666667","long":"96.4666667"}},{"country":"mm","city":"Banlaw","coordinates":{"lat":"12.1166667","long":"99.05"}},{"country":"mm","city":"Banlun","coordinates":{"lat":"24.1166667","long":"97.55"}},{"country":"mm","city":"Banma","coordinates":{"lat":"24.4","long":"97.4666667"}},{"country":"mm","city":"Banmadi","coordinates":{"lat":"12.6666667","long":"98.7833333"}},{"country":"mm","city":"Ban Mau","coordinates":{"lat":"21.4666667","long":"101.1"}},{"country":"mm","city":"Banmauk","coordinates":{"lat":"25.0833333","long":"96.65"}},{"country":"mm","city":"Banmauk","coordinates":{"lat":"24.4","long":"95.85"}},{"country":"mm","city":"Banmaw","coordinates":{"lat":"24.2666667","long":"97.2333333"}},{"country":"mm","city":"Banmet","coordinates":{"lat":"20.45","long":"96.7166667"}},{"country":"mm","city":"Banmo","coordinates":{"lat":"24.2666667","long":"97.2333333"}},{"country":"mm","city":"Ban Noi-loi","coordinates":{"lat":"10.5333333","long":"98.75"}},{"country":"mm","city":"Banon","coordinates":{"lat":"21.1666667","long":"96.9166667"}},{"country":"mm","city":"Ban Ping","coordinates":{"lat":"20.75","long":"97.3833333"}},{"country":"mm","city":"Banpyi","coordinates":{"lat":"12.3","long":"99.15"}},{"country":"mm","city":"Ban Sadein","coordinates":{"lat":"10.3333333","long":"98.5333333"}},{"country":"mm","city":"Bansak","coordinates":{"lat":"23.8","long":"96.9666667"}},{"country":"mm","city":"Ban Salam","coordinates":{"lat":"10.0833333","long":"98.5833333"}},{"country":"mm","city":"Ban Sompan","coordinates":{"lat":"10.3833333","long":"98.7333333"}},{"country":"mm","city":"Ban-ta-kyan","coordinates":{"lat":"11.8666667","long":"99.2"}},{"country":"mm","city":"Bàn Tet Paw Thwe","coordinates":{"lat":"20.55","long":"97.3833333"}},{"country":"mm","city":"Bantha","coordinates":{"lat":"21.9333333","long":"96.6"}},{"country":"mm","city":"Banwe","coordinates":{"lat":"23.1333333","long":"96.0833333"}},{"country":"mm","city":"Banyin","coordinates":{"lat":"20.0166667","long":"96.4833333"}},{"country":"mm","city":"Banyo","coordinates":{"lat":"20.6","long":"93.0833333"}},{"country":"mm","city":"Ba-o","coordinates":{"lat":"22.8","long":"95.55"}},{"country":"mm","city":"Bapi","coordinates":{"lat":"23.7333333","long":"93.4333333"}},{"country":"mm","city":"Baratola","coordinates":{"lat":"18.55","long":"96.5166667"}},{"country":"mm","city":"Basankawng","coordinates":{"lat":"25.55","long":"97.9333333"}},{"country":"mm","city":"Bashin","coordinates":{"lat":"18.7","long":"95.35"}},{"country":"mm","city":"Bashugyaung","coordinates":{"lat":"11.75","long":"98.5166667"}},{"country":"mm","city":"Baskitpatan","coordinates":{"lat":"18.5166667","long":"96.4333333"}},{"country":"mm","city":"Bassein","coordinates":{"lat":"16.7833333","long":"94.7333333"}},{"country":"mm","city":"Batarai","coordinates":{"lat":"20.5166667","long":"92.8166667"}},{"country":"mm","city":"Bato","coordinates":{"lat":"19.45","long":"96.9666667"}},{"country":"mm","city":"Batwe","coordinates":{"lat":"21.25","long":"93.6166667"}},{"country":"mm","city":"Bauklaw","coordinates":{"lat":"17.5333333","long":"97.2166667"}},{"country":"mm","city":"Baukthauk","coordinates":{"lat":"22.15","long":"95.8333333"}},{"country":"mm","city":"Baukthindon","coordinates":{"lat":"22.8166667","long":"95.5666667"}},{"country":"mm","city":"Baungdaw","coordinates":{"lat":"14.0166667","long":"98.55"}},{"country":"mm","city":"Baungdok","coordinates":{"lat":"19.1833333","long":"96.2166667"}},{"country":"mm","city":"Baungdwet","coordinates":{"lat":"20.5666667","long":"93.2"}},{"country":"mm","city":"Baunggya","coordinates":{"lat":"22.4","long":"95.5333333"}},{"country":"mm","city":"Baunggyaung","coordinates":{"lat":"21.25","long":"92.9833333"}},{"country":"mm","city":"Baunggyaung","coordinates":{"lat":"20.8333333","long":"94.2"}},{"country":"mm","city":"Baunggyi","coordinates":{"lat":"19.05","long":"96.2833333"}},{"country":"mm","city":"Baunoi","coordinates":{"lat":"24.1833333","long":"97.4833333"}},{"country":"mm","city":"Bauthemudo","coordinates":{"lat":"18.15","long":"97.0166667"}},{"country":"mm","city":"Bawa","coordinates":{"lat":"14.35","long":"98.0166667"}},{"country":"mm","city":"Bawaing","coordinates":{"lat":"17.0166667","long":"95.5166667"}},{"country":"mm","city":"Bawashaung","coordinates":{"lat":"14.1833333","long":"98.6"}},{"country":"mm","city":"Baw","coordinates":{"lat":"20.9666667","long":"93.6166667"}},{"country":"mm","city":"Baw","coordinates":{"lat":"19.3833333","long":"95.1"}},{"country":"mm","city":"Baw","coordinates":{"lat":"20.15","long":"96.2666667"}},{"country":"mm","city":"Baw","coordinates":{"lat":"23.3166667","long":"95.8333333"}},{"country":"mm","city":"Baw","coordinates":{"lat":"23.4666667","long":"96.4833333"}},{"country":"mm","city":"Bawbawkhi","coordinates":{"lat":"18.3719444","long":"97.2513889"}},{"country":"mm","city":"Bawbin","coordinates":{"lat":"18.3833333","long":"95.7833333"}},{"country":"mm","city":"Bawbin","coordinates":{"lat":"20.8","long":"97.0333333"}},{"country":"mm","city":"Bawbookya","coordinates":{"lat":"18.1736111","long":"97.54"}},{"country":"mm","city":"Bawbookyo","coordinates":{"lat":"18.1736111","long":"97.54"}},{"country":"mm","city":"Bawbyin","coordinates":{"lat":"22.4","long":"94.1166667"}},{"country":"mm","city":"Bawdaing","coordinates":{"lat":"16.4333333","long":"98.25"}},{"country":"mm","city":"Bawdi","coordinates":{"lat":"17.0166667","long":"95.7333333"}},{"country":"mm","city":"Bawdi","coordinates":{"lat":"18.1666667","long":"96.6333333"}},{"country":"mm","city":"Bawdi","coordinates":{"lat":"22.7333333","long":"95.2833333"}},{"country":"mm","city":"Bawdibin","coordinates":{"lat":"17.6833333","long":"95.5833333"}},{"country":"mm","city":"Bawdibin","coordinates":{"lat":"22.6166667","long":"94.65"}},{"country":"mm","city":"Bawdigon","coordinates":{"lat":"20.3","long":"94.7166667"}},{"country":"mm","city":"Bawdigon","coordinates":{"lat":"18.5333333","long":"96.6333333"}},{"country":"mm","city":"Bawdigwin","coordinates":{"lat":"18.1666667","long":"96.6333333"}},{"country":"mm","city":"Bawdima","coordinates":{"lat":"16.0","long":"95.65"}},{"country":"mm","city":"Bawdri","coordinates":{"lat":"20.0666667","long":"93.0"}},{"country":"mm","city":"Bawdwin","coordinates":{"lat":"20.95","long":"96.7666667"}},{"country":"mm","city":"Bawdwingyi","coordinates":{"lat":"23.1","long":"97.3"}},{"country":"mm","city":"Bawdwin Mines","coordinates":{"lat":"23.1","long":"97.3"}},{"country":"mm","city":"Bawga","coordinates":{"lat":"22.3","long":"95.2333333"}},{"country":"mm","city":"Bawgalegyi","coordinates":{"lat":"18.9166667","long":"96.8"}},{"country":"mm","city":"Bawgaligale","coordinates":{"lat":"18.9","long":"96.7833333"}},{"country":"mm","city":"Bawgaligyi","coordinates":{"lat":"18.9166667","long":"96.8"}},{"country":"mm","city":"Bawgata Atet","coordinates":{"lat":"19.5333333","long":"96.6"}},{"country":"mm","city":"Bawgata-auk","coordinates":{"lat":"18.1833333","long":"96.85"}},{"country":"mm","city":"Bawgata","coordinates":{"lat":"17.6","long":"96.9666667"}},{"country":"mm","city":"Bawgon","coordinates":{"lat":"22.3333333","long":"95.35"}},{"country":"mm","city":"Bawgyo","coordinates":{"lat":"22.5833333","long":"97.25"}},{"country":"mm","city":"Bawhan","coordinates":{"lat":"19.8666667","long":"96.8333333"}},{"country":"mm","city":"Bawhlaing","coordinates":{"lat":"20.1166667","long":"96.25"}},{"country":"mm","city":"Bawhpawhta","coordinates":{"lat":"17.5166667","long":"97.25"}},{"country":"mm","city":"Bawhpawkhi","coordinates":{"lat":"17.6833333","long":"97.1833333"}},{"country":"mm","city":"Bawhti","coordinates":{"lat":"18.8","long":"93.9833333"}},{"country":"mm","city":"Bawiling","coordinates":{"lat":"21.7666667","long":"93.3833333"}},{"country":"mm","city":"Bawkada Ale","coordinates":{"lat":"19.55","long":"96.6166667"}},{"country":"mm","city":"Bawkada Atet","coordinates":{"lat":"19.5333333","long":"96.6"}},{"country":"mm","city":"Bawkada Auk","coordinates":{"lat":"19.55","long":"96.5833333"}},{"country":"mm","city":"Bawkalut","coordinates":{"lat":"16.5938889","long":"96.2966667"}},{"country":"mm","city":"Bawkawkhi","coordinates":{"lat":"17.8166667","long":"97.6333333"}},{"country":"mm","city":"Bawkhi","coordinates":{"lat":"17.5166667","long":"97.3333333"}},{"country":"mm","city":"Bawkyawhta","coordinates":{"lat":"17.5833333","long":"97.6333333"}},{"country":"mm","city":"Bawkyawle","coordinates":{"lat":"17.6166667","long":"97.5166667"}},{"country":"mm","city":"Bawla-hke","coordinates":{"lat":"19.2333333","long":"97.6333333"}},{"country":"mm","city":"Bawlake","coordinates":{"lat":"19.1833333","long":"97.35"}},{"country":"mm","city":"Bawlakhe","coordinates":{"lat":"19.1833333","long":"97.35"}},{"country":"mm","city":"Bawle","coordinates":{"lat":"17.1666667","long":"95.8"}},{"country":"mm","city":"Bawledo","coordinates":{"lat":"18.65","long":"96.9833333"}},{"country":"mm","city":"Bawli","coordinates":{"lat":"21.7833333","long":"92.7333333"}},{"country":"mm","city":"Bawli Bazar","coordinates":{"lat":"21.0833333","long":"92.35"}},{"country":"mm","city":"Bawlon","coordinates":{"lat":"22.9","long":"96.4"}},{"country":"mm","city":"Bawlon","coordinates":{"lat":"20.9166667","long":"96.8"}},{"country":"mm","city":"Bawmi","coordinates":{"lat":"17.3166667","long":"94.5833333"}},{"country":"mm","city":"Bawmila","coordinates":{"lat":"18.85","long":"97.1166667"}},{"country":"mm","city":"Bawmu","coordinates":{"lat":"20.9333333","long":"96.8166667"}},{"country":"mm","city":"Bawmuywathit","coordinates":{"lat":"20.9333333","long":"96.8"}},{"country":"mm","city":"Bawnatgyi","coordinates":{"lat":"17.4666667","long":"96.45"}},{"country":"mm","city":"Bawnawkhi","coordinates":{"lat":"17.6833333","long":"97.3666667"}},{"country":"mm","city":"Bawnawle","coordinates":{"lat":"17.75","long":"97.7166667"}},{"country":"mm","city":"Bawng-im","coordinates":{"lat":"21.2333333","long":"93.6666667"}},{"country":"mm","city":"Bawni","coordinates":{"lat":"17.7","long":"96.5"}},{"country":"mm","city":"Bawningon","coordinates":{"lat":"20.5166667","long":"96.6333333"}},{"country":"mm","city":"Bawninyodaw","coordinates":{"lat":"20.6833333","long":"96.7666667"}},{"country":"mm","city":"Bawni Ywama","coordinates":{"lat":"17.7","long":"96.5"}},{"country":"mm","city":"Bawni Ywathit","coordinates":{"lat":"17.7166667","long":"96.5"}},{"country":"mm","city":"Bawpawgyi","coordinates":{"lat":"17.6833333","long":"97.1833333"}},{"country":"mm","city":"Bawpawta","coordinates":{"lat":"17.5166667","long":"97.25"}},{"country":"mm","city":"Bawsagaing","coordinates":{"lat":"16.4161111","long":"96.2263889"}},{"country":"mm","city":"Bawseko","coordinates":{"lat":"18.3333333","long":"97.0666667"}},{"country":"mm","city":"Bawtala","coordinates":{"lat":"21.2833333","long":"92.25"}},{"country":"mm","city":"Bawtawdo","coordinates":{"lat":"18.4508333","long":"97.3177778"}},{"country":"mm","city":"Bawtha","coordinates":{"lat":"20.3833333","long":"93.5333333"}},{"country":"mm","city":"Bawthabyegan","coordinates":{"lat":"16.7822222","long":"96.3383333"}},{"country":"mm","city":"Bawthabyeyan","coordinates":{"lat":"16.7822222","long":"96.3383333"}},{"country":"mm","city":"Bawthabyu","coordinates":{"lat":"17.1833333","long":"97.6166667"}},{"country":"mm","city":"Bawtharaw","coordinates":{"lat":"17.55","long":"97.75"}},{"country":"mm","city":"Bawthikhi","coordinates":{"lat":"18.1166667","long":"97.45"}},{"country":"mm","city":"Bawthilaw","coordinates":{"lat":"18.1333333","long":"97.45"}},{"country":"mm","city":"Bawthohta","coordinates":{"lat":"17.7333333","long":"97.4166667"}},{"country":"mm","city":"Bawthun","coordinates":{"lat":"17.1666667","long":"96.75"}},{"country":"mm","city":"Bawudo","coordinates":{"lat":"18.35","long":"97.0666667"}},{"country":"mm","city":"Bawyomudo","coordinates":{"lat":"18.55","long":"97.0833333"}},{"country":"mm","city":"Bawzaing","coordinates":{"lat":"20.9","long":"96.7333333"}},{"country":"mm","city":"Bawzakaing","coordinates":{"lat":"17.6833333","long":"95.2"}},{"country":"mm","city":"Bawzok Sabyuzu","coordinates":{"lat":"17.1833333","long":"95.3833333"}},{"country":"mm","city":"Baya","coordinates":{"lat":"19.1833333","long":"93.6666667"}},{"country":"mm","city":"Bayanathe","coordinates":{"lat":"18.6333333","long":"96.65"}},{"country":"mm","city":"Baye","coordinates":{"lat":"19.2333333","long":"95.55"}},{"country":"mm","city":"Bayet","coordinates":{"lat":"16.7633333","long":"96.2997222"}},{"country":"mm","city":"Bayettaung","coordinates":{"lat":"13.2833333","long":"98.6"}},{"country":"mm","city":"Baza","coordinates":{"lat":"27.3333333","long":"98.65"}},{"country":"mm","city":"Bazagitpadan","coordinates":{"lat":"18.5166667","long":"96.4333333"}},{"country":"mm","city":"Bazung","coordinates":{"lat":"27.2666667","long":"98.6"}},{"country":"mm","city":"Be","coordinates":{"lat":"21.2666667","long":"94.9166667"}},{"country":"mm","city":"Bèbe","coordinates":{"lat":"18.4","long":"96.7833333"}},{"country":"mm","city":"Bebya","coordinates":{"lat":"18.15","long":"95.1166667"}},{"country":"mm","city":"Bèbyagon","coordinates":{"lat":"17.7833333","long":"95.15"}},{"country":"mm","city":"Bechaung","coordinates":{"lat":"18.8166667","long":"93.5666667"}},{"country":"mm","city":"Bedaung","coordinates":{"lat":"21.1666667","long":"92.8166667"}},{"country":"mm","city":"Begayet","coordinates":{"lat":"16.8833333","long":"94.9166667"}},{"country":"mm","city":"Begon","coordinates":{"lat":"19.7833333","long":"96.2"}},{"country":"mm","city":"Begon Myauk","coordinates":{"lat":"19.7833333","long":"96.2"}},{"country":"mm","city":"Begon Taung","coordinates":{"lat":"19.7833333","long":"96.2"}},{"country":"mm","city":"Begyi","coordinates":{"lat":"16.2666667","long":"95.9"}},{"country":"mm","city":"Bè-i","coordinates":{"lat":"18.4","long":"96.7833333"}},{"country":"mm","city":"Beikshe","coordinates":{"lat":"17.45","long":"94.9833333"}},{"country":"mm","city":"Beiktheik Ohnbinzu","coordinates":{"lat":"16.6933333","long":"96.69"}},{"country":"mm","city":"Be-in","coordinates":{"lat":"18.85","long":"93.6666667"}},{"country":"mm","city":"Beindaga","coordinates":{"lat":"20.6166667","long":"96.1833333"}},{"country":"mm","city":"Beindawzeik","coordinates":{"lat":"17.45","long":"95.7666667"}},{"country":"mm","city":"Beingwe","coordinates":{"lat":"21.1","long":"96.0333333"}},{"country":"mm","city":"Beinnwègyaung","coordinates":{"lat":"22.15","long":"95.0666667"}},{"country":"mm","city":"Beinwèchaung","coordinates":{"lat":"22.15","long":"95.0666667"}},{"country":"mm","city":"Bekalwi","coordinates":{"lat":"15.4833333","long":"97.9166667"}},{"country":"mm","city":"Bekhinta","coordinates":{"lat":"17.9666667","long":"97.3"}},{"country":"mm","city":"Bekoki","coordinates":{"lat":"18.75","long":"97.2166667"}},{"country":"mm","city":"Belako","coordinates":{"lat":"18.9833333","long":"97.0166667"}},{"country":"mm","city":"Belamu","coordinates":{"lat":"15.5666667","long":"97.9"}},{"country":"mm","city":"Belanu","coordinates":{"lat":"17.4166667","long":"97.2833333"}},{"country":"mm","city":"Belawl","coordinates":{"lat":"23.1166667","long":"93.6666667"}},{"country":"mm","city":"Belhar","coordinates":{"lat":"22.55","long":"93.1833333"}},{"country":"mm","city":"Bemagyauk Ywa","coordinates":{"lat":"11.7333333","long":"98.55"}},{"country":"mm","city":"Be-makyauk","coordinates":{"lat":"11.7333333","long":"98.55"}},{"country":"mm","city":"Bernardmyo","coordinates":{"lat":"23.0166667","long":"96.45"}},{"country":"mm","city":"Besawlaw","coordinates":{"lat":"18.6","long":"97.0833333"}},{"country":"mm","city":"Bethawlaw","coordinates":{"lat":"18.6","long":"97.0833333"}},{"country":"mm","city":"Betkaligyi","coordinates":{"lat":"17.7333333","long":"97.1833333"}},{"country":"mm","city":"Bewahta","coordinates":{"lat":"17.4","long":"97.35"}},{"country":"mm","city":"Beyan","coordinates":{"lat":"16.2725","long":"97.7211111"}},{"country":"mm","city":"Beyin","coordinates":{"lat":"23.0833333","long":"95.4166667"}},{"country":"mm","city":"Bezeik","coordinates":{"lat":"20.3666667","long":"94.9166667"}},{"country":"mm","city":"Beziek","coordinates":{"lat":"20.3666667","long":"94.9166667"}},{"country":"mm","city":"Bezu","coordinates":{"lat":"16.6552778","long":"96.045"}},{"country":"mm","city":"Bhamo","coordinates":{"lat":"24.2666667","long":"97.2333333"}},{"country":"mm","city":"Bhatoo-Myo","coordinates":{"lat":"21.2666667","long":"96.8333333"}},{"country":"mm","city":"Bhukhung","coordinates":{"lat":"16.8","long":"94.4166667"}},{"country":"mm","city":"Bidaukkon","coordinates":{"lat":"22.8833333","long":"95.6"}},{"country":"mm","city":"Bidayi","coordinates":{"lat":"15.9666667","long":"98.15"}},{"country":"mm","city":"Bidonegyaungwa","coordinates":{"lat":"21.1","long":"92.9"}},{"country":"mm","city":"Bidutgale","coordinates":{"lat":"16.1","long":"94.8666667"}},{"country":"mm","city":"Bigaing","coordinates":{"lat":"19.7","long":"95.0166667"}},{"country":"mm","city":"Bigwe","coordinates":{"lat":"18.2666667","long":"95.7"}},{"country":"mm","city":"Bigyi","coordinates":{"lat":"17.8666667","long":"95.6333333"}},{"country":"mm","city":"Bi-hku","coordinates":{"lat":"19.1166667","long":"97.2333333"}},{"country":"mm","city":"Bikabat","coordinates":{"lat":"15.95","long":"97.7"}},{"country":"mm","city":"Bikodo","coordinates":{"lat":"18.4333333","long":"97.0333333"}},{"country":"mm","city":"Bilako","coordinates":{"lat":"18.9833333","long":"97.0166667"}},{"country":"mm","city":"Bilin Anauk","coordinates":{"lat":"17.7166667","long":"95.6833333"}},{"country":"mm","city":"Bilin Ashe","coordinates":{"lat":"17.7166667","long":"95.7"}},{"country":"mm","city":"Bilin","coordinates":{"lat":"17.0","long":"95.15"}},{"country":"mm","city":"Bilin","coordinates":{"lat":"17.2333333","long":"97.25"}},{"country":"mm","city":"Bilin","coordinates":{"lat":"21.6833333","long":"96.15"}},{"country":"mm","city":"Bilin","coordinates":{"lat":"17.7166667","long":"95.6833333"}},{"country":"mm","city":"Bilin","coordinates":{"lat":"16.5055556","long":"96.0088889"}},{"country":"mm","city":"Bilingyo","coordinates":{"lat":"17.2333333","long":"97.2666667"}},{"country":"mm","city":"Bilinsu","coordinates":{"lat":"16.7833333","long":"95.5666667"}},{"country":"mm","city":"Bilinzu","coordinates":{"lat":"16.7833333","long":"95.5666667"}},{"country":"mm","city":"Bilumyo","coordinates":{"lat":"24.85","long":"96.35"}},{"country":"mm","city":"Bilusakan","coordinates":{"lat":"13.05","long":"98.9833333"}},{"country":"mm","city":"Bimaku","coordinates":{"lat":"18.9166667","long":"97.0166667"}},{"country":"mm","city":"Bimaw","coordinates":{"lat":"26.0166667","long":"98.6166667"}},{"country":"mm","city":"Bina","coordinates":{"lat":"17.6166667","long":"97.8666667"}},{"country":"mm","city":"Binapara","coordinates":{"lat":"20.8","long":"93.05"}},{"country":"mm","city":"Binban","coordinates":{"lat":"17.5166667","long":"97.25"}},{"country":"mm","city":"Binbel","coordinates":{"lat":"18.7666667","long":"96.7166667"}},{"country":"mm","city":"Binbet","coordinates":{"lat":"18.7666667","long":"96.7166667"}},{"country":"mm","city":"Binbyewa","coordinates":{"lat":"18.4","long":"96.7166667"}},{"country":"mm","city":"Binga","coordinates":{"lat":"22.6833333","long":"95.25"}},{"country":"mm","city":"Bingwa","coordinates":{"lat":"20.7833333","long":"95.05"}},{"country":"mm","city":"Bingyi","coordinates":{"lat":"16.9791667","long":"97.5122222"}},{"country":"mm","city":"Bingyidaw","coordinates":{"lat":"21.3166667","long":"95.6833333"}},{"country":"mm","city":"Binhlaing","coordinates":{"lat":"16.9333333","long":"97.4833333"}},{"country":"mm","city":"Binhlaing","coordinates":{"lat":"16.9091667","long":"97.3991667"}},{"country":"mm","city":"Binlaing","coordinates":{"lat":"12.3333333","long":"98.8166667"}},{"country":"mm","city":"Binyadam","coordinates":{"lat":"27.6333333","long":"97.75"}},{"country":"mm","city":"Bisakat","coordinates":{"lat":"16.15","long":"98.1666667"}},{"country":"mm","city":"Bisakat","coordinates":{"lat":"15.9833333","long":"97.6666667"}},{"country":"mm","city":"Bisakhat","coordinates":{"lat":"16.85","long":"98.0833333"}},{"country":"mm","city":"Biskat","coordinates":{"lat":"16.15","long":"98.1666667"}},{"country":"mm","city":"Bitagagya","coordinates":{"lat":"22.7","long":"95.4333333"}},{"country":"mm","city":"Bithalun","coordinates":{"lat":"17.6166667","long":"95.15"}},{"country":"mm","city":"Bithalun","coordinates":{"lat":"18.1333333","long":"95.5333333"}},{"country":"mm","city":"Bithu Atet","coordinates":{"lat":"19.4166667","long":"96.9166667"}},{"country":"mm","city":"Biya","coordinates":{"lat":"19.35","long":"96.9833333"}},{"country":"mm","city":"Biyandi","coordinates":{"lat":"19.1833333","long":"95.5666667"}},{"country":"mm","city":"Biyin","coordinates":{"lat":"23.0833333","long":"95.4166667"}},{"country":"mm","city":"Bizang","coordinates":{"lat":"23.8333333","long":"93.6833333"}},{"country":"mm","city":"Bizatkon","coordinates":{"lat":"22.2833333","long":"95.6333333"}},{"country":"mm","city":"Blawkho","coordinates":{"lat":"17.6166667","long":"97.1333333"}},{"country":"mm","city":"Blawkhu","coordinates":{"lat":"17.6166667","long":"97.1333333"}},{"country":"mm","city":"Blawko","coordinates":{"lat":"17.6166667","long":"97.1333333"}},{"country":"mm","city":"Ble-mu","coordinates":{"lat":"17.8","long":"97.65"}},{"country":"mm","city":"Bleper","coordinates":{"lat":"17.8666667","long":"97.5166667"}},{"country":"mm","city":"Blogawdo","coordinates":{"lat":"18.45","long":"97.1"}},{"country":"mm","city":"Boathe","coordinates":{"lat":"20.8","long":"93.3333333"}},{"country":"mm","city":"Bobeik","coordinates":{"lat":"21.2166667","long":"93.25"}},{"country":"mm","city":"Bobeik","coordinates":{"lat":"16.5944444","long":"96.2025"}},{"country":"mm","city":"Bo","coordinates":{"lat":"21.6333333","long":"93.9"}},{"country":"mm","city":"Boda","coordinates":{"lat":"11.3333333","long":"98.8333333"}},{"country":"mm","city":"Bodaungseik","coordinates":{"lat":"13.1","long":"98.6166667"}},{"country":"mm","city":"Bodawtaw","coordinates":{"lat":"22.6666667","long":"95.8166667"}},{"country":"mm","city":"Bodegon","coordinates":{"lat":"18.0166667","long":"95.6333333"}},{"country":"mm","city":"Bodegon","coordinates":{"lat":"22.3833333","long":"95.6"}},{"country":"mm","city":"Bodetkon","coordinates":{"lat":"21.9333333","long":"96.15"}},{"country":"mm","city":"Bodewa","coordinates":{"lat":"24.2166667","long":"97.25"}},{"country":"mm","city":"Bodin","coordinates":{"lat":"16.4688889","long":"96.1452778"}},{"country":"mm","city":"Bogale","coordinates":{"lat":"21.2666667","long":"92.4"}},{"country":"mm","city":"Bogale","coordinates":{"lat":"16.2833333","long":"95.4"}},{"country":"mm","city":"Bogale","coordinates":{"lat":"16.8308333","long":"96.7586111"}},{"country":"mm","city":"Bogôn","coordinates":{"lat":"15.9166667","long":"94.9333333"}},{"country":"mm","city":"Bogôn","coordinates":{"lat":"24.35","long":"96.6333333"}},{"country":"mm","city":"Bogon","coordinates":{"lat":"18.95","long":"95.1833333"}},{"country":"mm","city":"Bogon","coordinates":{"lat":"20.6333333","long":"95.6"}},{"country":"mm","city":"Bogon","coordinates":{"lat":"18.9166667","long":"96.3"}},{"country":"mm","city":"Bogon","coordinates":{"lat":"22.8833333","long":"95.6666667"}},{"country":"mm","city":"Bogyi","coordinates":{"lat":"23.0666667","long":"94.1166667"}},{"country":"mm","city":"Bogyigon","coordinates":{"lat":"17.5833333","long":"95.8"}},{"country":"mm","city":"Bogyi-kyun","coordinates":{"lat":"22.2666667","long":"96.0"}},{"country":"mm","city":"Bogyisakkan","coordinates":{"lat":"18.6333333","long":"95.7666667"}},{"country":"mm","city":"Bogyi Tè","coordinates":{"lat":"19.3833333","long":"95.9333333"}},{"country":"mm","city":"Bogyiywa","coordinates":{"lat":"14.7333333","long":"97.85"}},{"country":"mm","city":"Bo-hku","coordinates":{"lat":"19.2166667","long":"97.2666667"}},{"country":"mm","city":"Bo-in","coordinates":{"lat":"23.65","long":"95.3333333"}},{"country":"mm","city":"Bokadaw","coordinates":{"lat":"18.9666667","long":"96.35"}},{"country":"mm","city":"Bok","coordinates":{"lat":"13.5666667","long":"98.3833333"}},