[{"country":"sd","city":"Abadai","coordinates":{"lat":"9.15","long":"28.45"}},{"country":"sd","city":"Abaiat","coordinates":{"lat":"10.3","long":"32.55"}},{"country":"sd","city":"Abaj","coordinates":{"lat":"10.05","long":"32.5666667"}},{"country":"sd","city":"Ab Ajaj","coordinates":{"lat":"17.3108333","long":"34.4836111"}},{"country":"sd","city":"Abaka","coordinates":{"lat":"14.3333333","long":"22.55"}},{"country":"sd","city":"Abalang","coordinates":{"lat":"12.6666667","long":"31.4"}},{"country":"sd","city":"Abalga","coordinates":{"lat":"13.5333333","long":"23.7833333"}},{"country":"sd","city":"Aballi","coordinates":{"lat":"9.2166667","long":"33.8333333"}},{"country":"sd","city":"Abang","coordinates":{"lat":"7.6297222","long":"28.0238889"}},{"country":"sd","city":"Abania","coordinates":{"lat":"11.0666667","long":"34.55"}},{"country":"sd","city":"Abar","coordinates":{"lat":"7.4866667","long":"28.8761111"}},{"country":"sd","city":"Abarau","coordinates":{"lat":"8.6833333","long":"26.1"}},{"country":"sd","city":"Abarnima","coordinates":{"lat":"9.7402778","long":"31.9366667"}},{"country":"sd","city":"Abarud","coordinates":{"lat":"8.9","long":"26.15"}},{"country":"sd","city":"`Abata","coordinates":{"lat":"13.1333333","long":"23.6333333"}},{"country":"sd","city":"Abatta","coordinates":{"lat":"19.5166667","long":"30.4833333"}},{"country":"sd","city":"Abauadala","coordinates":{"lat":"11.1333333","long":"34.5666667"}},{"country":"sd","city":"Abayat","coordinates":{"lat":"10.3","long":"32.55"}},{"country":"sd","city":"Abayath","coordinates":{"lat":"10.3","long":"32.55"}},{"country":"sd","city":"Abbas","coordinates":{"lat":"12.6","long":"30.7166667"}},{"country":"sd","city":"`Abbas `Abd Allah","coordinates":{"lat":"14.0333333","long":"33.3166667"}},{"country":"sd","city":"`Abbas `Abdullah","coordinates":{"lat":"14.0333333","long":"33.3166667"}},{"country":"sd","city":"Abbasiya","coordinates":{"lat":"13.1333333","long":"32.7666667"}},{"country":"sd","city":"`Abbasiya","coordinates":{"lat":"12.0166667","long":"27.9666667"}},{"country":"sd","city":"Abbasiya","coordinates":{"lat":"12.1666667","long":"31.3"}},{"country":"sd","city":"`Abbasiyah","coordinates":{"lat":"12.0166667","long":"27.9666667"}},{"country":"sd","city":"Abbassia Gedida","coordinates":{"lat":"13.1333333","long":"32.7666667"}},{"country":"sd","city":"Abbeit","coordinates":{"lat":"11.75","long":"32.8166667"}},{"country":"sd","city":"Abbogol","coordinates":{"lat":"11.1833333","long":"34.6333333"}},{"country":"sd","city":"Abbuda","coordinates":{"lat":"14.3333333","long":"35.8833333"}},{"country":"sd","city":"`Abbudah","coordinates":{"lat":"14.3333333","long":"35.8833333"}},{"country":"sd","city":"`Abd ad Da'im","coordinates":{"lat":"14.35","long":"33.45"}},{"country":"sd","city":"`Abd ad Da'im","coordinates":{"lat":"11.5833333","long":"27.4166667"}},{"country":"sd","city":"`Abd al Baqi","coordinates":{"lat":"13.6333333","long":"32.5166667"}},{"country":"sd","city":"`Abd al Fadil","coordinates":{"lat":"14.0833333","long":"33.7833333"}},{"country":"sd","city":"`Abd al Farraj","coordinates":{"lat":"10.2666667","long":"34.05"}},{"country":"sd","city":"`Abd al Ghaffar","coordinates":{"lat":"13.2833333","long":"32.7"}},{"country":"sd","city":"`Abd al Ghani","coordinates":{"lat":"14.2166667","long":"33.25"}},{"country":"sd","city":"`Abd al HafizÌ§","coordinates":{"lat":"14.35","long":"33.4166667"}},{"country":"sd","city":"`Abd al Jalil","coordinates":{"lat":"14.5333333","long":"33.35"}},{"country":"sd","city":"`Abd al Karim","coordinates":{"lat":"13.0666667","long":"33.8166667"}},{"country":"sd","city":"`Abd al Khayr","coordinates":{"lat":"13.7","long":"29.5"}},{"country":"sd","city":"`Abd Allah","coordinates":{"lat":"14.4833333","long":"33.6666667"}},{"country":"sd","city":"`Abd Allah","coordinates":{"lat":"5.0833333","long":"30.5833333"}},{"country":"sd","city":"`Abd Allah","coordinates":{"lat":"7.1","long":"28.75"}},{"country":"sd","city":"`Abd Allah","coordinates":{"lat":"12.8833333","long":"25.5"}},{"country":"sd","city":"`Abd Allah","coordinates":{"lat":"13.5666667","long":"30.8666667"}},{"country":"sd","city":"`Abd Allah `Ali","coordinates":{"lat":"13.8666667","long":"32.9166667"}},{"country":"sd","city":"`Abd Allah Bashir","coordinates":{"lat":"12.9833333","long":"24.5833333"}},{"country":"sd","city":"`Abd Allah Kahli","coordinates":{"lat":"14.9166667","long":"32.8166667"}},{"country":"sd","city":"`Abd Allah Kyango","coordinates":{"lat":"7.6208333","long":"27.7772222"}},{"country":"sd","city":"`Abd Allah Na'imah","coordinates":{"lat":"13.9166667","long":"32.8833333"}},{"country":"sd","city":"`Abd al Lait","coordinates":{"lat":"7.0833333","long":"26.0"}},{"country":"sd","city":"`Abd al Majid","coordinates":{"lat":"14.7666667","long":"32.7666667"}},{"country":"sd","city":"`Abd al Mawlá","coordinates":{"lat":"14.6666667","long":"32.5"}},{"country":"sd","city":"`Abd al Qadir","coordinates":{"lat":"8.6666667","long":"25.3"}},{"country":"sd","city":"Abdanab","coordinates":{"lat":"14.4666667","long":"32.9"}},{"country":"sd","city":"`Abd an Nab","coordinates":{"lat":"14.4666667","long":"32.9"}},{"country":"sd","city":"`Abd an Nur","coordinates":{"lat":"15.1","long":"32.6833333"}},{"country":"sd","city":"`Abd ar Rahman","coordinates":{"lat":"14.5666667","long":"33.25"}},{"country":"sd","city":"`Abd ar Rahman","coordinates":{"lat":"13.45","long":"30.95"}},{"country":"sd","city":"`Abd ar Rahman Subei","coordinates":{"lat":"14.4666667","long":"29.05"}},{"country":"sd","city":"`Abd ar Rasul","coordinates":{"lat":"14.2833333","long":"32.6"}},{"country":"sd","city":"`Abd ar Razzaq","coordinates":{"lat":"13.3333333","long":"34.75"}},{"country":"sd","city":"`Abd ar Rijal","coordinates":{"lat":"10.2166667","long":"33.2"}},{"country":"sd","city":"`Abd as Sadiq","coordinates":{"lat":"14.4333333","long":"32.5166667"}},{"country":"sd","city":"`Abd at Tam","coordinates":{"lat":"7.1488889","long":"28.5308333"}},{"country":"sd","city":"`Abd ed Daim","coordinates":{"lat":"14.35","long":"33.45"}},{"country":"sd","city":"`Abd ed Daim","coordinates":{"lat":"11.5833333","long":"27.4166667"}},{"country":"sd","city":"`Abd el Bagi","coordinates":{"lat":"13.6333333","long":"32.5166667"}},{"country":"sd","city":"`Abd el Baqi","coordinates":{"lat":"14.2","long":"33.3666667"}},{"country":"sd","city":"`Abd el Fadil","coordinates":{"lat":"14.0833333","long":"33.7833333"}},{"country":"sd","city":"`Abd el Farrag","coordinates":{"lat":"10.2666667","long":"34.05"}},{"country":"sd","city":"`Abd el Galil","coordinates":{"lat":"14.5333333","long":"33.35"}},{"country":"sd","city":"`Abd el Ghaffar","coordinates":{"lat":"13.2833333","long":"32.7"}},{"country":"sd","city":"`Abd el Ghani","coordinates":{"lat":"14.2166667","long":"33.25"}},{"country":"sd","city":"`Abd el Hafiz","coordinates":{"lat":"14.35","long":"33.4166667"}},{"country":"sd","city":"`Abd el Karim","coordinates":{"lat":"13.0666667","long":"33.8166667"}},{"country":"sd","city":"`Abd el Kheir","coordinates":{"lat":"13.7","long":"29.5"}},{"country":"sd","city":"Abd el Lait","coordinates":{"lat":"7.0833333","long":"26.0"}},{"country":"sd","city":"`Abd el Magid","coordinates":{"lat":"14.7666667","long":"32.7666667"}},{"country":"sd","city":"`Abd el Mula","coordinates":{"lat":"14.6666667","long":"32.5"}},{"country":"sd","city":"`Abd el Qadir","coordinates":{"lat":"8.6666667","long":"25.3"}},{"country":"sd","city":"`Abd el Qadir","coordinates":{"lat":"15.0808333","long":"33.4805556"}},{"country":"sd","city":"`Abd en Nab","coordinates":{"lat":"14.4666667","long":"32.9"}},{"country":"sd","city":"`Abd en Nur","coordinates":{"lat":"15.1","long":"32.6833333"}},{"country":"sd","city":"`Abd er Rahman","coordinates":{"lat":"14.5666667","long":"33.25"}},{"country":"sd","city":"`Abd er Rahman","coordinates":{"lat":"13.45","long":"30.95"}},{"country":"sd","city":"`Abd er Rahman Subei","coordinates":{"lat":"14.4666667","long":"29.05"}},{"country":"sd","city":"`Abd er Rasul","coordinates":{"lat":"14.2833333","long":"32.6"}},{"country":"sd","city":"Abd er Razzaq","coordinates":{"lat":"13.3333333","long":"34.75"}},{"country":"sd","city":"`Abd er Rigal","coordinates":{"lat":"10.2166667","long":"33.2"}},{"country":"sd","city":"`Abd es Sadiq","coordinates":{"lat":"14.4333333","long":"32.5166667"}},{"country":"sd","city":"`Abd et Tam","coordinates":{"lat":"7.1488889","long":"28.5308333"}},{"country":"sd","city":"`Abdin","coordinates":{"lat":"13.3333333","long":"33.7166667"}},{"country":"sd","city":"`Abdin","coordinates":{"lat":"13.55","long":"29.6333333"}},{"country":"sd","city":"`Abdotab","coordinates":{"lat":"16.7513889","long":"33.4419444"}},{"country":"sd","city":"Abdoullah","coordinates":{"lat":"13.5","long":"23.0333333"}},{"country":"sd","city":"Abdu Deiyata","coordinates":{"lat":"12.7","long":"22.4666667"}},{"country":"sd","city":"Abduilah Kyango","coordinates":{"lat":"7.6208333","long":"27.7772222"}},{"country":"sd","city":"Abdulla","coordinates":{"lat":"5.5691667","long":"29.7808333"}},{"country":"sd","city":"Abdullah","coordinates":{"lat":"11.0666667","long":"34.6666667"}},{"country":"sd","city":"`Abdullah","coordinates":{"lat":"14.4833333","long":"33.6666667"}},{"country":"sd","city":"Abdullah","coordinates":{"lat":"5.0833333","long":"30.5833333"}},{"country":"sd","city":"`Abdullah","coordinates":{"lat":"7.1","long":"28.75"}},{"country":"sd","city":"`Abdullah","coordinates":{"lat":"12.8833333","long":"25.5"}},{"country":"sd","city":"Abdullah","coordinates":{"lat":"13.5","long":"23.0333333"}},{"country":"sd","city":"`Abdullah","coordinates":{"lat":"13.5666667","long":"30.8666667"}},{"country":"sd","city":"`Abdullah `Ali","coordinates":{"lat":"13.8666667","long":"32.9166667"}},{"country":"sd","city":"`Abdullah Beshir","coordinates":{"lat":"12.9833333","long":"24.5833333"}},{"country":"sd","city":"`Abdullah Kahl","coordinates":{"lat":"14.9166667","long":"32.8166667"}},{"country":"sd","city":"Abdullah Kyango","coordinates":{"lat":"7.6208333","long":"27.7772222"}},{"country":"sd","city":"`Abdullah Naima","coordinates":{"lat":"13.9166667","long":"32.8833333"}},{"country":"sd","city":"Abdullah Qeissan","coordinates":{"lat":"11.0666667","long":"34.6666667"}},{"country":"sd","city":"Abdul Majid","coordinates":{"lat":"14.7666667","long":"32.7666667"}},{"country":"sd","city":"Abegi","coordinates":{"lat":"4.015","long":"30.5677778"}},{"country":"sd","city":"Abeif","coordinates":{"lat":"7.8613889","long":"28.4494444"}},{"country":"sd","city":"Abeikli","coordinates":{"lat":"14.3333333","long":"33.4666667"}},{"country":"sd","city":"Abeir","coordinates":{"lat":"6.8666667","long":"29.6166667"}},{"country":"sd","city":"Abeit","coordinates":{"lat":"7.8613889","long":"28.4494444"}},{"country":"sd","city":"Abeiya","coordinates":{"lat":"13.1833333","long":"31.1"}},{"country":"sd","city":"Abekr","coordinates":{"lat":"12.7166667","long":"28.9166667"}},{"country":"sd","city":"Abela","coordinates":{"lat":"11.4166667","long":"34.5833333"}},{"country":"sd","city":"Abelek","coordinates":{"lat":"7.3825","long":"28.7216667"}},{"country":"sd","city":"Abemnom","coordinates":{"lat":"9.3333333","long":"28.9166667"}},{"country":"sd","city":"Abeo","coordinates":{"lat":"7.9833333","long":"27.7833333"}},{"country":"sd","city":"Ab Gir","coordinates":{"lat":"11.7666667","long":"31.75"}},{"country":"sd","city":"Abguana","coordinates":{"lat":"9.6166667","long":"34.1166667"}},{"country":"sd","city":"Abi","coordinates":{"lat":"7.6502778","long":"28.7552778"}},{"country":"sd","city":"Abiagyai","coordinates":{"lat":"10.1166667","long":"32.2666667"}},{"country":"sd","city":"Abiangyai","coordinates":{"lat":"10.1166667","long":"32.2666667"}},{"country":"sd","city":"Abiayai","coordinates":{"lat":"10.1166667","long":"32.2666667"}},{"country":"sd","city":"`Abidin","coordinates":{"lat":"13.3333333","long":"33.7166667"}},{"country":"sd","city":"`Abidin","coordinates":{"lat":"13.55","long":"29.6333333"}},{"country":"sd","city":"`Abidiya","coordinates":{"lat":"18.2333333","long":"33.95"}},{"country":"sd","city":"`Abidiyah","coordinates":{"lat":"18.2333333","long":"33.95"}},{"country":"sd","city":"Abiem","coordinates":{"lat":"6.5486111","long":"30.5130556"}},{"country":"sd","city":"Abiem","coordinates":{"lat":"6.2630556","long":"31.1741667"}},{"country":"sd","city":"Abiemnom","coordinates":{"lat":"9.3333333","long":"28.9166667"}},{"country":"sd","city":"Abiengyai","coordinates":{"lat":"10.1166667","long":"32.0833333"}},{"country":"sd","city":"Abiey","coordinates":{"lat":"8.6","long":"28.9666667"}},{"country":"sd","city":"Abi Karu","coordinates":{"lat":"12.2166667","long":"25.7"}},{"country":"sd","city":"Abi Rij","coordinates":{"lat":"6.9666667","long":"29.45"}},{"country":"sd","city":"Abiriu","coordinates":{"lat":"6.9666667","long":"29.45"}},{"country":"sd","city":"Abiyai","coordinates":{"lat":"7.1172222","long":"29.2844444"}},{"country":"sd","city":"Abiyei","coordinates":{"lat":"7.9","long":"29.25"}},{"country":"sd","city":"`Abka","coordinates":{"lat":"21.8333333","long":"31.1833333"}},{"country":"sd","city":"`Abka East","coordinates":{"lat":"21.8","long":"31.2333333"}},{"country":"sd","city":"`Abka West","coordinates":{"lat":"21.8333333","long":"31.1833333"}},{"country":"sd","city":"Ab Namel","coordinates":{"lat":"17.2861111","long":"34.4019444"}},{"country":"sd","city":"Abodit","coordinates":{"lat":"6.5963889","long":"31.4941667"}},{"country":"sd","city":"Abort","coordinates":{"lat":"8.8833333","long":"27.5833333"}},{"country":"sd","city":"Abota","coordinates":{"lat":"13.0833333","long":"22.1833333"}},{"country":"sd","city":"Aboti","coordinates":{"lat":"10.95","long":"25.6166667"}},{"country":"sd","city":"Ab Qedom","coordinates":{"lat":"16.4008333","long":"32.7761111"}},{"country":"sd","city":"Abraq","coordinates":{"lat":"14.3833333","long":"33.0166667"}},{"country":"sd","city":"`Abri","coordinates":{"lat":"20.8","long":"30.3333333"}},{"country":"sd","city":"`Abri","coordinates":{"lat":"11.6666667","long":"30.4666667"}},{"country":"sd","city":"`Abri West","coordinates":{"lat":"20.8166667","long":"30.3333333"}},{"country":"sd","city":"Ab Shambal","coordinates":{"lat":"16.3122222","long":"32.6891667"}},{"country":"sd","city":"Abu `Agag","coordinates":{"lat":"14.6333333","long":"32.2833333"}},{"country":"sd","city":"Abu `Agala","coordinates":{"lat":"14.05","long":"35.5"}},{"country":"sd","city":"Abu `Agub","coordinates":{"lat":"13.7666667","long":"29.3"}},{"country":"sd","city":"Abu `Ajaj","coordinates":{"lat":"14.6333333","long":"32.2833333"}},{"country":"sd","city":"Abu Ajala","coordinates":{"lat":"11.6","long":"24.6666667"}},{"country":"sd","city":"Abu Ajura","coordinates":{"lat":"11.6","long":"24.6666667"}},{"country":"sd","city":"Abu `Ajurah","coordinates":{"lat":"11.6","long":"24.6666667"}},{"country":"sd","city":"Abu al Fahl","coordinates":{"lat":"10.95","long":"25.4833333"}},{"country":"sd","city":"Abu al Hasan","coordinates":{"lat":"16.6166667","long":"33.25"}},{"country":"sd","city":"Abu al Khil","coordinates":{"lat":"17.1833333","long":"34.6833333"}},{"country":"sd","city":"Abu Amara","coordinates":{"lat":"15.35","long":"35.75"}},{"country":"sd","city":"Abu Ammar","coordinates":{"lat":"17.6180556","long":"34.14"}},{"country":"sd","city":"Abu Andud","coordinates":{"lat":"13.1166667","long":"32.6833333"}},{"country":"sd","city":"Abu `Aqla","coordinates":{"lat":"12.8","long":"34.1"}},{"country":"sd","city":"Abu `Araish","coordinates":{"lat":"13.45","long":"32.4"}},{"country":"sd","city":"Abu `Auga","coordinates":{"lat":"12.05","long":"31.05"}},{"country":"sd","city":"Abu `Aun","coordinates":{"lat":"14.15","long":"32.8"}},{"country":"sd","city":"Abu `Auwa","coordinates":{"lat":"13.2833333","long":"31.6"}},{"country":"sd","city":"Abu `Awja'","coordinates":{"lat":"12.05","long":"31.05"}},{"country":"sd","city":"Abu `Awn","coordinates":{"lat":"14.15","long":"32.8"}},{"country":"sd","city":"Abu `Awwa'","coordinates":{"lat":"13.2833333","long":"31.6"}},{"country":"sd","city":"Abu Babun","coordinates":{"lat":"13.3","long":"34.7333333"}},{"country":"sd","city":"Abu Baras","coordinates":{"lat":"10.8666667","long":"34.5166667"}},{"country":"sd","city":"Abu Cureis","coordinates":{"lat":"11.7333333","long":"31.6333333"}},{"country":"sd","city":"Abu Dab","coordinates":{"lat":"14.9","long":"33.45"}},{"country":"sd","city":"Abu Dabarah","coordinates":{"lat":"14.2666667","long":"33.3833333"}},{"country":"sd","city":"Abu Dabarah","coordinates":{"lat":"12.0666667","long":"28.0333333"}},{"country":"sd","city":"`Abud","coordinates":{"lat":"14.2333333","long":"33.1333333"}},{"country":"sd","city":"Abu Dangal","coordinates":{"lat":"12.35","long":"25.7166667"}},{"country":"sd","city":"Abu Daql","coordinates":{"lat":"12.7333333","long":"28.6833333"}},{"country":"sd","city":"Abu Daqn","coordinates":{"lat":"10.3","long":"33.3833333"}},{"country":"sd","city":"Abu Darisah","coordinates":{"lat":"14.3","long":"36.2666667"}},{"country":"sd","city":"Abu Dawaia","coordinates":{"lat":"11.5666667","long":"34.4333333"}},{"country":"sd","city":"Abu Dawaya","coordinates":{"lat":"11.5666667","long":"34.4333333"}},{"country":"sd","city":"Abu Dawayah","coordinates":{"lat":"11.5666667","long":"34.4333333"}},{"country":"sd","city":"Abu Dawm","coordinates":{"lat":"16.2813889","long":"32.6058333"}},{"country":"sd","city":"Abu Dawm","coordinates":{"lat":"17.9666667","long":"31.1666667"}},{"country":"sd","city":"Abu Dawmah","coordinates":{"lat":"14.55","long":"33.7333333"}},{"country":"sd","city":"Abu Dawmah","coordinates":{"lat":"15.4413889","long":"32.4961111"}},{"country":"sd","city":"Abu Dawmah","coordinates":{"lat":"11.8833333","long":"28.05"}},{"country":"sd","city":"Abu Dawm Sannum","coordinates":{"lat":"18.4666667","long":"31.8"}},{"country":"sd","city":"Abu Dazza","coordinates":{"lat":"13.4833333","long":"27.6833333"}},{"country":"sd","city":"Abu Dazzah","coordinates":{"lat":"13.4833333","long":"27.6833333"}},{"country":"sd","city":"Abu Deiyata","coordinates":{"lat":"12.7","long":"22.4666667"}},{"country":"sd","city":"Abu Deleig","coordinates":{"lat":"15.9","long":"33.8166667"}},{"country":"sd","city":"Abu Deleig","coordinates":{"lat":"14.9666667","long":"35.9166667"}},{"country":"sd","city":"Abu Deleiq","coordinates":{"lat":"15.9","long":"33.8166667"}},{"country":"sd","city":"Abu Delelq","coordinates":{"lat":"15.9","long":"33.8"}},{"country":"sd","city":"Abu Dellum al A`ma","coordinates":{"lat":"13.9","long":"30.2"}},{"country":"sd","city":"Abu Dereis","coordinates":{"lat":"15.2833333","long":"32.55"}},{"country":"sd","city":"Abu Derisa","coordinates":{"lat":"14.3","long":"36.2666667"}},{"country":"sd","city":"Abu Dhaqn","coordinates":{"lat":"14.4333333","long":"33.0333333"}},{"country":"sd","city":"Abu Dign","coordinates":{"lat":"14.4333333","long":"33.0333333"}},{"country":"sd","city":"Abu Dik","coordinates":{"lat":"12.8","long":"27.8666667"}},{"country":"sd","city":"Abu Diqn","coordinates":{"lat":"10.3","long":"33.3833333"}},{"country":"sd","city":"Abu Dis","coordinates":{"lat":"19.1333333","long":"33.5666667"}},{"country":"sd","city":"Abu Doma","coordinates":{"lat":"14.55","long":"33.7333333"}},{"country":"sd","city":"Abu Doma","coordinates":{"lat":"15.4413889","long":"32.4961111"}},{"country":"sd","city":"Abu Doma","coordinates":{"lat":"11.8833333","long":"28.05"}},{"country":"sd","city":"Abu Dom","coordinates":{"lat":"16.2813889","long":"32.6058333"}},{"country":"sd","city":"Abu Dom","coordinates":{"lat":"17.9666667","long":"31.1666667"}},{"country":"sd","city":"Abu Dom Sanam","coordinates":{"lat":"18.4666667","long":"31.8"}},{"country":"sd","city":"Abu Dom Sannum","coordinates":{"lat":"18.4666667","long":"31.8"}},{"country":"sd","city":"Abu Dubara","coordinates":{"lat":"14.2666667","long":"33.3833333"}},{"country":"sd","city":"Abu Dubara","coordinates":{"lat":"12.0666667","long":"28.0333333"}},{"country":"sd","city":"Abu Dugur","coordinates":{"lat":"11.0","long":"34.95"}},{"country":"sd","city":"Abu Dulayq","coordinates":{"lat":"15.9","long":"33.8166667"}},{"country":"sd","city":"Abu Durays","coordinates":{"lat":"15.2833333","long":"32.55"}},{"country":"sd","city":"Abu el Fahl","coordinates":{"lat":"10.95","long":"25.4833333"}},{"country":"sd","city":"Abu el Hasan","coordinates":{"lat":"16.6166667","long":"33.25"}},{"country":"sd","city":"Abu el Khil","coordinates":{"lat":"17.1833333","long":"34.6833333"}},{"country":"sd","city":"Abu Fandok","coordinates":{"lat":"13.5","long":"28.75"}},{"country":"sd","city":"Abu Fatima","coordinates":{"lat":"19.6666667","long":"30.4166667"}},{"country":"sd","city":"Abu Fatimah","coordinates":{"lat":"19.6666667","long":"30.4166667"}},{"country":"sd","city":"Abu Fawaghi","coordinates":{"lat":"12.3","long":"28.1"}},{"country":"sd","city":"Abu Funduq","coordinates":{"lat":"13.5","long":"28.75"}},{"country":"sd","city":"Abu Ga`ab","coordinates":{"lat":"11.95","long":"25.8166667"}},{"country":"sd","city":"Abu Gabra","coordinates":{"lat":"11.0666667","long":"26.85"}},{"country":"sd","city":"Abu Galfa","coordinates":{"lat":"14.7166667","long":"33.4833333"}},{"country":"sd","city":"Abu Gallabiya","coordinates":{"lat":"10.95","long":"25.2"}},{"country":"sd","city":"Abu Gamal","coordinates":{"lat":"15.1666667","long":"36.4333333"}},{"country":"sd","city":"Abugé","coordinates":{"lat":"8.8833333","long":"25.7333333"}},{"country":"sd","city":"Abu-Gebeiha","coordinates":{"lat":"11.45","long":"31.2333333"}},{"country":"sd","city":"Abu Gedaf","coordinates":{"lat":"11.4833333","long":"34.8333333"}},{"country":"sd","city":"Abu Geili","coordinates":{"lat":"13.5833333","long":"33.6166667"}},{"country":"sd","city":"Abu Gelba","coordinates":{"lat":"13.1833333","long":"31.8666667"}},{"country":"sd","city":"Abu Gemai","coordinates":{"lat":"11.5166667","long":"34.5"}},{"country":"sd","city":"Abugga","coordinates":{"lat":"11.15","long":"34.5166667"}},{"country":"sd","city":"Abu Ghanim","coordinates":{"lat":"14.7166667","long":"32.3333333"}},{"country":"sd","city":"Abu Gheid","coordinates":{"lat":"11.75","long":"27.0833333"}},{"country":"sd","city":"Abu Gheneiwa","coordinates":{"lat":"14.6166667","long":"32.6166667"}},{"country":"sd","city":"Abu Ghunaywah","coordinates":{"lat":"14.6166667","long":"32.6166667"}},{"country":"sd","city":"Abu Gibeyah","coordinates":{"lat":"11.45","long":"31.2333333"}},{"country":"sd","city":"Abu Gi`eirin","coordinates":{"lat":"14.3166667","long":"33.1333333"}},{"country":"sd","city":"Abu Gileiha","coordinates":{"lat":"12.15","long":"26.9333333"}},{"country":"sd","city":"Abu Gimri","coordinates":{"lat":"13.85","long":"32.25"}},{"country":"sd","city":"Abu Gir","coordinates":{"lat":"11.9166667","long":"31.75"}},{"country":"sd","city":"Abu Giri","coordinates":{"lat":"15.0333333","long":"26.35"}},{"country":"sd","city":"Abu Gleiha","coordinates":{"lat":"12.15","long":"26.9333333"}},{"country":"sd","city":"Abu Gogi","coordinates":{"lat":"11.9333333","long":"31.6833333"}},{"country":"sd","city":"Abu Gubeiha","coordinates":{"lat":"11.45","long":"31.2333333"}},{"country":"sd","city":"Abu Gudul","coordinates":{"lat":"10.6166667","long":"25.05"}},{"country":"sd","city":"Abu Guja","coordinates":{"lat":"14.3","long":"22.5666667"}},{"country":"sd","city":"Abu Gureis","coordinates":{"lat":"11.7333333","long":"31.6333333"}},{"country":"sd","city":"Abu Gussi","coordinates":{"lat":"18.1333333","long":"30.7666667"}},{"country":"sd","city":"Abu Guta","coordinates":{"lat":"14.9333333","long":"32.7333333"}},{"country":"sd","city":"Abu Guya","coordinates":{"lat":"14.3","long":"22.5666667"}},{"country":"sd","city":"Abu Hadid as Subhani","coordinates":{"lat":"14.6","long":"30.15"}},{"country":"sd","city":"Abu Hagar","coordinates":{"lat":"18.75","long":"33.5833333"}},{"country":"sd","city":"Abu Hagar","coordinates":{"lat":"14.0666667","long":"29.7166667"}},{"country":"sd","city":"Abu Hajar","coordinates":{"lat":"18.75","long":"33.5833333"}},{"country":"sd","city":"Abu Hajar","coordinates":{"lat":"14.0666667","long":"29.7166667"}},{"country":"sd","city":"Abu Halaqim","coordinates":{"lat":"14.1166667","long":"32.45"}},{"country":"sd","city":"Abu Halima","coordinates":{"lat":"15.7833333","long":"32.5666667"}},{"country":"sd","city":"Abu Halimah","coordinates":{"lat":"15.7833333","long":"32.5666667"}},{"country":"sd","city":"Abu Hamad","coordinates":{"lat":"19.5333333","long":"33.3166667"}},{"country":"sd","city":"Abu Hamed","coordinates":{"lat":"19.5333333","long":"33.3166667"}},{"country":"sd","city":"Abu Hamira","coordinates":{"lat":"11.25","long":"31.1833333"}},{"country":"sd","city":"Abu Hamirah","coordinates":{"lat":"11.25","long":"31.1833333"}},{"country":"sd","city":"Abu Hamra'","coordinates":{"lat":"13.8166667","long":"32.1166667"}},{"country":"sd","city":"Abu Hamra'","coordinates":{"lat":"12.85","long":"31.05"}},{"country":"sd","city":"Abu Har","coordinates":{"lat":"13.55","long":"32.1"}},{"country":"sd","city":"Abu Haraz","coordinates":{"lat":"14.4833333","long":"33.5166667"}},{"country":"sd","city":"Abu Haraz","coordinates":{"lat":"18.0166667","long":"33.9666667"}},{"country":"sd","city":"Abu Haraz","coordinates":{"lat":"12.9666667","long":"29.8666667"}},{"country":"sd","city":"Abu Hashim","coordinates":{"lat":"11.95","long":"34.3333333"}},{"country":"sd","city":"Abu Hashim","coordinates":{"lat":"18.9333333","long":"33.5833333"}},{"country":"sd","city":"Abu Hashim","coordinates":{"lat":"11.3833333","long":"31.4"}},{"country":"sd","city":"Abu Hashish","coordinates":{"lat":"19.6216667","long":"37.2327778"}},{"country":"sd","city":"Abu Hauwa","coordinates":{"lat":"14.2166667","long":"32.6666667"}},{"country":"sd","city":"Abu Hawwa'","coordinates":{"lat":"14.2166667","long":"32.6666667"}},{"country":"sd","city":"Abu Hibeira","coordinates":{"lat":"14.0333333","long":"32.3833333"}},{"country":"sd","city":"Abu Higar","coordinates":{"lat":"12.8666667","long":"34.0"}},{"country":"sd","city":"Abu Hijar","coordinates":{"lat":"12.8666667","long":"34.0"}},{"country":"sd","city":"Abu Hindi","coordinates":{"lat":"13.7166667","long":"32.5"}},{"country":"sd","city":"Abu Hirab","coordinates":{"lat":"12.4666667","long":"34.25"}},{"country":"sd","city":"Abu Horira","coordinates":{"lat":"15.1833333","long":"33.5"}},{"country":"sd","city":"Abu Hugeir","coordinates":{"lat":"14.2833333","long":"33.3166667"}},{"country":"sd","city":"Abu Hujar","coordinates":{"lat":"12.8666667","long":"34.0"}},{"country":"sd","city":"Abu Hujayr","coordinates":{"lat":"14.2833333","long":"33.3166667"}},{"country":"sd","city":"Abu Humayrah","coordinates":{"lat":"13.05","long":"32.2666667"}},{"country":"sd","city":"Abu Humayrah","coordinates":{"lat":"12.5666667","long":"28.45"}},{"country":"sd","city":"Abu Humeira","coordinates":{"lat":"13.05","long":"32.2666667"}},{"country":"sd","city":"Abu Humeira","coordinates":{"lat":"12.5666667","long":"28.45"}},{"country":"sd","city":"Abu Hurab","coordinates":{"lat":"12.4666667","long":"34.25"}},{"country":"sd","city":"Abui","coordinates":{"lat":"7.0236111","long":"29.6941667"}},{"country":"sd","city":"Abu `Irwa","coordinates":{"lat":"13.55","long":"35.8333333"}},{"country":"sd","city":"Abu Jabra","coordinates":{"lat":"11.0666667","long":"26.85"}},{"country":"sd","city":"Abu Jabrah","coordinates":{"lat":"11.0666667","long":"26.85"}},{"country":"sd","city":"Abuj","coordinates":{"lat":"10.05","long":"32.5666667"}},{"country":"sd","city":"Abu Jalfah","coordinates":{"lat":"14.7166667","long":"33.4833333"}},{"country":"sd","city":"Abu Jallabiyah","coordinates":{"lat":"10.95","long":"25.2"}},{"country":"sd","city":"Abu Jayli","coordinates":{"lat":"13.5833333","long":"33.6166667"}},{"country":"sd","city":"Abu Jibeha","coordinates":{"lat":"11.45","long":"31.2333333"}},{"country":"sd","city":"Abujon","coordinates":{"lat":"9.3555556","long":"31.5163889"}},{"country":"sd","city":"Abujop","coordinates":{"lat":"9.3683333","long":"31.4663889"}},{"country":"sd","city":"Abu Jubayhah","coordinates":{"lat":"11.45","long":"31.2333333"}},{"country":"sd","city":"Abu Jumayy","coordinates":{"lat":"11.5166667","long":"34.5"}},{"country":"sd","city":"Abu Kabisa","coordinates":{"lat":"13.1","long":"27.3333333"}},{"country":"sd","city":"Abu Karinka","coordinates":{"lat":"11.5833333","long":"26.5666667"}},{"country":"sd","city":"Abu Karish","coordinates":{"lat":"10.2","long":"33.9333333"}},{"country":"sd","city":"Abu Kartod","coordinates":{"lat":"11.6","long":"34.3833333"}},{"country":"sd","city":"Abu Kebeida","coordinates":{"lat":"18.1666667","long":"33.9333333"}},{"country":"sd","city":"Abu Kershola","coordinates":{"lat":"12.15","long":"30.8"}},{"country":"sd","city":"Abu Khadiga","coordinates":{"lat":"12.7","long":"34.15"}},{"country":"sd","city":"Abu Khadijah","coordinates":{"lat":"12.7","long":"34.15"}},{"country":"sd","city":"Abu Khamira","coordinates":{"lat":"10.4833333","long":"33.2166667"}},{"country":"sd","city":"Abu Khamirah","coordinates":{"lat":"10.4833333","long":"33.2166667"}},{"country":"sd","city":"Abu Khamsin","coordinates":{"lat":"14.55","long":"33.7166667"}},{"country":"sd","city":"Abu Khoreis","coordinates":{"lat":"13.2833333","long":"30.2166667"}},{"country":"sd","city":"Abu Khsos","coordinates":{"lat":"17.9433333","long":"33.96"}},{"country":"sd","city":"Abu Khudeira","coordinates":{"lat":"13.5666667","long":"32.3166667"}},{"country":"sd","city":"Abu Khureis","coordinates":{"lat":"13.2833333","long":"30.2166667"}},{"country":"sd","city":"Abu Kirsh","coordinates":{"lat":"8.1833333","long":"27.45"}},{"country":"sd","city":"Abu Kolo","coordinates":{"lat":"14.2666667","long":"36.2166667"}},{"country":"sd","city":"Abu Koto","coordinates":{"lat":"14.2666667","long":"36.2166667"}},{"country":"sd","city":"Abu Ku`","coordinates":{"lat":"14.05","long":"25.9333333"}},{"country":"sd","city":"Abu Kuk","coordinates":{"lat":"12.1333333","long":"34.3"}},{"country":"sd","city":"Abu Kulaywat","coordinates":{"lat":"17.9666667","long":"31.1666667"}},{"country":"sd","city":"Abu Kulaywat","coordinates":{"lat":"12.3333333","long":"26.0"}},{"country":"sd","city":"Abu Kuleiwat","coordinates":{"lat":"17.9666667","long":"31.1666667"}},{"country":"sd","city":"Abu Kuleiwat","coordinates":{"lat":"12.3333333","long":"26.0"}},{"country":"sd","city":"Abu Kunaysh","coordinates":{"lat":"10.9833333","long":"26.6"}},{"country":"sd","city":"Abu Kuneish","coordinates":{"lat":"10.9833333","long":"26.6"}},{"country":"sd","city":"Abû Kussi","coordinates":{"lat":"18.1333333","long":"30.7666667"}},{"country":"sd","city":"Abu Kutni","coordinates":{"lat":"15.0166667","long":"22.8166667"}},{"country":"sd","city":"Abu Lamis","coordinates":{"lat":"13.1166667","long":"31.3333333"}},{"country":"sd","city":"Abulu","coordinates":{"lat":"7.7333333","long":"26.7333333"}},{"country":"sd","city":"Abu Luk","coordinates":{"lat":"13.2166667","long":"22.45"}},{"country":"sd","city":"Abu Mareiqa al Haggar","coordinates":{"lat":"12.7666667","long":"28.55"}},{"country":"sd","city":"Abu Matariq","coordinates":{"lat":"10.9666667","long":"26.2833333"}},{"country":"sd","city":"Abu Matirik","coordinates":{"lat":"10.9666667","long":"26.2833333"}},{"country":"sd","city":"Abu Maugud","coordinates":{"lat":"10.2166667","long":"33.9833333"}},{"country":"sd","city":"Abu Merafib","coordinates":{"lat":"11.2833333","long":"31.1"}},{"country":"sd","city":"Abu Mina","coordinates":{"lat":"13.05","long":"21.9833333"}},{"country":"sd","city":"Abu Muqud","coordinates":{"lat":"10.2166667","long":"33.9833333"}},{"country":"sd","city":"Abu Na`ama","coordinates":{"lat":"12.7333333","long":"34.1333333"}},{"country":"sd","city":"Abu Na`amah","coordinates":{"lat":"12.7333333","long":"34.1333333"}},{"country":"sd","city":"Abungo","coordinates":{"lat":"7.6830556","long":"27.9188889"}},{"country":"sd","city":"Abungoro","coordinates":{"lat":"9.9666667","long":"34.1"}},{"country":"sd","city":"Abu Nuwara","coordinates":{"lat":"11.25","long":"31.5166667"}},{"country":"sd","city":"Abu Nuweira","coordinates":{"lat":"11.25","long":"31.5166667"}},{"country":"sd","city":"Abu Nuwwarah","coordinates":{"lat":"11.25","long":"31.5166667"}},{"country":"sd","city":"Abu Nyanya","coordinates":{"lat":"12.55","long":"25.2166667"}},{"country":"sd","city":"Abu Odham","coordinates":{"lat":"13.55","long":"27.3833333"}},{"country":"sd","city":"Abu Ourein","coordinates":{"lat":"13.1666667","long":"31.2"}},{"country":"sd","city":"Abuoy","coordinates":{"lat":"9.95","long":"30.15"}},{"country":"sd","city":"Abu Qa`b","coordinates":{"lat":"11.95","long":"25.8166667"}},{"country":"sd","city":"Abu Qandul","coordinates":{"lat":"13.15","long":"33.75"}},{"country":"sd","city":"Abu Qawi","coordinates":{"lat":"17.4666667","long":"34.2"}},{"country":"sd","city":"Abu Qudaf","coordinates":{"lat":"11.4833333","long":"34.8333333"}},{"country":"sd","city":"Abu Qulayhah","coordinates":{"lat":"12.15","long":"26.9333333"}},{"country":"sd","city":"Abu Qulut","coordinates":{"lat":"13.6666667","long":"35.9"}},{"country":"sd","city":"Abu Qurayn","coordinates":{"lat":"13.1666667","long":"31.2"}},{"country":"sd","city":"Abu Qurays","coordinates":{"lat":"11.7333333","long":"31.6333333"}},{"country":"sd","city":"Abu Qurein","coordinates":{"lat":"15.7833333","long":"33.9666667"}},{"country":"sd","city":"Abu Qurein","coordinates":{"lat":"13.1666667","long":"31.2"}},{"country":"sd","city":"Abu Qurun","coordinates":{"lat":"13.85","long":"32.4"}},{"country":"sd","city":"Abu Qurun","coordinates":{"lat":"18.3","long":"33.8"}},{"country":"sd","city":"Abu Qurun","coordinates":{"lat":"7.45","long":"28.4666667"}},{"country":"sd","city":"Abu Qurun","coordinates":{"lat":"13.2166667","long":"31.8833333"}},{"country":"sd","city":"Abu Qussa","coordinates":{"lat":"10.8333333","long":"25.5333333"}},{"country":"sd","city":"Abu Qussah","coordinates":{"lat":"10.8333333","long":"25.5333333"}},{"country":"sd","city":"Abu Qussi","coordinates":{"lat":"18.1333333","long":"30.7666667"}},{"country":"sd","city":"Abu Quta","coordinates":{"lat":"14.9333333","long":"32.7333333"}},{"country":"sd","city":"Abu Qutah","coordinates":{"lat":"14.9333333","long":"32.7333333"}},{"country":"sd","city":"Abu Rabha","coordinates":{"lat":"15.25","long":"32.6166667"}},{"country":"sd","city":"Abu Rahmah","coordinates":{"lat":"13.9333333","long":"34.55"}},{"country":"sd","city":"Abu Rakhei","coordinates":{"lat":"13.5833333","long":"28.65"}},{"country":"sd","city":"Abu Rakhia","coordinates":{"lat":"12.3","long":"32.3"}},{"country":"sd","city":"Abu Ramad","coordinates":{"lat":"11.8833333","long":"34.3666667"}},{"country":"sd","city":"Abu Rameinak","coordinates":{"lat":"11.9166667","long":"25.0166667"}},{"country":"sd","city":"Abu Ra's","coordinates":{"lat":"7.9833333","long":"25.6"}},{"country":"sd","city":"Abu Raydah","coordinates":{"lat":"14.2666667","long":"35.8833333"}},{"country":"sd","city":"Abu Regeiba","coordinates":{"lat":"11.9666667","long":"34.7333333"}},{"country":"sd","city":"Abu Reida","coordinates":{"lat":"14.2666667","long":"35.8833333"}},{"country":"sd","city":"Abu Ruf","coordinates":{"lat":"17.2166667","long":"34.6666667"}},{"country":"sd","city":"Abu Rukba","coordinates":{"lat":"12.9333333","long":"32.0"}},{"country":"sd","city":"Abu Rukbah","coordinates":{"lat":"12.9333333","long":"32.0"}},{"country":"sd","city":"Abu Rukha","coordinates":{"lat":"12.9333333","long":"32.0"}},{"country":"sd","city":"Abu Rukhayy","coordinates":{"lat":"13.5833333","long":"28.65"}},{"country":"sd","city":"Abu Rumayl","coordinates":{"lat":"14.3666667","long":"22.9166667"}},{"country":"sd","city":"Abu Rumaylah","coordinates":{"lat":"19.2","long":"32.65"}},{"country":"sd","city":"Abu Rumaylah","coordinates":{"lat":"13.5166667","long":"35.4"}},{"country":"sd","city":"Abu Rumaylah","coordinates":{"lat":"14.4","long":"25.9"}},{"country":"sd","city":"Abu Rumeila","coordinates":{"lat":"19.2","long":"32.65"}},{"country":"sd","city":"Abu Rumeila","coordinates":{"lat":"13.5166667","long":"35.4"}},{"country":"sd","city":"Abu Rumeila","coordinates":{"lat":"14.4","long":"25.9"}},{"country":"sd","city":"Abu Rumeil","coordinates":{"lat":"14.3666667","long":"22.9166667"}},{"country":"sd","city":"Abu Ruqaybah","coordinates":{"lat":"11.9666667","long":"34.7333333"}},{"country":"sd","city":"Abu Ruqeiba","coordinates":{"lat":"11.9666667","long":"34.7333333"}},{"country":"sd","city":"Abu Rus","coordinates":{"lat":"15.0680556","long":"33.1205556"}},{"country":"sd","city":"Abu Sabib","coordinates":{"lat":"15.4833333","long":"31.5333333"}},{"country":"sd","city":"Abus","coordinates":{"lat":"11.0","long":"34.7"}},{"country":"sd","city":"Abu Sa`d","coordinates":{"lat":"12.9166667","long":"30.8166667"}},{"country":"sd","city":"Abu Saffar","coordinates":{"lat":"17.8786111","long":"33.9586111"}},{"country":"sd","city":"Abu Sa`id","coordinates":{"lat":"12.6166667","long":"34.4333333"}},{"country":"sd","city":"Abu Salalah","coordinates":{"lat":"11.1833333","long":"24.7166667"}},{"country":"sd","city":"Abu Sari","coordinates":{"lat":"20.2772222","long":"30.5838889"}},{"country":"sd","city":"Abu Sayr","coordinates":{"lat":"14.7666667","long":"33.15"}},{"country":"sd","city":"Abu Seba","coordinates":{"lat":"11.9833333","long":"29.6166667"}},{"country":"sd","city":"Abu Seiba","coordinates":{"lat":"11.9833333","long":"29.6166667"}},{"country":"sd","city":"Abu Se`id","coordinates":{"lat":"15.6","long":"32.4833333"}},{"country":"sd","city":"Abu Seir","coordinates":{"lat":"14.7666667","long":"33.15"}},{"country":"sd","city":"Abu Selala","coordinates":{"lat":"11.1833333","long":"24.7166667"}},{"country":"sd","city":"Abu Shagar","coordinates":{"lat":"12.5166667","long":"32.7333333"}},{"country":"sd","city":"Abu Shajar","coordinates":{"lat":"12.5166667","long":"32.7333333"}},{"country":"sd","city":"Abu Shakka","coordinates":{"lat":"7.7166667","long":"27.85"}},{"country":"sd","city":"Abu-Shakka","coordinates":{"lat":"7.7169444","long":"27.8344444"}},{"country":"sd","city":"Abu Shakkah","coordinates":{"lat":"7.7166667","long":"27.85"}},{"country":"sd","city":"Abu Shakkal","coordinates":{"lat":"7.7166667","long":"27.85"}},{"country":"sd","city":"Abu Shalaya","coordinates":{"lat":"11.9","long":"32.95"}},{"country":"sd","city":"Abu Shama","coordinates":{"lat":"10.9333333","long":"27.9666667"}},{"country":"sd","city":"Abu Sham","coordinates":{"lat":"15.0691667","long":"33.4988889"}},{"country":"sd","city":"Abu Shamah","coordinates":{"lat":"10.9333333","long":"27.9666667"}},{"country":"sd","city":"Abu Shanab","coordinates":{"lat":"10.7833333","long":"29.5333333"}},{"country":"sd","city":"Abu Shandi","coordinates":{"lat":"11.35","long":"34.7"}},{"country":"sd","city":"Abu Shari`ah","coordinates":{"lat":"14.2166667","long":"30.1833333"}},{"country":"sd","city":"Abu Shatat","coordinates":{"lat":"11.9666667","long":"27.25"}},{"country":"sd","city":"Abu Shateir","coordinates":{"lat":"13.0333333","long":"31.5166667"}},{"country":"sd","city":"Abu Shattah","coordinates":{"lat":"11.4333333","long":"26.0333333"}},{"country":"sd","city":"Abu Shawag","coordinates":{"lat":"13.45","long":"27.95"}},{"country":"sd","city":"Abu Shawk","coordinates":{"lat":"13.95","long":"31.0833333"}},{"country":"sd","city":"Abu Shendi","coordinates":{"lat":"11.35","long":"34.7"}},{"country":"sd","city":"Abu Sheneina","coordinates":{"lat":"11.3833333","long":"34.6666667"}},{"country":"sd","city":"Abu Sheri`a","coordinates":{"lat":"14.2166667","long":"30.1833333"}},{"country":"sd","city":"Abu Shidar","coordinates":{"lat":"12.5166667","long":"32.7333333"}},{"country":"sd","city":"Abu Shinena","coordinates":{"lat":"11.3833333","long":"34.6666667"}},{"country":"sd","city":"Abu Shok","coordinates":{"lat":"13.95","long":"31.0833333"}},{"country":"sd","city":"Abu Shotta","coordinates":{"lat":"11.4333333","long":"26.0333333"}},{"country":"sd","city":"Abu Shugeira","coordinates":{"lat":"13.7666667","long":"22.2666667"}},{"country":"sd","city":"Abu Shunayb","coordinates":{"lat":"14.9","long":"33.0"}},{"country":"sd","city":"Abu Shunaynah","coordinates":{"lat":"11.3833333","long":"34.6666667"}},{"country":"sd","city":"Abu Shuneib","coordinates":{"lat":"14.9","long":"33.0"}},{"country":"sd","city":"Abu Shutayr","coordinates":{"lat":"13.0333333","long":"31.5166667"}},{"country":"sd","city":"Abu Shuteir","coordinates":{"lat":"13.0333333","long":"31.5166667"}},{"country":"sd","city":"Abu Sikkin","coordinates":{"lat":"14.0666667","long":"24.55"}},{"country":"sd","city":"Abu Sinun","coordinates":{"lat":"11.1","long":"29.35"}},{"country":"sd","city":"Abu Sufyan","coordinates":{"lat":"11.9166667","long":"26.3833333"}},{"country":"sd","city":"Abu Sunaytat","coordinates":{"lat":"16.35","long":"34.05"}},{"country":"sd","city":"Abu Suneina","coordinates":{"lat":"14.4166667","long":"33.4"}},{"country":"sd","city":"Abu Suneitat","coordinates":{"lat":"16.35","long":"34.05"}},{"country":"sd","city":"Abu Suqra","coordinates":{"lat":"13.9666667","long":"33.6166667"}},{"country":"sd","city":"Abu Suqrah","coordinates":{"lat":"13.9666667","long":"33.6166667"}},{"country":"sd","city":"Abu Surug","coordinates":{"lat":"13.85","long":"22.3833333"}},{"country":"sd","city":"Abu Tabanu","coordinates":{"lat":"11.3333333","long":"26.3"}},{"country":"sd","city":"Abut","coordinates":{"lat":"8.9333333","long":"27.8333333"}},{"country":"sd","city":"Abu Tagara","coordinates":{"lat":"14.0833333","long":"32.0666667"}},{"country":"sd","city":"Abu Tawala","coordinates":{"lat":"10.9666667","long":"31.65"}},{"country":"sd","city":"Abu Thalathin","coordinates":{"lat":"9.2","long":"24.4833333"}},{"country":"sd","city":"Abu Tiga","coordinates":{"lat":"12.75","long":"34.15"}},{"country":"sd","city":"Abu Tin","coordinates":{"lat":"19.5333333","long":"33.2"}},{"country":"sd","city":"Abu Tineitin","coordinates":{"lat":"14.4","long":"31.0166667"}},{"country":"sd","city":"Abu Tong","coordinates":{"lat":"9.4527778","long":"31.1430556"}},{"country":"sd","city":"Abu Tunaytin","coordinates":{"lat":"14.4","long":"31.0166667"}},{"country":"sd","city":"Abu Turay`ah","coordinates":{"lat":"13.5333333","long":"28.9"}},{"country":"sd","city":"Abu Turei`a","coordinates":{"lat":"13.5333333","long":"28.9"}},{"country":"sd","city":"Abu `Ud","coordinates":{"lat":"11.05","long":"24.05"}},{"country":"sd","city":"Abu Umm Bashir","coordinates":{"lat":"10.9833333","long":"24.1166667"}},{"country":"sd","city":"Abu `Urf","coordinates":{"lat":"13.7833333","long":"32.1833333"}},{"country":"sd","city":"Abu `Urug","coordinates":{"lat":"13.7166667","long":"34.2166667"}},{"country":"sd","city":"Abu `Uruq","coordinates":{"lat":"13.7166667","long":"34.2166667"}},{"country":"sd","city":"Abu `Uruq","coordinates":{"lat":"15.9","long":"30.45"}},{"country":"sd","city":"Abu `Urwah","coordinates":{"lat":"13.55","long":"35.8333333"}},{"country":"sd","city":"Abu `Usfur","coordinates":{"lat":"13.2166667","long":"32.1833333"}},{"country":"sd","city":"Abu `Ushar","coordinates":{"lat":"14.9166667","long":"33.1833333"}},{"country":"sd","city":"Abu Zabad","coordinates":{"lat":"12.35","long":"29.25"}},{"country":"sd","city":"Abu Zagholi","coordinates":{"lat":"11.7333333","long":"34.3833333"}},{"country":"sd","city":"Abu Zaida","coordinates":{"lat":"12.45","long":"30.75"}},{"country":"sd","city":"Abu Zarad","coordinates":{"lat":"12.9666667","long":"35.85"}},{"country":"sd","city":"Abu Zarawi","coordinates":{"lat":"14.2833333","long":"32.3833333"}},{"country":"sd","city":"Abu Zariba","coordinates":{"lat":"9.3166667","long":"25.8833333"}},{"country":"sd","city":"Abu Zaribah","coordinates":{"lat":"9.3166667","long":"25.8833333"}},{"country":"sd","city":"Abu Zawr","coordinates":{"lat":"12.3666667","long":"34.3666667"}},{"country":"sd","city":"Abu Zayd","coordinates":{"lat":"15.0716667","long":"33.3916667"}},{"country":"sd","city":"Abu Zeid","coordinates":{"lat":"15.0716667","long":"33.3916667"}},{"country":"sd","city":"Abu Zeid Wad Umm Balli","coordinates":{"lat":"15.0716667","long":"33.3916667"}},{"country":"sd","city":"Abu Zor","coordinates":{"lat":"12.3666667","long":"34.3666667"}},{"country":"sd","city":"Abu Zua","coordinates":{"lat":"11.4833333","long":"27.0333333"}},{"country":"sd","city":"Abu Zullayq","coordinates":{"lat":"15.4766667","long":"33.1688889"}},{"country":"sd","city":"Abu Zulleiq","coordinates":{"lat":"15.4766667","long":"33.1688889"}},{"country":"sd","city":"Abwong","coordinates":{"lat":"6.9730556","long":"31.1291667"}},{"country":"sd","city":"Abwonq","coordinates":{"lat":"9.1166667","long":"32.2"}},{"country":"sd","city":"Abyad","coordinates":{"lat":"10.4166667","long":"25.8"}},{"country":"sd","city":"Abyad","coordinates":{"lat":"11.15","long":"25.1833333"}},{"country":"sd","city":"Abyei","coordinates":{"lat":"9.6","long":"28.4333333"}},{"country":"sd","city":"Abyey","coordinates":{"lat":"9.6","long":"28.4333333"}},{"country":"sd","city":"Abyor","coordinates":{"lat":"7.6991667","long":"28.6247222"}},{"country":"sd","city":"Acha Kwel","coordinates":{"lat":"8.6166667","long":"27.95"}},{"country":"sd","city":"Achel","coordinates":{"lat":"9.1","long":"32.3666667"}},{"country":"sd","city":"Achigor","coordinates":{"lat":"6.6083333","long":"30.9738889"}},{"country":"sd","city":"Achiyech","coordinates":{"lat":"7.9483333","long":"28.4680556"}},{"country":"sd","city":"Achod","coordinates":{"lat":"7.1041667","long":"29.3941667"}},{"country":"sd","city":"Achok","coordinates":{"lat":"6.8658333","long":"30.6658333"}},{"country":"sd","city":"Achol","coordinates":{"lat":"6.5666667","long":"31.5166667"}},{"country":"sd","city":"Achol","coordinates":{"lat":"7.0666667","long":"29.8"}},{"country":"sd","city":"Achoma","coordinates":{"lat":"6.3366667","long":"31.6125"}},{"country":"sd","city":"Achop","coordinates":{"lat":"9.5786111","long":"31.6669444"}},{"country":"sd","city":"Achung","coordinates":{"lat":"9.9333333","long":"32.0333333"}},{"country":"sd","city":"Achwer","coordinates":{"lat":"7.0047222","long":"30.22"}},{"country":"sd","city":"Achwil","coordinates":{"lat":"9.8666667","long":"32.15"}},{"country":"sd","city":"Adado","coordinates":{"lat":"9.5902778","long":"31.6225"}},{"country":"sd","city":"Adal","coordinates":{"lat":"10.9","long":"32.5166667"}},{"country":"sd","city":"`Adal","coordinates":{"lat":"12.9666667","long":"34.5166667"}},{"country":"sd","city":"Adalata","coordinates":{"lat":"13.2166667","long":"22.4833333"}},{"country":"sd","city":"Adama Umm Qurayn","coordinates":{"lat":"9.75","long":"27.95"}},{"country":"sd","city":"Adama Umm Qurein","coordinates":{"lat":"9.75","long":"27.95"}},{"country":"sd","city":"Adam Bawsh","coordinates":{"lat":"14.9","long":"23.6333333"}},{"country":"sd","city":"Adam Bosh","coordinates":{"lat":"14.9","long":"23.6333333"}},{"country":"sd","city":"Adam Yanga","coordinates":{"lat":"7.7166667","long":"26.2"}},{"country":"sd","city":"Adara","coordinates":{"lat":"13.5666667","long":"30.8"}},{"country":"sd","city":"`Adar","coordinates":{"lat":"14.55","long":"32.7"}},{"country":"sd","city":"`Adar al Gufr","coordinates":{"lat":"12.7666667","long":"31.6833333"}},{"country":"sd","city":"Adarama","coordinates":{"lat":"17.0816667","long":"34.8888889"}},{"country":"sd","city":"Adassi","coordinates":{"lat":"11.2833333","long":"34.8"}},{"country":"sd","city":"Adaudo Nyerur","coordinates":{"lat":"10.0166667","long":"32.0666667"}},{"country":"sd","city":"Ad Dabba","coordinates":{"lat":"18.05","long":"30.95"}},{"country":"sd","city":"Ad Dabbah","coordinates":{"lat":"14.7666667","long":"33.3166667"}},{"country":"sd","city":"Ad Dabbah","coordinates":{"lat":"18.05","long":"30.95"}},{"country":"sd","city":"Ad Dabbah","coordinates":{"lat":"10.95","long":"31.6666667"}},{"country":"sd","city":"Ad Dabbura","coordinates":{"lat":"17.5333333","long":"34.2333333"}},{"country":"sd","city":"Ad Dabburah","coordinates":{"lat":"17.5333333","long":"34.2333333"}},{"country":"sd","city":"Ad Dabkir","coordinates":{"lat":"10.6383333","long":"29.7736111"}},{"country":"sd","city":"Ad Da`en","coordinates":{"lat":"11.4333333","long":"26.15"}},{"country":"sd","city":"Ad Dahhab","coordinates":{"lat":"13.9","long":"36.1"}},{"country":"sd","city":"Ad Dai","coordinates":{"lat":"13.25","long":"31.5"}},{"country":"sd","city":"Ad Dalanj","coordinates":{"lat":"12.05","long":"29.65"}},{"country":"sd","city":"Ad-Damar","coordinates":{"lat":"17.5927778","long":"33.9591667"}},{"country":"sd","city":"Ad Damazin","coordinates":{"lat":"11.7666667","long":"34.35"}},{"country":"sd","city":"Ad Damir","coordinates":{"lat":"17.5927778","long":"33.9591667"}},{"country":"sd","city":"Ad Danget","coordinates":{"lat":"11.2833333","long":"34.6666667"}},{"country":"sd","city":"Ad Daqqaqah","coordinates":{"lat":"13.15","long":"34.2"}},{"country":"sd","city":"Ad Darabi","coordinates":{"lat":"13.9666667","long":"36.0666667"}},{"country":"sd","city":"Ad Dawhah","coordinates":{"lat":"13.9833333","long":"33.4333333"}},{"country":"sd","city":"Ad Dawm","coordinates":{"lat":"16.0341667","long":"32.5811111"}},{"country":"sd","city":"Ad Dawmah","coordinates":{"lat":"11.9166667","long":"34.3833333"}},{"country":"sd","city":"Ad Dawwab","coordinates":{"lat":"16.0238889","long":"32.5416667"}},{"country":"sd","city":"Ad Daym","coordinates":{"lat":"11.2333333","long":"34.9333333"}},{"country":"sd","city":"Ad Debeilu","coordinates":{"lat":"12.35","long":"30.5333333"}},{"country":"sd","city":"Ad Delatia","coordinates":{"lat":"15.3666667","long":"32.8833333"}},{"country":"sd","city":"Ad Dereis","coordinates":{"lat":"11.7333333","long":"27.45"}},{"country":"sd","city":"Ad Dikeri","coordinates":{"lat":"10.5333333","long":"30.3"}},{"country":"sd","city":"Ad Dikka North","coordinates":{"lat":"18.0","long":"34.0"}},{"country":"sd","city":"Ad Dikka West","coordinates":{"lat":"18.1","long":"33.9333333"}},{"country":"sd","city":"Ad Dindar","coordinates":{"lat":"13.2","long":"34.1666667"}},{"country":"sd","city":"Ad Diseis","coordinates":{"lat":"14.25","long":"33.0"}},{"country":"sd","city":"Ad Doma","coordinates":{"lat":"11.7333333","long":"28.3666667"}},{"country":"sd","city":"Ad Du`ayn","coordinates":{"lat":"11.4333333","long":"26.15"}},{"country":"sd","city":"Ad Dubasi","coordinates":{"lat":"14.2166667","long":"32.2333333"}},{"country":"sd","city":"Ad Dubaybah","coordinates":{"lat":"13.3666667","long":"32.6333333"}},{"country":"sd","city":"Ad Dubaybah","coordinates":{"lat":"18.45","long":"31.8"}},{"country":"sd","city":"Ad Dubaybat","coordinates":{"lat":"12.8166667","long":"32.5333333"}},{"country":"sd","city":"Ad Dubaykir","coordinates":{"lat":"12.7","long":"32.4666667"}},{"country":"sd","city":"Ad Dukaydik","coordinates":{"lat":"10.8666667","long":"32.0666667"}},{"country":"sd","city":"Ad Dulayb","coordinates":{"lat":"11.9","long":"31.6333333"}},{"country":"sd","city":"Ad Dulaybah","coordinates":{"lat":"14.1666667","long":"33.65"}},{"country":"sd","city":"Ad Dushaynab","coordinates":{"lat":"15.9833333","long":"32.55"}},{"country":"sd","city":"Ad Duwaym","coordinates":{"lat":"14.0","long":"32.3166667"}},{"country":"sd","city":"Ad Duwaym","coordinates":{"lat":"18.5","long":"31.8333333"}},{"country":"sd","city":"Ad Duwaymah","coordinates":{"lat":"14.1166667","long":"31.0833333"}},{"country":"sd","city":"Ad Duwem","coordinates":{"lat":"14.0","long":"32.3166667"}},{"country":"sd","city":"Adeiri","coordinates":{"lat":"10.75","long":"32.35"}},{"country":"sd","city":"Adet","coordinates":{"lat":"6.5833333","long":"31.55"}},{"country":"sd","city":"Ad Fakwan","coordinates":{"lat":"8.5369444","long":"30.6536111"}},{"country":"sd","city":"Adi","coordinates":{"lat":"11.1","long":"34.8666667"}},{"country":"sd","city":"Adiai","coordinates":{"lat":"9.2666667","long":"28.8333333"}},{"country":"sd","city":"Adidiang Paych","coordinates":{"lat":"9.3955556","long":"31.5411111"}},{"country":"sd","city":"Adidur","coordinates":{"lat":"7.3775","long":"28.8219444"}},{"country":"sd","city":"Adigi","coordinates":{"lat":"13.1","long":"22.0"}},{"country":"sd","city":"`Adila","coordinates":{"lat":"11.25","long":"34.65"}},{"country":"sd","city":"`Adila","coordinates":{"lat":"12.7","long":"27.3166667"}},{"country":"sd","city":"Adimakuj","coordinates":{"lat":"4.2222222","long":"33.5719444"}},{"country":"sd","city":"Adindow","coordinates":{"lat":"9.0833333","long":"28.5666667"}},{"country":"sd","city":"Adinow","coordinates":{"lat":"9.0833333","long":"28.5666667"}},{"country":"sd","city":"Adiota","coordinates":{"lat":"6.5752778","long":"31.2988889"}},{"country":"sd","city":"Adir","coordinates":{"lat":"8.5166667","long":"27.9166667"}},{"country":"sd","city":"Adjang","coordinates":{"lat":"7.3013889","long":"29.5255556"}},{"country":"sd","city":"`Adlan Godat","coordinates":{"lat":"14.85","long":"33.65"}},{"country":"sd","city":"Ado","coordinates":{"lat":"6.3833333","long":"30.1"}},{"country":"sd","city":"Adobana","coordinates":{"lat":"18.1666667","long":"38.2833333"}},{"country":"sd","city":"Adodo","coordinates":{"lat":"9.455","long":"31.6488889"}},{"country":"sd","city":"Adok","coordinates":{"lat":"8.1833333","long":"30.3166667"}},{"country":"sd","city":"Adol","coordinates":{"lat":"9.25","long":"28.4833333"}},{"country":"sd","city":"Adol","coordinates":{"lat":"6.1552778","long":"31.7269444"}},{"country":"sd","city":"Adoma","coordinates":{"lat":"11.7333333","long":"28.3666667"}},{"country":"sd","city":"Adona Sughaiyir","coordinates":{"lat":"11.6833333","long":"30.3666667"}},{"country":"sd","city":"Adong","coordinates":{"lat":"8.9333333","long":"31.9833333"}},{"country":"sd","city":"Ador","coordinates":{"lat":"7.85","long":"29.2666667"}},{"country":"sd","city":"Adrur","coordinates":{"lat":"15.0833333","long":"26.4"}},{"country":"sd","city":"Aduk","coordinates":{"lat":"8.1833333","long":"30.3166667"}},{"country":"sd","city":"Adull","coordinates":{"lat":"6.6166667","long":"29.95"}},{"country":"sd","city":"Adum","coordinates":{"lat":"8.9166667","long":"27.95"}},{"country":"sd","city":"Adun","coordinates":{"lat":"8.9166667","long":"27.95"}},{"country":"sd","city":"Adundut","coordinates":{"lat":"6.7305556","long":"31.1616667"}},{"country":"sd","city":"Adusa","coordinates":{"lat":"13.8833333","long":"30.85"}},{"country":"sd","city":"Adwet","coordinates":{"lat":"8.35","long":"29.1"}},{"country":"sd","city":"Adwojo","coordinates":{"lat":"9.3636111","long":"31.4488889"}},{"country":"sd","city":"Adwor","coordinates":{"lat":"9.3055556","long":"31.7580556"}},{"country":"sd","city":"Aegir","coordinates":{"lat":"16.0544444","long":"36.3391667"}},{"country":"sd","city":"Aeng","coordinates":{"lat":"6.1472222","long":"31.3305556"}},{"country":"sd","city":"Affad","coordinates":{"lat":"18.0166667","long":"31.1833333"}},{"country":"sd","city":"Affat","coordinates":{"lat":"18.0166667","long":"31.1833333"}},{"country":"sd","city":"Affia","coordinates":{"lat":"13.9333333","long":"23.8833333"}},{"country":"sd","city":"Afflanda","coordinates":{"lat":"18.05","long":"38.4166667"}},{"country":"sd","city":"Afiatt","coordinates":{"lat":"9.1166667","long":"28.3833333"}},{"country":"sd","city":"Afifi","coordinates":{"lat":"7.6833333","long":"26.6333333"}},{"country":"sd","city":"Afifi","coordinates":{"lat":"10.05","long":"25.0166667"}},{"country":"sd","city":"Aflanda","coordinates":{"lat":"18.05","long":"38.4166667"}},{"country":"sd","city":"Aftas","coordinates":{"lat":"15.0666667","long":"32.8333333"}},{"country":"sd","city":"Aftes","coordinates":{"lat":"15.0666667","long":"32.8333333"}},{"country":"sd","city":"`Agab","coordinates":{"lat":"10.3666667","long":"33.85"}},{"country":"sd","city":"`Agab","coordinates":{"lat":"13.4166667","long":"29.75"}},{"country":"sd","city":"`Agabna","coordinates":{"lat":"13.4333333","long":"34.4333333"}},{"country":"sd","city":"`Agabullah","coordinates":{"lat":"11.3333333","long":"26.5833333"}},{"country":"sd","city":"Agada","coordinates":{"lat":"19.2833333","long":"30.4666667"}},{"country":"sd","city":"`Agaga","coordinates":{"lat":"10.75","long":"25.1"}},{"country":"sd","city":"Again","coordinates":{"lat":"8.4666667","long":"29.9166667"}},{"country":"sd","city":"Again","coordinates":{"lat":"8.25","long":"28.7833333"}},{"country":"sd","city":"Againg","coordinates":{"lat":"9.3266667","long":"31.5041667"}},{"country":"sd","city":"Againi","coordinates":{"lat":"10.2","long":"34.1833333"}},{"country":"sd","city":"Agalak","coordinates":{"lat":"11.0166667","long":"32.7"}},{"country":"sd","city":"Agangi","coordinates":{"lat":"10.2","long":"34.1833333"}},{"country":"sd","city":"Agani","coordinates":{"lat":"10.2","long":"34.1833333"}},{"country":"sd","city":"Agar","coordinates":{"lat":"7.0733333","long":"29.8744444"}},{"country":"sd","city":"Agarak","coordinates":{"lat":"9.6333333","long":"30.1333333"}},{"country":"sd","city":"Agari","coordinates":{"lat":"12.9833333","long":"30.5833333"}},{"country":"sd","city":"Agaru","coordinates":{"lat":"10.9833333","long":"34.7333333"}},{"country":"sd","city":"Agat","coordinates":{"lat":"9.5666667","long":"32.1333333"}},{"country":"sd","city":"Agdoub","coordinates":{"lat":"15.55","long":"36.3833333"}},{"country":"sd","city":"Ageida","coordinates":{"lat":"17.2833333","long":"33.7166667"}},{"country":"sd","city":"Ageig","coordinates":{"lat":"13.2333333","long":"30.0166667"}},{"country":"sd","city":"Ageila","coordinates":{"lat":"12.8833333","long":"31.5666667"}},{"country":"sd","city":"Ageimi","coordinates":{"lat":"12.9666667","long":"29.25"}},{"country":"sd","city":"Ageng","coordinates":{"lat":"6.0333333","long":"30.3166667"}},{"country":"sd","city":"Aggar","coordinates":{"lat":"10.9833333","long":"34.9"}},{"country":"sd","city":"Aghan","coordinates":{"lat":"6.2666667","long":"30.3666667"}},{"country":"sd","city":"Aghanich","coordinates":{"lat":"6.7833333","long":"30.85"}},{"country":"sd","city":"Agharalu","coordinates":{"lat":"10.9","long":"34.9"}},{"country":"sd","city":"Aghbash","coordinates":{"lat":"12.9833333","long":"35.9"}},{"country":"sd","city":"Agig","coordinates":{"lat":"18.2333333","long":"38.2"}},{"country":"sd","city":"Agit","coordinates":{"lat":"8.3333333","long":"26.9333333"}},{"country":"sd","city":"Agoba","coordinates":{"lat":"14.2166667","long":"32.5833333"}},{"country":"sd","city":"Agodo","coordinates":{"lat":"9.7447222","long":"31.8802778"}},{"country":"sd","city":"Agogo","coordinates":{"lat":"7.8261111","long":"28.8319444"}},{"country":"sd","city":"Agokadol","coordinates":{"lat":"6.9","long":"29.4833333"}},{"country":"sd","city":"Agol","coordinates":{"lat":"6.0438889","long":"31.3855556"}},{"country":"sd","city":"Agor","coordinates":{"lat":"10.2333333","long":"32.65"}},{"country":"sd","city":"Agor","coordinates":{"lat":"8.6833333","long":"28.5666667"}},{"country":"sd","city":"Agoramundi","coordinates":{"lat":"10.25","long":"34.2"}},{"country":"sd","city":"Agoran","coordinates":{"lat":"6.3","long":"30.1333333"}},{"country":"sd","city":"Agorbar","coordinates":{"lat":"6.7455556","long":"31.2116667"}},{"country":"sd","city":"Agor Dit","coordinates":{"lat":"10.2333333","long":"32.7166667"}},{"country":"sd","city":"Agori","coordinates":{"lat":"18.7666667","long":"30.1666667"}},{"country":"sd","city":"Agoro","coordinates":{"lat":"4.1491667","long":"32.2380556"}},{"country":"sd","city":"Agorogwor","coordinates":{"lat":"6.1177778","long":"31.1355556"}},{"country":"sd","city":"Agor Ti","coordinates":{"lat":"10.2333333","long":"32.65"}},{"country":"sd","city":"Agoura","coordinates":{"lat":"13.5833333","long":"22.6"}},{"country":"sd","city":"Agra","coordinates":{"lat":"12.0666667","long":"23.2"}},{"country":"sd","city":"Aguatta","coordinates":{"lat":"6.8166667","long":"34.5666667"}},{"country":"sd","city":"Agub","coordinates":{"lat":"14.2166667","long":"32.5833333"}},{"country":"sd","city":"Agugo","coordinates":{"lat":"9.3783333","long":"31.51"}},{"country":"sd","city":"Agujang","coordinates":{"lat":"7.4152778","long":"29.5941667"}},{"country":"sd","city":"`Agula","coordinates":{"lat":"20.4","long":"30.35"}},{"country":"sd","city":"Agul","coordinates":{"lat":"6.7122222","long":"30.8983333"}},{"country":"sd","city":"Aguma","coordinates":{"lat":"13.3833333","long":"22.3"}},{"country":"sd","city":"Agum","coordinates":{"lat":"11.7","long":"32.8666667"}},{"country":"sd","city":"Agum","coordinates":{"lat":"8.3166667","long":"28.2333333"}},{"country":"sd","city":"Agumei","coordinates":{"lat":"13.2666667","long":"22.3666667"}},{"country":"sd","city":"Agungok","coordinates":{"lat":"9.35","long":"31.4333333"}},{"country":"sd","city":"Agur","coordinates":{"lat":"11.5894444","long":"30.4563889"}},{"country":"sd","city":"Aguran","coordinates":{"lat":"6.3","long":"30.1333333"}},{"country":"sd","city":"Agurfing","coordinates":{"lat":"7.9936111","long":"28.4505556"}},{"country":"sd","city":"Agurra","coordinates":{"lat":"13.5833333","long":"22.6"}},{"country":"sd","city":"Agurton","coordinates":{"lat":"8.7333333","long":"28.25"}},{"country":"sd","city":"Agwetta","coordinates":{"lat":"6.8166667","long":"34.5666667"}},{"country":"sd","city":"Agwit","coordinates":{"lat":"8.75","long":"27.8333333"}},{"country":"sd","city":"Agwok","coordinates":{"lat":"7.8758333","long":"28.4047222"}},{"country":"sd","city":"Agyagya","coordinates":{"lat":"9.9666667","long":"33.8666667"}},{"country":"sd","city":"Ahmad `Abd Allahi","coordinates":{"lat":"11.6166667","long":"26.9666667"}},{"country":"sd","city":"Ahmad Abu Jayrah","coordinates":{"lat":"15.3666667","long":"32.5833333"}},{"country":"sd","city":"Ahmad al Faki Muhammad","coordinates":{"lat":"15.0333333","long":"32.45"}},{"country":"sd","city":"Ahmad `Arabi","coordinates":{"lat":"9.1666667","long":"29.8166667"}},{"country":"sd","city":"Ahmad ash Shayn","coordinates":{"lat":"11.9166667","long":"28.05"}},{"country":"sd","city":"Ahmad Badw","coordinates":{"lat":"11.8333333","long":"28.0333333"}},{"country":"sd","city":"Ahmad Jabr","coordinates":{"lat":"11.6666667","long":"27.4166667"}},{"country":"sd","city":"Ahmad Wad al Wahidu","coordinates":{"lat":"14.7333333","long":"33.5833333"}},{"country":"sd","city":"Ahmar","coordinates":{"lat":"14.3333333","long":"24.3833333"}},{"country":"sd","city":"Ahmar Mawji","coordinates":{"lat":"12.4166667","long":"34.2666667"}},{"country":"sd","city":"Ahmar Mogi","coordinates":{"lat":"12.4166667","long":"34.2666667"}},{"country":"sd","city":"Ahmed `Abdullahi","coordinates":{"lat":"11.6166667","long":"26.9666667"}},{"country":"sd","city":"Ahmed Abu Geira","coordinates":{"lat":"15.3666667","long":"32.5833333"}},{"country":"sd","city":"Ahmed `Arabi","coordinates":{"lat":"9.1666667","long":"29.8166667"}},{"country":"sd","city":"Ahmed Badu","coordinates":{"lat":"11.8333333","long":"28.0333333"}},{"country":"sd","city":"Ahmed el Faki Muhammad","coordinates":{"lat":"15.0333333","long":"32.45"}},{"country":"sd","city":"Ahmed esh Shein","coordinates":{"lat":"11.9166667","long":"28.05"}},{"country":"sd","city":"Ahmed Gabr","coordinates":{"lat":"11.6666667","long":"27.4166667"}},{"country":"sd","city":"Ahmed Wad el Wahedu","coordinates":{"lat":"14.7333333","long":"33.5833333"}},{"country":"sd","city":"Aidam","coordinates":{"lat":"11.1333333","long":"25.0666667"}},{"country":"sd","city":"Aidu","coordinates":{"lat":"7.2852778","long":"28.5666667"}},{"country":"sd","city":"Aiet","coordinates":{"lat":"17.7666667","long":"38.2833333"}},{"country":"sd","city":"Aifis","coordinates":{"lat":"12.8666667","long":"31.8666667"}},{"country":"sd","city":"Ailliet","coordinates":{"lat":"11.95","long":"27.0666667"}},{"country":"sd","city":"Aineina","coordinates":{"lat":"15.0333333","long":"32.7"}},{"country":"sd","city":"Ain el Luweiqa","coordinates":{"lat":"14.1666667","long":"33.9166667"}},{"country":"sd","city":"Ainyar","coordinates":{"lat":"7.8494444","long":"28.1058333"}},{"country":"sd","city":"`Aish Barra","coordinates":{"lat":"14.5166667","long":"25.6166667"}},{"country":"sd","city":"Aiweng","coordinates":{"lat":"7.5333333","long":"31.4"}},{"country":"sd","city":"Aiwi","coordinates":{"lat":"7.6833333","long":"29.6333333"}},{"country":"sd","city":"Aiyen","coordinates":{"lat":"6.5833333","long":"29.7833333"}},{"country":"sd","city":"Aiyerri","coordinates":{"lat":"4.0419444","long":"32.4316667"}},{"country":"sd","city":"Aiyota","coordinates":{"lat":"10.75","long":"32.6666667"}},{"country":"sd","city":"Aiyot","coordinates":{"lat":"9.1183333","long":"31.6458333"}},{"country":"sd","city":"Aiyung","coordinates":{"lat":"9.3666667","long":"32.4666667"}},{"country":"sd","city":"`Ajab Allah","coordinates":{"lat":"11.3333333","long":"26.5833333"}},{"country":"sd","city":"`Ajajah","coordinates":{"lat":"10.75","long":"25.1"}},{"country":"sd","city":"Ajaj","coordinates":{"lat":"6.1641667","long":"31.2836111"}},{"country":"sd","city":"Ajak","coordinates":{"lat":"7.0286111","long":"30.5288889"}},{"country":"sd","city":"Ajak Bikr","coordinates":{"lat":"6.8469444","long":"31.3047222"}},{"country":"sd","city":"Ajako","coordinates":{"lat":"7.6558333","long":"28.7036111"}},{"country":"sd","city":"Ajaugo","coordinates":{"lat":"9.3636111","long":"31.4488889"}},{"country":"sd","city":"Ajibja","coordinates":{"lat":"7.0","long":"31.3833333"}},{"country":"sd","city":"Ajijo","coordinates":{"lat":"9.2166667","long":"33.8333333"}},{"country":"sd","city":"Ajijuit","coordinates":{"lat":"6.9166667","long":"29.6"}},{"country":"sd","city":"Ajingel","coordinates":{"lat":"10.4166667","long":"32.5666667"}},{"country":"sd","city":"Aj Jabalen","coordinates":{"lat":"12.6","long":"32.8"}},{"country":"sd","city":"Aj Janayef","coordinates":{"lat":"19.25","long":"32.7166667"}},{"country":"sd","city":"Aj Jined","coordinates":{"lat":"14.8","long":"33.3166667"}},{"country":"sd","city":"Aj Jinena","coordinates":{"lat":"13.45","long":"22.45"}},{"country":"sd","city":"Aj Juwer","coordinates":{"lat":"16.7758333","long":"33.5230556"}},{"country":"sd","city":"Ajoich","coordinates":{"lat":"7.0111111","long":"29.1230556"}},{"country":"sd","city":"Ajok","coordinates":{"lat":"7.3477778","long":"29.7525"}},{"country":"sd","city":"Ajon","coordinates":{"lat":"6.9669444","long":"31.4266667"}},{"country":"sd","city":"Ajuini","coordinates":{"lat":"7.4666667","long":"31.4166667"}},{"country":"sd","city":"Ajungmir","coordinates":{"lat":"8.45","long":"33.1833333"}},{"country":"sd","city":"Ajung Shol","coordinates":{"lat":"8.5833333","long":"28.2833333"}},{"country":"sd","city":"Ajwara","coordinates":{"lat":"7.1166667","long":"33.9833333"}},{"country":"sd","city":"Ajwir","coordinates":{"lat":"6.8775","long":"30.7019444"}},{"country":"sd","city":"Ajwok","coordinates":{"lat":"8.2333333","long":"28.6"}},{"country":"sd","city":"Akafi","coordinates":{"lat":"12.4","long":"32.3333333"}},{"country":"sd","city":"Akai","coordinates":{"lat":"8.7333333","long":"31.1"}},{"country":"sd","city":"Akait","coordinates":{"lat":"9.2333333","long":"29.6166667"}},{"country":"sd","city":"Akara","coordinates":{"lat":"14.8166667","long":"32.6166667"}},{"country":"sd","city":"'Akasha","coordinates":{"lat":"21.0","long":"30.25"}},{"country":"sd","city":"Akasha","coordinates":{"lat":"21.0833333","long":"30.7166667"}},{"country":"sd","city":"`Akashah","coordinates":{"lat":"21.0","long":"30.25"}},{"country":"sd","city":"Akeir","coordinates":{"lat":"9.2833333","long":"28.6666667"}},{"country":"sd","city":"Akelo","coordinates":{"lat":"6.8333333","long":"33.6666667"}},{"country":"sd","city":"Akeu","coordinates":{"lat":"6.2666667","long":"30.6166667"}},{"country":"sd","city":"Akheirleina","coordinates":{"lat":"13.6166667","long":"31.3833333"}},{"country":"sd","city":"Akhoshali","coordinates":{"lat":"11.5333333","long":"34.4666667"}},{"country":"sd","city":"Akiar","coordinates":{"lat":"7.6913889","long":"28.8983333"}},{"country":"sd","city":"Akik","coordinates":{"lat":"18.2333333","long":"38.2"}},{"country":"sd","city":"Akilili","coordinates":{"lat":"10.95","long":"34.3666667"}},{"country":"sd","city":"Akim","coordinates":{"lat":"8.4","long":"28.5166667"}},{"country":"sd","city":"Akite","coordinates":{"lat":"8.5833333","long":"27.7333333"}},{"country":"sd","city":"Akkad","coordinates":{"lat":"19.6666667","long":"30.3666667"}},{"country":"sd","city":"Akobo","coordinates":{"lat":"7.7833333","long":"33.0166667"}},{"country":"sd","city":"Akobo Post","coordinates":{"lat":"7.7833333","long":"33.0166667"}},{"country":"sd","city":"Akoich","coordinates":{"lat":"9.15","long":"28.0166667"}},{"country":"sd","city":"Akoite","coordinates":{"lat":"9.0333333","long":"27.2833333"}},{"country":"sd","city":"Akojan","coordinates":{"lat":"6.1","long":"30.7166667"}},{"country":"sd","city":"Akok","coordinates":{"lat":"7.7833333","long":"29.0833333"}},{"country":"sd","city":"Akok","coordinates":{"lat":"6.955","long":"31.3066667"}},{"country":"sd","city":"Akoke","coordinates":{"lat":"9.7333333","long":"32.1833333"}},{"country":"sd","city":"Akok Fadiut","coordinates":{"lat":"7.4","long":"29.0666667"}},{"country":"sd","city":"Akola","coordinates":{"lat":"7.9833333","long":"33.0333333"}},{"country":"sd","city":"Akoloch","coordinates":{"lat":"6.7994444","long":"30.7013889"}},{"country":"sd","city":"Akon","coordinates":{"lat":"7.4091667","long":"29.0680556"}},{"country":"sd","city":"Akop","coordinates":{"lat":"7.3025","long":"29.4975"}},{"country":"sd","city":"Akoraweng","coordinates":{"lat":"9.7","long":"32.35"}},{"country":"sd","city":"Akoro","coordinates":{"lat":"4.1313889","long":"33.0655556"}},{"country":"sd","city":"Akort","coordinates":{"lat":"8.2","long":"28.2166667"}},{"country":"sd","city":"Akorwen","coordinates":{"lat":"10.7166667","long":"32.7833333"}},{"country":"sd","city":"Akorwet","coordinates":{"lat":"10.7166667","long":"32.7833333"}},{"country":"sd","city":"Akot","coordinates":{"lat":"10.4833333","long":"32.4833333"}},{"country":"sd","city":"Akot","coordinates":{"lat":"6.55","long":"30.05"}},{"country":"sd","city":"Akoweit","coordinates":{"lat":"7.8955556","long":"28.9008333"}},{"country":"sd","city":"Akowit","coordinates":{"lat":"6.9919444","long":"31.0569444"}},{"country":"sd","city":"Akubu","coordinates":{"lat":"7.7833333","long":"33.0166667"}},{"country":"sd","city":"Akuich","coordinates":{"lat":"6.9858333","long":"31.2361111"}},{"country":"sd","city":"Akun","coordinates":{"lat":"8.8833333","long":"27.9833333"}},{"country":"sd","city":"Akurkwa","coordinates":{"lat":"10.5333333","long":"32.1166667"}},{"country":"sd","city":"Akurwa","coordinates":{"lat":"10.5333333","long":"32.1166667"}},{"country":"sd","city":"Akwai","coordinates":{"lat":"7.5891667","long":"28.3011111"}},{"country":"sd","city":"Akwain","coordinates":{"lat":"7.9166667","long":"28.8333333"}},{"country":"sd","city":"Akwairmam","coordinates":{"lat":"8.9166667","long":"26.9166667"}},{"country":"sd","city":"Akwaiya","coordinates":{"lat":"10.8166667","long":"32.4"}},{"country":"sd","city":"Akwaj","coordinates":{"lat":"10.3833333","long":"32.6166667"}},{"country":"sd","city":"Akwak","coordinates":{"lat":"6.3536111","long":"31.4591667"}},{"country":"sd","city":"Akwar","coordinates":{"lat":"9.1166667","long":"26.75"}},{"country":"sd","city":"Akwei","coordinates":{"lat":"6.5833333","long":"30.4666667"}},{"country":"sd","city":"Akwenno","coordinates":{"lat":"7.7430556","long":"28.3133333"}},{"country":"sd","city":"Akwer Nhom","coordinates":{"lat":"8.9166667","long":"26.9166667"}},{"country":"sd","city":"Akwolakwoy","coordinates":{"lat":"6.5030556","long":"30.5808333"}},{"country":"sd","city":"Akwong","coordinates":{"lat":"7.45","long":"28.3666667"}},{"country":"sd","city":"Akwongdair","coordinates":{"lat":"8.85","long":"26.95"}},{"country":"sd","city":"Akwongdau","coordinates":{"lat":"9.0166667","long":"26.9166667"}},{"country":"sd","city":"Akwongrail","coordinates":{"lat":"9.0833333","long":"26.6833333"}},{"country":"sd","city":"Akwongyik","coordinates":{"lat":"9.1166667","long":"26.9166667"}},{"country":"sd","city":"Akwot","coordinates":{"lat":"9.0666667","long":"32.4"}},{"country":"sd","city":"Akwot","coordinates":{"lat":"9.0833333","long":"27.1"}},{"country":"sd","city":"Al `Abbasiyah","coordinates":{"lat":"14.45","long":"33.5166667"}},{"country":"sd","city":"Al `Abbasiyah","coordinates":{"lat":"12.1666667","long":"31.3"}},{"country":"sd","city":"Al `Abbasiyya","coordinates":{"lat":"12.1666667","long":"31.3"}},{"country":"sd","city":"Al `Abdiyah","coordinates":{"lat":"12.1333333","long":"28.8"}},{"country":"sd","city":"Al Abyad","coordinates":{"lat":"13.5","long":"27.5"}},{"country":"sd","city":"Al `Affad","coordinates":{"lat":"18.0","long":"31.15"}},{"country":"sd","city":"Alaga","coordinates":{"lat":"13.2333333","long":"30.9333333"}},{"country":"sd","city":"Al Agharr","coordinates":{"lat":"13.4833333","long":"34.95"}},{"country":"sd","city":"Al Ahamidah","coordinates":{"lat":"14.8333333","long":"33.55"}},{"country":"sd","city":"Al Ait","coordinates":{"lat":"12.3666667","long":"27.45"}},{"country":"sd","city":"Alaitoi","coordinates":{"lat":"7.2091667","long":"29.4330556"}},{"country":"sd","city":"Alak","coordinates":{"lat":"8.1666667","long":"28.5333333"}},{"country":"sd","city":"Al Akhdar","coordinates":{"lat":"10.55","long":"25.1666667"}},{"country":"sd","city":"Al `Alali","coordinates":{"lat":"11.9","long":"32.9666667"}},{"country":"sd","city":"Al `Alaqah","coordinates":{"lat":"14.1166667","long":"32.7666667"}},{"country":"sd","city":"`Alali","coordinates":{"lat":"11.2833333","long":"30.2166667"}},{"country":"sd","city":"Al `Alim","coordinates":{"lat":"11.8666667","long":"27.0833333"}},{"country":"sd","city":"Al `Amarah","coordinates":{"lat":"14.05","long":"32.9666667"}},{"country":"sd","city":"Al `Amarin","coordinates":{"lat":"19.15","long":"32.5666667"}},{"country":"sd","city":"Al Amin","coordinates":{"lat":"10.4166667","long":"33.1666667"}},{"country":"sd","city":"Al Amin","coordinates":{"lat":"12.1666667","long":"28.05"}},{"country":"sd","city":"Alan","coordinates":{"lat":"9.0666667","long":"27.1166667"}},{"country":"sd","city":"Alanga","coordinates":{"lat":"7.7166667","long":"33.0666667"}},{"country":"sd","city":"Alangalang","coordinates":{"lat":"10.0","long":"29.9666667"}},{"country":"sd","city":"Alangari","coordinates":{"lat":"8.2333333","long":"26.9"}},{"country":"sd","city":"`Alaqa","coordinates":{"lat":"14.1166667","long":"32.7666667"}},{"country":"sd","city":"Al Aqadah","coordinates":{"lat":"16.8394444","long":"33.5994444"}},{"country":"sd","city":"Al `Aradeiba Jazirah","coordinates":{"lat":"13.4166667","long":"34.0333333"}},{"country":"sd","city":"Al `Ara'ish","coordinates":{"lat":"9.65","long":"30.8666667"}},{"country":"sd","city":"Al `Ara'ish","coordinates":{"lat":"13.5666667","long":"30.9333333"}},{"country":"sd","city":"Al Arak","coordinates":{"lat":"18.2","long":"31.6166667"}},{"country":"sd","city":"Al Arak","coordinates":{"lat":"11.45","long":"28.9333333"}},{"country":"sd","city":"Al `Arid","coordinates":{"lat":"13.5666667","long":"34.8166667"}},{"country":"sd","city":"Al `Aris","coordinates":{"lat":"10.8","long":"25.7666667"}},{"country":"sd","city":"Al Arki","coordinates":{"lat":"18.1166667","long":"31.5333333"}},{"country":"sd","city":"Al `Arqan","coordinates":{"lat":"13.5166667","long":"29.2666667"}},{"country":"sd","city":"Al `Arshah","coordinates":{"lat":"13.8666667","long":"31.3166667"}},{"country":"sd","city":"Al `Ataya","coordinates":{"lat":"14.1666667","long":"33.5"}},{"country":"sd","city":"Al `Atrun","coordinates":{"lat":"18.1833333","long":"26.6"}},{"country":"sd","city":"Al `Awadi","coordinates":{"lat":"17.1","long":"34.75"}},{"country":"sd","city":"Al `Awaj","coordinates":{"lat":"14.0833333","long":"32.5833333"}},{"country":"sd","city":"Al `Awatib","coordinates":{"lat":"16.55","long":"33.15"}},{"country":"sd","city":"Al `Aylafun","coordinates":{"lat":"15.4375","long":"32.7266667"}},{"country":"sd","city":"Al `Ayn","coordinates":{"lat":"12.3833333","long":"30.6166667"}},{"country":"sd","city":"Al `Azazah","coordinates":{"lat":"14.9833333","long":"32.8166667"}},{"country":"sd","city":"Al `Azazi","coordinates":{"lat":"14.4666667","long":"32.75"}},{"country":"sd","city":"Al Bah","coordinates":{"lat":"13.0166667","long":"31.9333333"}},{"country":"sd","city":"Al Bajah","coordinates":{"lat":"18.2333333","long":"30.7166667"}},{"country":"sd","city":"Al Bakri","coordinates":{"lat":"18.3833333","long":"30.7"}},{"country":"sd","city":"Al Baniya","coordinates":{"lat":"14.0166667","long":"33.2666667"}},{"country":"sd","city":"Al Baqer","coordinates":{"lat":"18.7","long":"33.6333333"}},{"country":"sd","city":"Al Baragna","coordinates":{"lat":"14.1","long":"33.1333333"}},{"country":"sd","city":"Al Bar","coordinates":{"lat":"18.1333333","long":"31.55"}},{"country":"sd","city":"Al Bardab","coordinates":{"lat":"11.2","long":"29.6327778"}},{"country":"sd","city":"Al Barsa'","coordinates":{"lat":"18.1333333","long":"31.5666667"}},{"country":"sd","city":"Al Barun","coordinates":{"lat":"11.7333333","long":"33.5"}},{"country":"sd","city":"Al Basa","coordinates":{"lat":"18.1666667","long":"31.6166667"}},{"country":"sd","city":"Al Basabir","coordinates":{"lat":"16.5211111","long":"32.9411111"}},{"country":"sd","city":"Al Basabir","coordinates":{"lat":"16.5363889","long":"33.0063889"}},{"country":"sd","city":"Al Bashiri","coordinates":{"lat":"13.8","long":"30.1833333"}},{"country":"sd","city":"Al Bashir Ibrahim","coordinates":{"lat":"14.0833333","long":"33.0333333"}},{"country":"sd","city":"Al Bauga","coordinates":{"lat":"18.2666667","long":"33.9166667"}},{"country":"sd","city":"Al Bayda'","coordinates":{"lat":"10.6833333","long":"25.5666667"}},{"country":"sd","city":"Al Bayli","coordinates":{"lat":"17.4652778","long":"34.1825"}},{"country":"sd","city":"Al Beiri","coordinates":{"lat":"10.5166667","long":"30.3"}},{"country":"sd","city":"Al Beniya","coordinates":{"lat":"13.2166667","long":"30.0166667"}},{"country":"sd","city":"Al Berdab","coordinates":{"lat":"11.2","long":"29.6327778"}},{"country":"sd","city":"Al Bi'r","coordinates":{"lat":"11.1833333","long":"34.95"}},{"country":"sd","city":"Al Biri","coordinates":{"lat":"15.0","long":"26.75"}},{"country":"sd","city":"Al Biri","coordinates":{"lat":"11.1166667","long":"30.3"}},{"country":"sd","city":"Al Birkah","coordinates":{"lat":"12.3","long":"32.2833333"}},{"country":"sd","city":"Al Birri","coordinates":{"lat":"15.0","long":"26.75"}},{"country":"sd","city":"Al Budayriyah","coordinates":{"lat":"12.1333333","long":"31.2666667"}},{"country":"sd","city":"Al Buhayr","coordinates":{"lat":"14.1","long":"30.7666667"}},{"country":"sd","city":"Al Buqayr","coordinates":{"lat":"18.7","long":"33.6333333"}},{"country":"sd","city":"Al Buqayr","coordinates":{"lat":"17.35","long":"33.85"}},{"country":"sd","city":"Al Buwaydah","coordinates":{"lat":"14.2666667","long":"33.7833333"}},{"country":"sd","city":"Al Buwaydah","coordinates":{"lat":"13.45","long":"35.0"}},{"country":"sd","city":"Al Byeara","coordinates":{"lat":"11.05","long":"30.1333333"}},{"country":"sd","city":"Al Cardud","coordinates":{"lat":"11.95","long":"30.4666667"}},{"country":"sd","city":"Al Dabbah","coordinates":{"lat":"18.05","long":"30.95"}},{"country":"sd","city":"Alego","coordinates":{"lat":"4.4338889","long":"32.1597222"}},{"country":"sd","city":"Al Eiwad","coordinates":{"lat":"12.4333333","long":"35.05"}},{"country":"sd","city":"Alek","coordinates":{"lat":"11.4","long":"32.7333333"}},{"country":"sd","city":"Alek","coordinates":{"lat":"8.6666667","long":"28.1666667"}},{"country":"sd","city":"Al Elain","coordinates":{"lat":"12.3","long":"26.9166667"}},{"country":"sd","city":"Alel","coordinates":{"lat":"9.4444444","long":"31.6411111"}},{"country":"sd","city":"Alel","coordinates":{"lat":"6.1833333","long":"30.95"}},{"country":"sd","city":"Alelpaich","coordinates":{"lat":"6.6","long":"30.4333333"}},{"country":"sd","city":"Alelychok","coordinates":{"lat":"7.7777778","long":"28.0033333"}},{"country":"sd","city":"Alerwey","coordinates":{"lat":"6.5358333","long":"30.4991667"}},{"country":"sd","city":"Al Eseilat","coordinates":{"lat":"13.1","long":"30.0833333"}},{"country":"sd","city":"Alet","coordinates":{"lat":"8.2333333","long":"29.0666667"}},{"country":"sd","city":"Al Fadgoba","coordinates":{"lat":"15.1","long":"32.7833333"}},{"country":"sd","city":"Al Fadlab","coordinates":{"lat":"17.7011111","long":"33.9486111"}},{"country":"sd","city":"Al Faei","coordinates":{"lat":"11.0333333","long":"26.4333333"}},{"country":"sd","city":"Al Fahada","coordinates":{"lat":"17.3791667","long":"34.3422222"}},{"country":"sd","city":"Al Fakharin","coordinates":{"lat":"12.5666667","long":"31.3"}},{"country":"sd","city":"Al Fallatah","coordinates":{"lat":"10.0666667","long":"30.75"}},{"country":"sd","city":"Al Fanadik","coordinates":{"lat":"12.7","long":"31.9666667"}},{"country":"sd","city":"Al Faqqusah","coordinates":{"lat":"14.4166667","long":"32.8"}},{"country":"sd","city":"Al Farajab","coordinates":{"lat":"15.2","long":"32.6333333"}},{"country":"sd","city":"Al Fa'r","coordinates":{"lat":"10.4666667","long":"25.0"}},{"country":"sd","city":"Al Fashashawyah","coordinates":{"lat":"13.4","long":"32.5833333"}},{"country":"sd","city":"Al Fashir","coordinates":{"lat":"13.6333333","long":"25.35"}},{"country":"sd","city":"Al Faw","coordinates":{"lat":"14.15","long":"34.3333333"}},{"country":"sd","city":"Al Fayd","coordinates":{"lat":"11.5166667","long":"31.1333333"}},{"country":"sd","city":"Al Fayj Hamadna Allah","coordinates":{"lat":"14.5","long":"33.5833333"}},{"country":"sd","city":"Al Fazaru","coordinates":{"lat":"14.95","long":"33.3666667"}},{"country":"sd","city":"Al Fifi","coordinates":{"lat":"10.05","long":"25.0166667"}},{"country":"sd","city":"Al Fil","coordinates":{"lat":"9.95","long":"34.0333333"}},{"country":"sd","city":"Al Fujayjah","coordinates":{"lat":"16.6558333","long":"33.2952778"}},{"country":"sd","city":"Al Fulah","coordinates":{"lat":"12.95","long":"31.95"}},{"country":"sd","city":"Al Fulah","coordinates":{"lat":"11.8","long":"28.4"}},{"country":"sd","city":"Al Fuqara'","coordinates":{"lat":"14.65","long":"33.3666667"}},{"country":"sd","city":"Al Fuqara'","coordinates":{"lat":"19.05","long":"33.5833333"}},{"country":"sd","city":"Al Furay`ah","coordinates":{"lat":"13.4833333","long":"30.7666667"}},{"country":"sd","city":"Al Furay`","coordinates":{"lat":"14.3833333","long":"30.6333333"}},{"country":"sd","city":"Al Furaykhah","coordinates":{"lat":"18.15","long":"33.9666667"}},{"country":"sd","city":"Al Gagad","coordinates":{"lat":"17.0833333","long":"34.85"}},{"country":"sd","city":"Al Galgala","coordinates":{"lat":"15.1391667","long":"33.0975"}},{"country":"sd","city":"Al Gana","coordinates":{"lat":"11.4","long":"34.9333333"}},{"country":"sd","city":"Al Ganaet","coordinates":{"lat":"19.25","long":"32.7166667"}},{"country":"sd","city":"Al Gara","coordinates":{"lat":"14.55","long":"33.55"}},{"country":"sd","city":"Al Garef","coordinates":{"lat":"12.05","long":"34.3166667"}},{"country":"sd","city":"Al Gebir","coordinates":{"lat":"13.7166667","long":"29.8166667"}},{"country":"sd","city":"Al Geda","coordinates":{"lat":"17.2894444","long":"34.4822222"}},{"country":"sd","city":"Al Geddara","coordinates":{"lat":"12.8666667","long":"32.2833333"}},{"country":"sd","city":"Al Gedul","coordinates":{"lat":"12.3166667","long":"32.35"}},{"country":"sd","city":"Al Ghabah","coordinates":{"lat":"18.1666667","long":"30.75"}},{"country":"sd","city":"Al Ghabsha","coordinates":{"lat":"12.9","long":"31.45"}},{"country":"sd","city":"Al Ghabshah","coordinates":{"lat":"12.9","long":"31.45"}},{"country":"sd","city":"Al Ghanamah","coordinates":{"lat":"12.3333333","long":"34.4666667"}},{"country":"sd","city":"Al Ghassiba","coordinates":{"lat":"12.7666667","long":"30.1833333"}},{"country":"sd","city":"Al Ghilah","coordinates":{"lat":"12.2333333","long":"32.2833333"}},{"country":"sd","city":"Al Ghubayshab","coordinates":{"lat":"13.6333333","long":"30.7833333"}},{"country":"sd","city":"Al Ghubshan","coordinates":{"lat":"14.05","long":"33.5"}},{"country":"sd","city":"Alghulfan","coordinates":{"lat":"11.7833333","long":"29.5666667"}},{"country":"sd","city":"Al Ghuraybah","coordinates":{"lat":"18.1333333","long":"31.5833333"}},{"country":"sd","city":"Al Ghurayb","coordinates":{"lat":"19.4166667","long":"33.3333333"}},{"country":"sd","city":"Al Ghurayd","coordinates":{"lat":"14.0666667","long":"30.6166667"}},{"country":"sd","city":"Al Gilei Awlad Nafi","coordinates":{"lat":"17.3616667","long":"34.3638889"}},{"country":"sd","city":"Al Gilein","coordinates":{"lat":"17.425","long":"34.2244444"}},{"country":"sd","city":"Al Gowez","coordinates":{"lat":"17.3222222","long":"34.4361111"}},{"country":"sd","city":"Al-Gôz","coordinates":{"lat":"16.6166667","long":"33.25"}},{"country":"sd","city":"Al Gulishan","coordinates":{"lat":"14.2333333","long":"33.3166667"}},{"country":"sd","city":"Al Gureif","coordinates":{"lat":"16.54","long":"33.0427778"}},{"country":"sd","city":"Al Guroh","coordinates":{"lat":"10.8666667","long":"32.3333333"}},{"country":"sd","city":"Al Gurra`a `Abd al Ghani","coordinates":{"lat":"15.1405556","long":"33.5327778"}},{"country":"sd","city":"Al Guruna","coordinates":{"lat":"13.8666667","long":"32.1333333"}},{"country":"sd","city":"Al Guweir","coordinates":{"lat":"16.7758333","long":"33.5230556"}},{"country":"sd","city":"Al Gyuddul","coordinates":{"lat":"11.0333333","long":"25.2166667"}},{"country":"sd","city":"Al Habilah","coordinates":{"lat":"11.9166667","long":"33.0"}},{"country":"sd","city":"Al Hadabah","coordinates":{"lat":"14.7166667","long":"33.5166667"}},{"country":"sd","city":"Al Hafirah","coordinates":{"lat":"19.0833333","long":"33.6"}},{"country":"sd","city":"Al Hagab","coordinates":{"lat":"14.45","long":"33.0333333"}},{"country":"sd","city":"Al Hagagia","coordinates":{"lat":"14.1","long":"31.05"}},{"country":"sd","city":"Al Hageina","coordinates":{"lat":"14.3166667","long":"31.15"}},{"country":"sd","city":"Al Hageina as Suq","coordinates":{"lat":"13.05","long":"31.6166667"}},{"country":"sd","city":"Al Hajalij","coordinates":{"lat":"14.6","long":"31.9"}},{"country":"sd","city":"Al Hajar","coordinates":{"lat":"11.9","long":"34.3833333"}},{"country":"sd","city":"Al Hajar","coordinates":{"lat":"17.1475","long":"34.7297222"}},{"country":"sd","city":"Al Hajj","coordinates":{"lat":"13.9666667","long":"32.9833333"}},{"country":"sd","city":"Al Hajj Rabih","coordinates":{"lat":"13.6333333","long":"32.4833333"}},{"country":"sd","city":"Al Hakamab Wadi","coordinates":{"lat":"16.1041667","long":"32.5469444"}},{"country":"sd","city":"Al Hakamab West","coordinates":{"lat":"16.1041667","long":"32.5469444"}},{"country":"sd","city":"Al Halimab","coordinates":{"lat":"13.7166667","long":"34.5333333"}},{"country":"sd","city":"Al Hallufah","coordinates":{"lat":"10.4666667","long":"25.0666667"}},{"country":"sd","city":"Al Hamari","coordinates":{"lat":"11.7666667","long":"27.3833333"}},{"country":"sd","city":"Al Hamdab","coordinates":{"lat":"15.2666667","long":"32.45"}},{"country":"sd","city":"Al Hamerib","coordinates":{"lat":"15.95","long":"35.6166667"}},{"country":"sd","city":"Al Hammadiyah","coordinates":{"lat":"13.2","long":"30.4166667"}},{"country":"sd","city":"Al Hamra'","coordinates":{"lat":"12.4166667","long":"30.05"}},{"country":"sd","city":"Al Haraz","coordinates":{"lat":"15.8","long":"32.55"}},{"country":"sd","city":"Al Haraz","coordinates":{"lat":"13.5166667","long":"30.1166667"}},{"country":"sd","city":"Al Hariqah","coordinates":{"lat":"11.8333333","long":"31.6666667"}},{"country":"sd","city":"Al Hasahisa","coordinates":{"lat":"14.7333333","long":"33.3"}},{"country":"sd","city":"Al Hasanab","coordinates":{"lat":"15.3333333","long":"32.8833333"}},{"country":"sd","city":"Al Hasan `Abd al Qadir","coordinates":{"lat":"14.4","long":"32.2666667"}},{"country":"sd","city":"Al Haseirab","coordinates":{"lat":"15.1","long":"32.75"}},{"country":"sd","city":"Al Hasha'im","coordinates":{"lat":"14.1333333","long":"29.6833333"}},{"country":"sd","city":"Al Hashima","coordinates":{"lat":"10.6","long":"24.8666667"}},{"country":"sd","city":"Al Hawatah","coordinates":{"lat":"13.4166667","long":"34.6333333"}},{"country":"sd","city":"Al Hawsh","coordinates":{"lat":"14.1","long":"33.4833333"}},{"country":"sd","city":"Al Hawsh","coordinates":{"lat":"16.6647222","long":"33.3494444"}},{"country":"sd","city":"Al Hawwata","coordinates":{"lat":"13.4166667","long":"34.6333333"}},{"country":"sd","city":"Al Haybah","coordinates":{"lat":"19.2","long":"32.6833333"}},{"country":"sd","city":"Al Hebeika","coordinates":{"lat":"14.75","long":"32.3"}},{"country":"sd","city":"Al Heleiba","coordinates":{"lat":"19.1666667","long":"32.6333333"}},{"country":"sd","city":"Al Hilaliyah","coordinates":{"lat":"14.9333333","long":"33.2333333"}},{"country":"sd","city":"Al Hilla","coordinates":{"lat":"13.45","long":"27.1"}},{"country":"sd","city":"Al Hillah","coordinates":{"lat":"13.45","long":"27.1"}},{"country":"sd","city":"Al Ho","coordinates":{"lat":"13.85","long":"33.3666667"}},{"country":"sd","city":"Al Hoi","coordinates":{"lat":"12.1","long":"31.25"}},{"country":"sd","city":"Al Hudá","coordinates":{"lat":"14.55","long":"32.9166667"}},{"country":"sd","city":"Al Hudaybah","coordinates":{"lat":"15.4166667","long":"32.75"}},{"country":"sd","city":"Al Hudayb","coordinates":{"lat":"13.0","long":"32.8333333"}},{"country":"sd","city":"Al Hudayd","coordinates":{"lat":"13.8833333","long":"30.3166667"}},{"country":"sd","city":"Al Hujaylijah","coordinates":{"lat":"14.25","long":"33.25"}},{"country":"sd","city":"Al Hulayfi","coordinates":{"lat":"15.7444444","long":"32.5611111"}},{"country":"sd","city":"Al Hulaylah","coordinates":{"lat":"16.8152778","long":"33.5925"}},{"country":"sd","city":"Al Humr","coordinates":{"lat":"13.3333333","long":"30.1666667"}},{"country":"sd","city":"Al Huqnah","coordinates":{"lat":"16.3469444","long":"32.6783333"}},{"country":"sd","city":"Al Husayn","coordinates":{"lat":"13.9333333","long":"33.4"}},{"country":"sd","city":"Aliab","coordinates":{"lat":"7.4694444","long":"29.1036111"}},{"country":"sd","city":"Aliab Dok","coordinates":{"lat":"8.1833333","long":"30.3166667"}},{"country":"sd","city":"Aliab East","coordinates":{"lat":"17.2794444","long":"33.7605556"}},{"country":"sd","city":"`Aliab West","coordinates":{"lat":"17.3472222","long":"33.7713889"}},{"country":"sd","city":"`Ali","coordinates":{"lat":"13.9666667","long":"25.95"}},{"country":"sd","city":"Aliang","coordinates":{"lat":"6.5833333","long":"31.5166667"}},{"country":"sd","city":"Al `Ibediyya","coordinates":{"lat":"18.2333333","long":"33.95"}},{"country":"sd","city":"Al Ibnoia","coordinates":{"lat":"12.7833333","long":"30.0666667"}},{"country":"sd","city":"Ali Bundit","coordinates":{"lat":"5.8369444","long":"30.4627778"}},{"country":"sd","city":"Al `Iddah","coordinates":{"lat":"14.7666667","long":"32.6666667"}},{"country":"sd","city":"Aliet","coordinates":{"lat":"7.5666667","long":"29.6666667"}},{"country":"sd","city":"`Ali Golo","coordinates":{"lat":"7.7333333","long":"26.9333333"}},{"country":"sd","city":"`Ali Kordali","coordinates":{"lat":"8.7","long":"25.7833333"}},{"country":"sd","city":"Ali Mboko","coordinates":{"lat":"7.7666667","long":"26.15"}},{"country":"sd","city":"`Ali Terrig","coordinates":{"lat":"15.0666667","long":"24.2166667"}},{"country":"sd","city":"`Aliyab","coordinates":{"lat":"7.4694444","long":"29.1036111"}},{"country":"sd","city":"`Aliyab East","coordinates":{"lat":"17.2794444","long":"33.7605556"}},{"country":"sd","city":"`Aliyab West","coordinates":{"lat":"17.3472222","long":"33.7713889"}},{"country":"sd","city":"Al Jabalayn","coordinates":{"lat":"12.6","long":"32.8"}},{"country":"sd","city":"Al Jamamiyah","coordinates":{"lat":"19.3333333","long":"32.8"}},{"country":"sd","city":"Al Jawharah","coordinates":{"lat":"10.3666667","long":"30.7333333"}},{"country":"sd","city":"Al Jayli","coordinates":{"lat":"16.0122222","long":"32.5738889"}},{"country":"sd","city":"Al Jaza'ir","coordinates":{"lat":"13.0666667","long":"33.9666667"}},{"country":"sd","city":"Al Jaza'ir","coordinates":{"lat":"14.05","long":"36.0"}},{"country":"sd","city":"Al Jazirah","coordinates":{"lat":"11.2833333","long":"34.75"}},{"country":"sd","city":"Al Joghub","coordinates":{"lat":"10.2666667","long":"30.7"}},{"country":"sd","city":"Al Jubaylat","coordinates":{"lat":"14.6333333","long":"29.1166667"}},{"country":"sd","city":"Al Jubayliyah","coordinates":{"lat":"14.3333333","long":"33.2166667"}},{"country":"sd","city":"Al Jubayn","coordinates":{"lat":"12.1166667","long":"35.1666667"}},{"country":"sd","city":"Al Jufayrah","coordinates":{"lat":"14.55","long":"33.7"}},{"country":"sd","city":"Al Jummayzah","coordinates":{"lat":"11.7833333","long":"30.6833333"}},{"country":"sd","city":"Al Jummu`iyah","coordinates":{"lat":"14.0833333","long":"33.4333333"}},{"country":"sd","city":"Al Junayd","coordinates":{"lat":"14.8","long":"33.3166667"}},{"country":"sd","city":"Al Junaynah","coordinates":{"lat":"13.5","long":"24.2833333"}},{"country":"sd","city":"Al Junaynah","coordinates":{"lat":"13.45","long":"22.45"}},{"country":"sd","city":"Al Junaynah Fort","coordinates":{"lat":"13.4833333","long":"22.4666667"}},{"country":"sd","city":"Al Jundi","coordinates":{"lat":"11.2","long":"34.65"}},{"country":"sd","city":"Al Jundi","coordinates":{"lat":"17.05","long":"34.9"}},{"country":"sd","city":"Al Jurayf","coordinates":{"lat":"19.0166667","long":"33.55"}},{"country":"sd","city":"Al Juwayr","coordinates":{"lat":"16.7758333","long":"33.5230556"}},{"country":"sd","city":"Al Juzayrah","coordinates":{"lat":"13.9833333","long":"32.1833333"}},{"country":"sd","city":"Al Kababish","coordinates":{"lat":"13.85","long":"33.1666667"}},{"country":"sd","city":"Al Kabbashi","coordinates":{"lat":"15.8872222","long":"32.5802778"}},{"country":"sd","city":"Al Kadadah","coordinates":{"lat":"11.8166667","long":"31.4666667"}},{"country":"sd","city":"Al Kalagi","coordinates":{"lat":"14.2666667","long":"32.0166667"}},{"country":"sd","city":"Al Kalbah","coordinates":{"lat":"10.95","long":"24.2"}},{"country":"sd","city":"Al Kamilin","coordinates":{"lat":"15.0777778","long":"33.1777778"}},{"country":"sd","city":"Al Kamlin","coordinates":{"lat":"15.0777778","long":"33.1777778"}},{"country":"sd","city":"Al Kanisah","coordinates":{"lat":"19.2333333","long":"33.4666667"}},{"country":"sd","city":"Al Karabah","coordinates":{"lat":"18.55","long":"33.7"}},{"country":"sd","city":"Al Karanik","coordinates":{"lat":"14.25","long":"31.7833333"}},{"country":"sd","city":"Al Karkarai","coordinates":{"lat":"10.3666667","long":"30.7"}},{"country":"sd","city":"Al Karori","coordinates":{"lat":"12.0333333","long":"34.3333333"}},{"country":"sd","city":"Al Katib","coordinates":{"lat":"15.2833333","long":"32.6666667"}},{"country":"sd","city":"Al Kawah","coordinates":{"lat":"13.7333333","long":"32.5"}},{"country":"sd","city":"Al Kaylah","coordinates":{"lat":"13.5333333","long":"33.5166667"}},{"country":"sd","city":"Al Kereimet","coordinates":{"lat":"14.35","long":"32.95"}},{"country":"sd","city":"Al Khandaq","coordinates":{"lat":"18.6","long":"30.5666667"}},{"country":"sd","city":"Al Kharabah","coordinates":{"lat":"11.7166667","long":"34.4"}},{"country":"sd","city":"Al Khartah","coordinates":{"lat":"14.1666667","long":"35.7666667"}},{"country":"sd","city":"Al Khartum","coordinates":{"lat":"15.5880556","long":"32.5341667"}},{"country":"sd","city":"Al Khartum Bahr","coordinates":{"lat":"15.6288889","long":"32.6258333"}},{"country":"sd","city":"Al Khartum Bahri","coordinates":{"lat":"15.6288889","long":"32.6258333"}},{"country":"sd","city":"Al Khatmiyah","coordinates":{"lat":"11.8333333","long":"34.35"}},{"country":"sd","city":"Al Khawr","coordinates":{"lat":"10.4833333","long":"34.25"}},{"country":"sd","city":"Al Khayran","coordinates":{"lat":"14.85","long":"32.7666667"}},{"country":"sd","city":"Al Khulab","coordinates":{"lat":"14.4833333","long":"33.35"}},{"country":"sd","city":"Al Khulaywah","coordinates":{"lat":"18.35","long":"30.6833333"}},{"country":"sd","city":"Al Khurtum","coordinates":{"lat":"15.5880556","long":"32.5341667"}},{"country":"sd","city":"Al Khushaym","coordinates":{"lat":"14.4833333","long":"33.1333333"}},{"country":"sd","city":"Al Kiber","coordinates":{"lat":"13.7166667","long":"26.05"}},{"country":"sd","city":"Al Kir","coordinates":{"lat":"19.1666667","long":"32.6333333"}},{"country":"sd","city":"Al Kiteyyab","coordinates":{"lat":"17.1822222","long":"33.7225"}},{"country":"sd","city":"Al Kiwek","coordinates":{"lat":"11.3011111","long":"29.6597222"}},{"country":"sd","city":"Al Kodab","coordinates":{"lat":"16.2333333","long":"32.6041667"}},{"country":"sd","city":"Al Koin","coordinates":{"lat":"19.3333333","long":"30.4833333"}},{"country":"sd","city":"Al Kont","coordinates":{"lat":"17.2","long":"34.65"}},{"country":"sd","city":"Al Ku`","coordinates":{"lat":"19.2833333","long":"33.4166667"}},{"country":"sd","city":"Al Ku`","coordinates":{"lat":"12.5666667","long":"30.2"}},{"country":"sd","city":"Al Kuduk","coordinates":{"lat":"18.8333333","long":"33.5"}},{"country":"sd","city":"Al Kumur","coordinates":{"lat":"14.2833333","long":"33.4"}},{"country":"sd","city":"Al Kunayzah","coordinates":{"lat":"12.85","long":"34.05"}},{"country":"sd","city":"Al Kunuz","coordinates":{"lat":"13.65","long":"32.5333333"}},{"country":"sd","city":"Al Kura`","coordinates":{"lat":"19.1666667","long":"32.6666667"}},{"country":"sd","city":"Al Kur","coordinates":{"lat":"11.9166667","long":"30.6666667"}},{"country":"sd","city":"Al Kuraynik","coordinates":{"lat":"13.3666667","long":"22.8833333"}},{"country":"sd","city":"Al Kurnuk","coordinates":{"lat":"12.95","long":"30.7166667"}},{"country":"sd","city":"Al Kurnuk Muhammad `Isa","coordinates":{"lat":"13.6666667","long":"32.4166667"}},{"country":"sd","city":"Al Kurrah","coordinates":{"lat":"13.6","long":"29.8166667"}},{"country":"sd","city":"Al Kurumusia","coordinates":{"lat":"14.3666667","long":"30.7"}},{"country":"sd","city":"Al Kutayr","coordinates":{"lat":"14.9833333","long":"32.3666667"}},{"country":"sd","city":"Al Laban","coordinates":{"lat":"15.1833333","long":"35.8666667"}},{"country":"sd","city":"Al Lagawa","coordinates":{"lat":"11.4","long":"29.1333333"}},{"country":"sd","city":"Al Lagowa","coordinates":{"lat":"11.4","long":"29.1333333"}},{"country":"sd","city":"Allah Gabo","coordinates":{"lat":"9.9833333","long":"33.8166667"}},{"country":"sd","city":"Allah Gabo","coordinates":{"lat":"7.7166667","long":"26.2333333"}},{"country":"sd","city":"Allah Gabu","coordinates":{"lat":"9.9833333","long":"33.8166667"}},{"country":"sd","city":"Allah Jabu","coordinates":{"lat":"9.9833333","long":"33.8166667"}},{"country":"sd","city":"Allah Jabu","coordinates":{"lat":"7.7166667","long":"26.2333333"}},{"country":"sd","city":"Al Lamab","coordinates":{"lat":"15.5408333","long":"32.4925"}},{"country":"sd","city":"Al La`ota","coordinates":{"lat":"14.3666667","long":"32.6666667"}},{"country":"sd","city":"Alleira Allaro","coordinates":{"lat":"11.3333333","long":"30.5"}},{"country":"sd","city":"Alleira","coordinates":{"lat":"11.2736111","long":"30.4833333"}},{"country":"sd","city":"Alleira Elmuna","coordinates":{"lat":"11.2833333","long":"30.4833333"}},{"country":"sd","city":"Alleira Kuta","coordinates":{"lat":"11.3666667","long":"30.5166667"}},{"country":"sd","city":"Alleira Lauti","coordinates":{"lat":"11.3833333","long":"30.5"}},{"country":"sd","city":"Allela","coordinates":{"lat":"8.5666667","long":"27.0166667"}},{"country":"sd","city":"Alliab","coordinates":{"lat":"6.6","long":"29.4833333"}},{"country":"sd","city":"`Alloba","coordinates":{"lat":"12.6","long":"30.3166667"}},{"country":"sd","city":"Allobar","coordinates":{"lat":"12.6","long":"30.3166667"}},{"country":"sd","city":"Al Lubeik","coordinates":{"lat":"15.1166667","long":"32.45"}},{"country":"sd","city":"Al Luweisah","coordinates":{"lat":"13.2166667","long":"34.15"}},{"country":"sd","city":"Al Madinah","coordinates":{"lat":"14.3666667","long":"33.3166667"}},{"country":"sd","city":"Al Mafaza","coordinates":{"lat":"13.6","long":"34.55"}},{"country":"sd","city":"Al Mafazah","coordinates":{"lat":"13.6","long":"34.55"}},{"country":"sd","city":"Al Mafri","coordinates":{"lat":"13.1166667","long":"30.55"}},{"country":"sd","city":"Al Mahalabi","coordinates":{"lat":"12.3","long":"31.3333333"}},{"country":"sd","city":"Al Mahi","coordinates":{"lat":"14.4166667","long":"33.0166667"}},