[{"country":"vg","city":"Anderson","coordinates":{"lat":"18.4333333","long":"-64.6333333"}},{"country":"vg","city":"Belle Vue","coordinates":{"lat":"18.45","long":"-64.7333333"}},{"country":"vg","city":"Cane Garden Bay","coordinates":{"lat":"18.4166667","long":"-64.65"}},{"country":"vg","city":"Creek Village","coordinates":{"lat":"18.4911111","long":"-64.3811111"}},{"country":"vg","city":"Freshwater Pond","coordinates":{"lat":"18.3833333","long":"-64.6666667"}},{"country":"vg","city":"Great Carrot Bay","coordinates":{"lat":"18.4","long":"-64.6666667"}},{"country":"vg","city":"Great Mountain","coordinates":{"lat":"18.4333333","long":"-64.6166667"}},{"country":"vg","city":"Hannah","coordinates":{"lat":"18.4","long":"-64.6333333"}},{"country":"vg","city":"Kingstown","coordinates":{"lat":"18.4166667","long":"-64.5833333"}},{"country":"vg","city":"Leonards","coordinates":{"lat":"18.4166667","long":"-64.6333333"}},{"country":"vg","city":"Lettsome Settlement","coordinates":{"lat":"18.45","long":"-64.7166667"}},{"country":"vg","city":"Little Carrot Bay","coordinates":{"lat":"18.4","long":"-64.6666667"}},{"country":"vg","city":"Little Harbour","coordinates":{"lat":"18.4333333","long":"-64.7166667"}},{"country":"vg","city":"Long Swamp","coordinates":{"lat":"18.4333333","long":"-64.5666667"}},{"country":"vg","city":"Maya Cove","coordinates":{"lat":"18.4166667","long":"-64.5666667"}},{"country":"vg","city":"Road Town","coordinates":{"lat":"18.4166667","long":"-64.6166667"}},{"country":"vg","city":"South Sound","coordinates":{"lat":"18.4833333","long":"-64.3833333"}},{"country":"vg","city":"Spanish Town","coordinates":{"lat":"18.45","long":"-64.4333333"}},{"country":"vg","city":"The Mill","coordinates":{"lat":"18.45","long":"-64.5333333"}},{"country":"vg","city":"The Settlement","coordinates":{"lat":"18.7166667","long":"-64.3166667"}},{"country":"vg","city":"Threllfall","coordinates":{"lat":"18.4","long":"-64.6333333"}},{"country":"vg","city":"Wesley Will","coordinates":{"lat":"18.4333333","long":"-64.6"}}]