[{"country":"vc","city":"Adelphi","coordinates":{"lat":"13.1833333","long":"-61.1333333"}},{"country":"vc","city":"Arnos Vale","coordinates":{"lat":"13.1333333","long":"-61.2"}},{"country":"vc","city":"Ashton","coordinates":{"lat":"12.5833333","long":"-61.4333333"}},{"country":"vc","city":"Baiabu","coordinates":{"lat":"13.2","long":"-61.1333333"}},{"country":"vc","city":"Barawally","coordinates":{"lat":"13.2333333","long":"-61.2666667"}},{"country":"vc","city":"Barroualie","coordinates":{"lat":"13.2333333","long":"-61.2666667"}},{"country":"vc","city":"Barrouallie","coordinates":{"lat":"13.2333333","long":"-61.2666667"}},{"country":"vc","city":"Barrualli","coordinates":{"lat":"13.2333333","long":"-61.2666667"}},{"country":"vc","city":"Bednoe","coordinates":{"lat":"12.95","long":"-61.25"}},{"country":"vc","city":"Belle Vue","coordinates":{"lat":"13.2333333","long":"-61.1166667"}},{"country":"vc","city":"Belmont","coordinates":{"lat":"13.15","long":"-61.1833333"}},{"country":"vc","city":"Bequia","coordinates":{"lat":"13.2833333","long":"-61.1333333"}},{"country":"vc","city":"Biabou","coordinates":{"lat":"13.2","long":"-61.1333333"}},{"country":"vc","city":"Brighton","coordinates":{"lat":"13.1333333","long":"-61.1666667"}},{"country":"vc","city":"Brighton Village","coordinates":{"lat":"13.1333333","long":"-61.1666667"}},{"country":"vc","city":"Byera Village","coordinates":{"lat":"13.25","long":"-61.1166667"}},{"country":"vc","city":"Caliaqua","coordinates":{"lat":"13.1166667","long":"-61.1833333"}},{"country":"vc","city":"Calliagda","coordinates":{"lat":"13.1166667","long":"-61.1833333"}},{"country":"vc","city":"Calliaqua","coordinates":{"lat":"13.1166667","long":"-61.1833333"}},{"country":"vc","city":"Camden Park","coordinates":{"lat":"13.1666667","long":"-61.2333333"}},{"country":"vc","city":"Chapmans","coordinates":{"lat":"13.2833333","long":"-61.1166667"}},{"country":"vc","city":"Charlestown","coordinates":{"lat":"12.6833333","long":"-61.3333333"}},{"country":"vc","city":"Chateaubelair","coordinates":{"lat":"13.2833333","long":"-61.25"}},{"country":"vc","city":"Chauncey","coordinates":{"lat":"13.1666667","long":"-61.2333333"}},{"country":"vc","city":"Cheltenham","coordinates":{"lat":"12.8833333","long":"-61.1833333"}},{"country":"vc","city":"Clare Valley","coordinates":{"lat":"13.1666667","long":"-61.25"}},{"country":"vc","city":"Clifton","coordinates":{"lat":"12.5833333","long":"-61.4166667"}},{"country":"vc","city":"Cliftons","coordinates":{"lat":"12.5833333","long":"-61.4166667"}},{"country":"vc","city":"Colonarie","coordinates":{"lat":"13.2333333","long":"-61.1166667"}},{"country":"vc","city":"Derrick","coordinates":{"lat":"12.9833333","long":"-61.25"}},{"country":"vc","city":"Dovers","coordinates":{"lat":"12.8833333","long":"-61.1833333"}},{"country":"vc","city":"Dubois","coordinates":{"lat":"13.1833333","long":"-61.2333333"}},{"country":"vc","city":"Edinboro","coordinates":{"lat":"13.1575","long":"-61.2444444"}},{"country":"vc","city":"Fancy","coordinates":{"lat":"13.3666667","long":"-61.1666667"}},{"country":"vc","city":"Francois","coordinates":{"lat":"13.2","long":"-61.2166667"}},{"country":"vc","city":"Friendly","coordinates":{"lat":"13.2333333","long":"-61.1166667"}},{"country":"vc","city":"Friendship","coordinates":{"lat":"12.9833333","long":"-61.2333333"}},{"country":"vc","city":"Georgetown","coordinates":{"lat":"13.2666667","long":"-61.1166667"}},{"country":"vc","city":"Greathead","coordinates":{"lat":"13.1441667","long":"-61.2208333"}},{"country":"vc","city":"Greiggs","coordinates":{"lat":"13.2","long":"-61.15"}},{"country":"vc","city":"Hermitage","coordinates":{"lat":"13.2333333","long":"-61.2166667"}},{"country":"vc","city":"Kingstown","coordinates":{"lat":"13.1333333","long":"-61.2166667"}},{"country":"vc","city":"Kingstown Park","coordinates":{"lat":"13.1583333","long":"-61.235"}},{"country":"vc","city":"Layou","coordinates":{"lat":"13.2","long":"-61.2666667"}},{"country":"vc","city":"Liberty Lodge","coordinates":{"lat":"13.1658333","long":"-61.2316667"}},{"country":"vc","city":"Lovell Village","coordinates":{"lat":"12.8833333","long":"-61.1833333"}},{"country":"vc","city":"Mesopatamia","coordinates":{"lat":"13.1666667","long":"-61.1666667"}},{"country":"vc","city":"Mesopotamia","coordinates":{"lat":"13.1666667","long":"-61.1666667"}},{"country":"vc","city":"Montrose","coordinates":{"lat":"13.1666667","long":"-61.2333333"}},{"country":"vc","city":"New Sandy Bay Village","coordinates":{"lat":"13.35","long":"-61.1333333"}},{"country":"vc","city":"North Union","coordinates":{"lat":"13.2166667","long":"-61.1333333"}},{"country":"vc","city":"O'Briens","coordinates":{"lat":"13.2833333","long":"-61.1333333"}},{"country":"vc","city":"Old Wall","coordinates":{"lat":"12.6333333","long":"-61.3833333"}},{"country":"vc","city":"Orange Hill","coordinates":{"lat":"13.3166667","long":"-61.1166667"}},{"country":"vc","city":"Paget Farm","coordinates":{"lat":"12.9833333","long":"-61.25"}},{"country":"vc","city":"Pembroke","coordinates":{"lat":"13.1833333","long":"-61.25"}},{"country":"vc","city":"Peruvian Vale","coordinates":{"lat":"13.1666667","long":"-61.1333333"}},{"country":"vc","city":"Port-Elisabeth","coordinates":{"lat":"13.0166667","long":"-61.2333333"}},{"country":"vc","city":"Port Elizabeth","coordinates":{"lat":"13.0166667","long":"-61.2333333"}},{"country":"vc","city":"Princes Town","coordinates":{"lat":"13.2333333","long":"-61.2666667"}},{"country":"vc","city":"Questelles","coordinates":{"lat":"13.1666667","long":"-61.2333333"}},{"country":"vc","city":"Rabaca","coordinates":{"lat":"13.3","long":"-61.15"}},{"country":"vc","city":"Rabacca","coordinates":{"lat":"13.3","long":"-61.15"}},{"country":"vc","city":"Rabaka","coordinates":{"lat":"13.3","long":"-61.15"}},{"country":"vc","city":"Redemption","coordinates":{"lat":"13.1644444","long":"-61.2294444"}},{"country":"vc","city":"Ribishi","coordinates":{"lat":"13.1333333","long":"-61.1833333"}},{"country":"vc","city":"Richland Park","coordinates":{"lat":"13.2","long":"-61.1666667"}},{"country":"vc","city":"Richmond","coordinates":{"lat":"13.2833333","long":"-61.25"}},{"country":"vc","city":"Richmond Town","coordinates":{"lat":"13.2833333","long":"-61.25"}},{"country":"vc","city":"Richmond Vale","coordinates":{"lat":"13.2833333","long":"-61.2333333"}},{"country":"vc","city":"Rosehall","coordinates":{"lat":"13.2666667","long":"-61.2333333"}},{"country":"vc","city":"Rutland Vale","coordinates":{"lat":"13.2","long":"-61.2833333"}},{"country":"vc","city":"Rutland Vale Village","coordinates":{"lat":"13.2","long":"-61.2833333"}},{"country":"vc","city":"Sans Souci","coordinates":{"lat":"13.2166667","long":"-61.1166667"}},{"country":"vc","city":"South Rivers","coordinates":{"lat":"13.2333333","long":"-61.1333333"}},{"country":"vc","city":"Spring Village","coordinates":{"lat":"13.25","long":"-61.2333333"}},{"country":"vc","city":"Stubbs","coordinates":{"lat":"13.1333333","long":"-61.15"}},{"country":"vc","city":"Tourama","coordinates":{"lat":"13.3333333","long":"-61.15"}},{"country":"vc","city":"Troumaka","coordinates":{"lat":"13.2666667","long":"-61.25"}},{"country":"vc","city":"Turema","coordinates":{"lat":"13.3333333","long":"-61.15"}},{"country":"vc","city":"Union","coordinates":{"lat":"13.0","long":"-61.2333333"}},{"country":"vc","city":"Vermont","coordinates":{"lat":"13.2","long":"-61.2166667"}},{"country":"vc","city":"Wallibou","coordinates":{"lat":"13.3166667","long":"-61.2166667"}},{"country":"vc","city":"Wallibu","coordinates":{"lat":"13.3166667","long":"-61.2166667"}},{"country":"vc","city":"Waterloo","coordinates":{"lat":"13.3","long":"-61.1333333"}}]