[{"country":"at","city":"Aalfang","coordinates":{"lat":"48.833333","long":"15.066667"}},{"country":"at","city":"Abbtenau","coordinates":{"lat":"47.55","long":"13.35"}},{"country":"at","city":"Aberg","coordinates":{"lat":"47.4","long":"12.9"}},{"country":"at","city":"Abern","coordinates":{"lat":"48.05","long":"13.15"}},{"country":"at","city":"Abetzberg","coordinates":{"lat":"48.083333","long":"14.766667"}},{"country":"at","city":"Abetzdorf","coordinates":{"lat":"48.05","long":"14.766667"}},{"country":"at","city":"Abfalter","coordinates":{"lat":"47.791111","long":"13.076111"}},{"country":"at","city":"Abfaltern","coordinates":{"lat":"46.763889","long":"12.52"}},{"country":"at","city":"Abfaltersbach","coordinates":{"lat":"46.760278","long":"12.541944"}},{"country":"at","city":"Abriach","coordinates":{"lat":"46.55","long":"14.5"}},{"country":"at","city":"Absam","coordinates":{"lat":"47.3","long":"11.5"}},{"country":"at","city":"Absberg","coordinates":{"lat":"48.416667","long":"15.966667"}},{"country":"at","city":"Abschlag","coordinates":{"lat":"48.616667","long":"14.85"}},{"country":"at","city":"Absdorf","coordinates":{"lat":"48.316667","long":"15.616667"}},{"country":"at","city":"Abset","coordinates":{"lat":"46.894444","long":"15.931944"}},{"country":"at","city":"Absmann","coordinates":{"lat":"47.95","long":"13.033333"}},{"country":"at","city":"Abstetten","coordinates":{"lat":"48.266667","long":"15.983333"}},{"country":"at","city":"Abtei","coordinates":{"lat":"46.551944","long":"14.473333"}},{"country":"at","city":"Abtenao","coordinates":{"lat":"47.55","long":"13.35"}},{"country":"at","city":"Abtenau","coordinates":{"lat":"47.55","long":"13.35"}},{"country":"at","city":"Abtissendorf","coordinates":{"lat":"46.995833","long":"15.456389"}},{"country":"at","city":"Abtsdorf","coordinates":{"lat":"47.916667","long":"13.516667"}},{"country":"at","city":"Abtstorf","coordinates":{"lat":"47.916667","long":"13.516667"}},{"country":"at","city":"Abwinden","coordinates":{"lat":"48.266667","long":"14.433333"}},{"country":"at","city":"Ach","coordinates":{"lat":"48.15","long":"12.833333"}},{"country":"at","city":"Ach","coordinates":{"lat":"47.517778","long":"9.865"}},{"country":"at","city":"Achalm","coordinates":{"lat":"46.65","long":"14.933333"}},{"country":"at","city":"Acham","coordinates":{"lat":"47.3","long":"11.883333"}},{"country":"at","city":"Acharting","coordinates":{"lat":"47.9","long":"13"}},{"country":"at","city":"Achatzberg","coordinates":{"lat":"48.216667","long":"14.8"}},{"country":"at","city":"Achau","coordinates":{"lat":"48.066667","long":"16.383333"}},{"country":"at","city":"Achenkirch","coordinates":{"lat":"47.516667","long":"11.7"}},{"country":"at","city":"Achenlohe","coordinates":{"lat":"48.05","long":"13.183333"}},{"country":"at","city":"Achenrain","coordinates":{"lat":"47.45","long":"11.866667"}},{"country":"at","city":"Achensee","coordinates":{"lat":"47.5","long":"11.7"}},{"country":"at","city":"Achenwald","coordinates":{"lat":"47.566667","long":"11.666667"}},{"country":"at","city":"Aching","coordinates":{"lat":"48.233333","long":"13.066667"}},{"country":"at","city":"Achleit","coordinates":{"lat":"47.5","long":"12.033333"}},{"country":"at","city":"Achleiten","coordinates":{"lat":"48.15","long":"14.65"}},{"country":"at","city":"Achleiten","coordinates":{"lat":"48.55","long":"13.45"}},{"country":"at","city":"Achleithen","coordinates":{"lat":"48.066667","long":"14.183333"}},{"country":"at","city":"Achomitz","coordinates":{"lat":"46.568889","long":"13.608611"}},{"country":"at","city":"Achthal","coordinates":{"lat":"48.05","long":"13.2"}},{"country":"at","city":"Ackersberg","coordinates":{"lat":"48.066667","long":"13.533333"}},{"country":"at","city":"Adamsthal","coordinates":{"lat":"47.966667","long":"15.816667"}},{"country":"at","city":"Adeldorf","coordinates":{"lat":"48.166667","long":"15.683333"}},{"country":"at","city":"Adelsberg","coordinates":{"lat":"47.904722","long":"12.999444"}},{"country":"at","city":"Adelsberg","coordinates":{"lat":"47.1","long":"14.383333"}},{"country":"at","city":"Adelsdorf","coordinates":{"lat":"46.683333","long":"15.35"}},{"country":"at","city":"Adenbruck","coordinates":{"lat":"48.316667","long":"13.733333"}},{"country":"at","city":"Adendorf","coordinates":{"lat":"47.103611","long":"14.383333"}},{"country":"at","city":"Aderklaa","coordinates":{"lat":"48.283333","long":"16.533333"}},{"country":"at","city":"Adersdorf","coordinates":{"lat":"48.016667","long":"14.733333"}},{"country":"at","city":"Ading","coordinates":{"lat":"46.904722","long":"14.215"}},{"country":"at","city":"Adletzberg","coordinates":{"lat":"48.316667","long":"15.816667"}},{"country":"at","city":"Adlhaming","coordinates":{"lat":"48","long":"13.95"}},{"country":"at","city":"Adlitzgraben","coordinates":{"lat":"47.65","long":"15.816667"}},{"country":"at","city":"Adlwang","coordinates":{"lat":"47.983333","long":"14.216667"}},{"country":"at","city":"Admont","coordinates":{"lat":"47.566667","long":"14.45"}},{"country":"at","city":"Admontbichl","coordinates":{"lat":"47.077222","long":"14.658889"}},{"country":"at","city":"Adnet","coordinates":{"lat":"47.683333","long":"13.133333"}},{"country":"at","city":"Adriach","coordinates":{"lat":"47.266667","long":"15.3"}},{"country":"at","city":"Afing","coordinates":{"lat":"48.233333","long":"15.566667"}},{"country":"at","city":"Aflenz","coordinates":{"lat":"46.75","long":"15.533333"}},{"country":"at","city":"Aflenz an der Sulm","coordinates":{"lat":"46.75","long":"15.533333"}},{"country":"at","city":"Aflenz Kurort","coordinates":{"lat":"47.533333","long":"15.233333"}},{"country":"at","city":"Afling","coordinates":{"lat":"47.1","long":"15.116667"}},{"country":"at","city":"Afling","coordinates":{"lat":"47.25","long":"11.3"}},{"country":"at","city":"Afram","coordinates":{"lat":"46.883333","long":"15.533333"}},{"country":"at","city":"Afritz","coordinates":{"lat":"46.726944","long":"13.8075"}},{"country":"at","city":"Afterbach","coordinates":{"lat":"48.366667","long":"15.3"}},{"country":"at","city":"Agenbach","coordinates":{"lat":"47.266667","long":"11.45"}},{"country":"at","city":"Agersberg","coordinates":{"lat":"48.033333","long":"13.983333"}},{"country":"at","city":"Aggsbach","coordinates":{"lat":"48.283333","long":"15.4"}},{"country":"at","city":"Aggsbach","coordinates":{"lat":"47.966667","long":"13.95"}},{"country":"at","city":"Aggsbach Dorf","coordinates":{"lat":"48.283333","long":"15.416667"}},{"country":"at","city":"Aggsbach Markt","coordinates":{"lat":"48.283333","long":"15.4"}},{"country":"at","city":"Aggstein","coordinates":{"lat":"48.3","long":"15.416667"}},{"country":"at","city":"Aggstein-Dorf","coordinates":{"lat":"48.3","long":"15.416667"}},{"country":"at","city":"Aglasberg","coordinates":{"lat":"48.433333","long":"14.75"}},{"country":"at","city":"Aglassing","coordinates":{"lat":"47.96","long":"12.923889"}},{"country":"at","city":"Agonitz","coordinates":{"lat":"47.866667","long":"14.216667"}},{"country":"at","city":"Agoritschach","coordinates":{"lat":"46.55","long":"13.7"}},{"country":"at","city":"Agsbach","coordinates":{"lat":"48.133333","long":"16.033333"}},{"country":"at","city":"Agsdorf","coordinates":{"lat":"46.733333","long":"14.15"}},{"country":"at","city":"Ahornach","coordinates":{"lat":"47.516667","long":"9.816667"}},{"country":"at","city":"Ahorn","coordinates":{"lat":"47.85","long":"14.966667"}},{"country":"at","city":"Ahorn","coordinates":{"lat":"47.716667","long":"13.583333"}},{"country":"at","city":"Ahragartensiedlung","coordinates":{"lat":"48.4","long":"16.166667"}},{"country":"at","city":"Ahrenberg","coordinates":{"lat":"48.333333","long":"15.8"}},{"country":"at","city":"Ahrenberg","coordinates":{"lat":"47.433333","long":"12.233333"}},{"country":"at","city":"Ahrn","coordinates":{"lat":"47.383333","long":"11.166667"}},{"country":"at","city":"Ahrnbach","coordinates":{"lat":"47.283333","long":"11.9"}},{"country":"at","city":"Aibel","coordinates":{"lat":"46.683333","long":"15.216667"}},{"country":"at","city":"Aibl","coordinates":{"lat":"46.683333","long":"15.216667"}},{"country":"at","city":"Aichach","coordinates":{"lat":"46.6975","long":"13.606389"}},{"country":"at","city":"Aich","coordinates":{"lat":"46.566667","long":"14.266667"}},{"country":"at","city":"Aich","coordinates":{"lat":"47.85","long":"13.516667"}},{"country":"at","city":"Aich","coordinates":{"lat":"47.033333","long":"14.483333"}},{"country":"at","city":"Aichau","coordinates":{"lat":"48.266667","long":"15.266667"}},{"country":"at","city":"Aichbach","coordinates":{"lat":"48.1","long":"15.266667"}},{"country":"at","city":"Aichberg","coordinates":{"lat":"46.816667","long":"14.733333"}},{"country":"at","city":"Aichberg","coordinates":{"lat":"48.166667","long":"14.6"}},{"country":"at","city":"Aichberg","coordinates":{"lat":"47.983333","long":"13.8"}},{"country":"at","city":"Aichberg","coordinates":{"lat":"46.7","long":"15.233333"}},{"country":"at","city":"Aichbuchl","coordinates":{"lat":"47.75","long":"16.283333"}},{"country":"at","city":"Aichdorf","coordinates":{"lat":"47.183333","long":"14.7"}},{"country":"at","city":"Aichegg","coordinates":{"lat":"46.7675","long":"15.211389"}},{"country":"at","city":"Aichelzeil","coordinates":{"lat":"46.883333","long":"15.866667"}},{"country":"at","city":"Aichet","coordinates":{"lat":"48.533333","long":"15.616667"}},{"country":"at","city":"Aichet","coordinates":{"lat":"48.183333","long":"13.366667"}},{"country":"at","city":"Aichkirchen","coordinates":{"lat":"48.1","long":"13.783333"}},{"country":"at","city":"Aidenberg","coordinates":{"lat":"46.983333","long":"15.916667"}},{"country":"at","city":"Aifersdorf","coordinates":{"lat":"46.716667","long":"13.633333"}},{"country":"at","city":"Aigelsbach","coordinates":{"lat":"48.1","long":"15.533333"}},{"country":"at","city":"Aigelsbrunn","coordinates":{"lat":"47.983333","long":"13.3"}},{"country":"at","city":"Aigen","coordinates":{"lat":"46.676944","long":"12.920556"}},{"country":"at","city":"Aigen","coordinates":{"lat":"47.9","long":"16.133333"}},{"country":"at","city":"Aigen","coordinates":{"lat":"48.05","long":"13.9"}},{"country":"at","city":"Aigen","coordinates":{"lat":"47.15","long":"13.1"}},{"country":"at","city":"Aigen","coordinates":{"lat":"46.766667","long":"15.283333"}},{"country":"at","city":"Aigen bei Admont","coordinates":{"lat":"47.566667","long":"14.4"}},{"country":"at","city":"Aigendorf","coordinates":{"lat":"48.233333","long":"13.9"}},{"country":"at","city":"Aigen im Ennstal","coordinates":{"lat":"47.516667","long":"14.133333"}},{"country":"at","city":"Aigen im Ennstale","coordinates":{"lat":"47.516667","long":"14.133333"}},{"country":"at","city":"Aigen im Muhlkreis","coordinates":{"lat":"48.633333","long":"13.966667"}},{"country":"at","city":"Aigersberg","coordinates":{"lat":"48.033333","long":"13.983333"}},{"country":"at","city":"Aigertsham","coordinates":{"lat":"48.15","long":"13.283333"}},{"country":"at","city":"Aiglern","coordinates":{"lat":"47.533333","long":"14.166667"}},{"country":"at","city":"Ainet","coordinates":{"lat":"46.866111","long":"12.701389"}},{"country":"at","city":"Aisdorf","coordinates":{"lat":"47.283333","long":"12.633333"}},{"country":"at","city":"Aist","coordinates":{"lat":"48.233333","long":"14.6"}},{"country":"at","city":"Aistenthal","coordinates":{"lat":"48.25","long":"14.183333"}},{"country":"at","city":"Aistersheim","coordinates":{"lat":"48.183333","long":"13.75"}},{"country":"at","city":"Aisthofen","coordinates":{"lat":"48.266667","long":"14.6"}},{"country":"at","city":"Alauntal","coordinates":{"lat":"48.416667","long":"15.583333"}},{"country":"at","city":"Alaunthal","coordinates":{"lat":"48.416667","long":"15.583333"}},{"country":"at","city":"Albeck","coordinates":{"lat":"46.816667","long":"14.1"}},{"country":"at","city":"Albeck Obere Schattseite","coordinates":{"lat":"46.816667","long":"14.1"}},{"country":"at","city":"Albeck Untere Schattseite","coordinates":{"lat":"46.816667","long":"14.116667"}},{"country":"at","city":"Alben","coordinates":{"lat":"46.816667","long":"15.883333"}},{"country":"at","city":"Albenedt","coordinates":{"lat":"48","long":"13.966667"}},{"country":"at","city":"Albenodt","coordinates":{"lat":"48.583333","long":"13.85"}},{"country":"at","city":"Alberloch","coordinates":{"lat":"47.534722","long":"9.748889"}},{"country":"at","city":"Albern","coordinates":{"lat":"46.677778","long":"14.155833"}},{"country":"at","city":"Albern","coordinates":{"lat":"48.6","long":"14.933333"}},{"country":"at","city":"Albern","coordinates":{"lat":"48.233333","long":"14.55"}},{"country":"at","city":"Albern","coordinates":{"lat":"48.166667","long":"16.483333"}},{"country":"at","city":"Albernberg","coordinates":{"lat":"48.543333","long":"13.801944"}},{"country":"at","city":"Alberndorf","coordinates":{"lat":"48.7","long":"16.1"}},{"country":"at","city":"Alberndorf","coordinates":{"lat":"48.4","long":"14.416667"}},{"country":"at","city":"Alberndorf in der Riedmark","coordinates":{"lat":"48.4","long":"14.416667"}},{"country":"at","city":"Albersdorf","coordinates":{"lat":"46.6","long":"14.116667"}},{"country":"at","city":"Albersdorf","coordinates":{"lat":"47.116667","long":"15.683333"}},{"country":"at","city":"Albersdorferegg","coordinates":{"lat":"47.166667","long":"15.566667"}},{"country":"at","city":"Alberting","coordinates":{"lat":"48.016667","long":"13.433333"}},{"country":"at","city":"Albing","coordinates":{"lat":"48.233333","long":"14.55"}},{"country":"at","city":"Albingdorf","coordinates":{"lat":"48.466667","long":"14.483333"}},{"country":"at","city":"Albrechts","coordinates":{"lat":"48.733333","long":"15"}},{"country":"at","city":"Albrechtsberg","coordinates":{"lat":"48.216667","long":"15.4"}},{"country":"at","city":"Albrechtsberg","coordinates":{"lat":"48.183333","long":"13.1"}},{"country":"at","city":"Albrechtsberg an der Grossen Krems","coordinates":{"lat":"48.45","long":"15.366667"}},{"country":"at","city":"Albrechtsberg an der Pielach","coordinates":{"lat":"48.216667","long":"15.4"}},{"country":"at","city":"Albrechtschlag","coordinates":{"lat":"48.45","long":"14.3"}},{"country":"at","city":"Albrechtsfeld","coordinates":{"lat":"47.816667","long":"17.016667"}},{"country":"at","city":"Albrechtshohe","coordinates":{"lat":"46.883333","long":"15.916667"}},{"country":"at","city":"Aldrans","coordinates":{"lat":"47.25","long":"11.45"}},{"country":"at","city":"Alexenau","coordinates":{"lat":"47.866667","long":"13.566667"}},{"country":"at","city":"Algersdorf","coordinates":{"lat":"47.083333","long":"15.4"}},{"country":"at","city":"Alharting","coordinates":{"lat":"48.283333","long":"14.233333"}},{"country":"at","city":"Alhau","coordinates":{"lat":"47.283333","long":"16.083333"}},{"country":"at","city":"Alkersdorf","coordinates":{"lat":"47.883333","long":"16.1"}},{"country":"at","city":"Alkersdorf","coordinates":{"lat":"47.933333","long":"13.5"}},{"country":"at","city":"Alkoven","coordinates":{"lat":"48.283333","long":"14.1"}},{"country":"at","city":"Alla","coordinates":{"lat":"46.8","long":"15.933333"}},{"country":"at","city":"Allach","coordinates":{"lat":"46.973611","long":"13.950833"}},{"country":"at","city":"Alland","coordinates":{"lat":"48.05","long":"16.083333"}},{"country":"at","city":"Alland im Gebirge","coordinates":{"lat":"48.05","long":"16.083333"}},{"country":"at","city":"Allentsgschwendt","coordinates":{"lat":"48.483333","long":"15.333333"}},{"country":"at","city":"Allentsteig","coordinates":{"lat":"48.683333","long":"15.316667"}},{"country":"at","city":"Allerding","coordinates":{"lat":"48.4","long":"13.483333"}},{"country":"at","city":"Allerheiligen","coordinates":{"lat":"48.3","long":"14.65"}},{"country":"at","city":"Allerheiligen","coordinates":{"lat":"46.914167","long":"15.554444"}},{"country":"at","city":"Allerheiligen bei Wildon","coordinates":{"lat":"46.914167","long":"15.554444"}},{"country":"at","city":"Allerheiligen im Muhlkreis","coordinates":{"lat":"48.3","long":"14.65"}},{"country":"at","city":"Allerheiligen im Murztal","coordinates":{"lat":"47.466667","long":"15.4"}},{"country":"at","city":"Allersdorf","coordinates":{"lat":"47.3","long":"16.316667"}},{"country":"at","city":"Allersdorf","coordinates":{"lat":"46.716667","long":"14.866667"}},{"country":"at","city":"Allersdorf","coordinates":{"lat":"48.133333","long":"14.933333"}},{"country":"at","city":"Allersdorf","coordinates":{"lat":"47.15","long":"14.766667"}},{"country":"at","city":"Allersdorf bei Judenburg","coordinates":{"lat":"47.15","long":"14.766667"}},{"country":"at","city":"Allersdorf im Burgenland","coordinates":{"lat":"47.3","long":"16.316667"}},{"country":"at","city":"Allersgraben","coordinates":{"lat":"47.316667","long":"16.316667"}},{"country":"at","city":"Allerstorf","coordinates":{"lat":"48.416667","long":"14.066667"}},{"country":"at","city":"Allgaueck","coordinates":{"lat":"47.145833","long":"14.047778"}},{"country":"at","city":"Allgraben","coordinates":{"lat":"46.866667","long":"15.733333"}},{"country":"at","city":"Allhaming","coordinates":{"lat":"48.15","long":"14.166667"}},{"country":"at","city":"Allhang","coordinates":{"lat":"48.233333","long":"16.133333"}},{"country":"at","city":"Allhartsberg","coordinates":{"lat":"48.016667","long":"14.783333"}},{"country":"at","city":"Allhau","coordinates":{"lat":"47.283333","long":"16.083333"}},{"country":"at","city":"Allhut","coordinates":{"lat":"48.566667","long":"14.366667"}},{"country":"at","city":"Alm","coordinates":{"lat":"48.916667","long":"15.2"}},{"country":"at","city":"Alm","coordinates":{"lat":"47.4","long":"12.9"}},{"country":"at","city":"Alm","coordinates":{"lat":"46.85","long":"15.85"}},{"country":"at","city":"Almdorf","coordinates":{"lat":"47.4","long":"12.866667"}},{"country":"at","city":"Almersberg","coordinates":{"lat":"48.2","long":"15.916667"}},{"country":"at","city":"Almesberg","coordinates":{"lat":"48.366667","long":"14.433333"}},{"country":"at","city":"Almhauser","coordinates":{"lat":"47.516667","long":"14.983333"}},{"country":"at","city":"Almosen","coordinates":{"lat":"48.75","long":"15.4"}},{"country":"at","city":"Alpach","coordinates":{"lat":"47.5","long":"12.466667"}},{"country":"at","city":"Alpbach","coordinates":{"lat":"47.4","long":"11.95"}},{"country":"at","city":"Alpen","coordinates":{"lat":"46.9","long":"15.8"}},{"country":"at","city":"Alpendorf","coordinates":{"lat":"47.316667","long":"13.2"}},{"country":"at","city":"Alpendorf","coordinates":{"lat":"47.516667","long":"12.45"}},{"country":"at","city":"Alpfahrt","coordinates":{"lat":"47.433333","long":"13.266667"}},{"country":"at","city":"Alpl","coordinates":{"lat":"47.014444","long":"14.438611"}},{"country":"at","city":"Alpl","coordinates":{"lat":"47.683333","long":"15.566667"}},{"country":"at","city":"Alpsteig","coordinates":{"lat":"47.416667","long":"11.9"}},{"country":"at","city":"Altach","coordinates":{"lat":"47.366667","long":"13.2"}},{"country":"at","city":"Altach","coordinates":{"lat":"47.35","long":"9.65"}},{"country":"at","city":"Altaist","coordinates":{"lat":"48.3","long":"14.516667"}},{"country":"at","city":"Altanzing","coordinates":{"lat":"48.216667","long":"15.85"}},{"country":"at","city":"Altaussee","coordinates":{"lat":"47.633333","long":"13.766667"}},{"country":"at","city":"Altbach","coordinates":{"lat":"47.5","long":"12.466667"}},{"country":"at","city":"Altdietmanns","coordinates":{"lat":"48.783333","long":"15.383333"}},{"country":"at","city":"Altegg","coordinates":{"lat":"46.933333","long":"15.7"}},{"country":"at","city":"Alte Glashutte","coordinates":{"lat":"48.85","long":"15"}},{"country":"at","city":"Altenbach","coordinates":{"lat":"46.65","long":"15.333333"}},{"country":"at","city":"Altenberg","coordinates":{"lat":"48.333333","long":"16.233333"}},{"country":"at","city":"Altenberg","coordinates":{"lat":"48.366667","long":"14.333333"}},{"country":"at","city":"Altenberg","coordinates":{"lat":"47.939444","long":"13.058889"}},{"country":"at","city":"Altenberg","coordinates":{"lat":"46.8","long":"15.483333"}},{"country":"at","city":"Altenberg bei Leibnitz","coordinates":{"lat":"46.8","long":"15.483333"}},{"country":"at","city":"Altenberg bei Linz","coordinates":{"lat":"48.366667","long":"14.333333"}},{"country":"at","city":"Altenburg","coordinates":{"lat":"48.083333","long":"15.6"}},{"country":"at","city":"Altenburg","coordinates":{"lat":"48.266667","long":"14.683333"}},{"country":"at","city":"Altendorf","coordinates":{"lat":"46.55","long":"14.633333"}},{"country":"at","city":"Altendorf","coordinates":{"lat":"47.65","long":"16.016667"}},{"country":"at","city":"Altendorf","coordinates":{"lat":"48.483333","long":"13.616667"}},{"country":"at","city":"Altendorf","coordinates":{"lat":"47.25","long":"14.883333"}},{"country":"at","city":"Altenfelden","coordinates":{"lat":"48.483333","long":"13.966667"}},{"country":"at","city":"Altenhof","coordinates":{"lat":"46.866667","long":"16.05"}},{"country":"at","city":"Altenhof","coordinates":{"lat":"48.55","long":"15.683333"}},{"country":"at","city":"Altenhof","coordinates":{"lat":"48.133333","long":"13.683333"}},{"country":"at","city":"Altenhof","coordinates":{"lat":"47.316667","long":"13.083333"}},{"country":"at","city":"Altenhof","coordinates":{"lat":"47.216667","long":"15.533333"}},{"country":"at","city":"Altenhof am Hausruck","coordinates":{"lat":"48.133333","long":"13.683333"}},{"country":"at","city":"Altenhofen","coordinates":{"lat":"48.166667","long":"14.55"}},{"country":"at","city":"Altenmarkt","coordinates":{"lat":"46.7","long":"14.716667"}},{"country":"at","city":"Altenmarkt","coordinates":{"lat":"48.016667","long":"15.983333"}},{"country":"at","city":"Altenmarkt","coordinates":{"lat":"47.383333","long":"13.416667"}},{"country":"at","city":"Altenmarkt","coordinates":{"lat":"46.716667","long":"15.25"}},{"country":"at","city":"Altenmarkt an der Triesting","coordinates":{"lat":"48.016667","long":"15.983333"}},{"country":"at","city":"Altenmarkt bei Furstenfeld","coordinates":{"lat":"47.05","long":"16.05"}},{"country":"at","city":"Altenmarkt bei Riegersburg","coordinates":{"lat":"47","long":"15.916667"}},{"country":"at","city":"Altenmarkt bei Sankt Gallen","coordinates":{"lat":"47.716667","long":"14.633333"}},{"country":"at","city":"Altenmarkt bei Wies","coordinates":{"lat":"46.716667","long":"15.25"}},{"country":"at","city":"Altenmarkt im Isperthale","coordinates":{"lat":"48.283333","long":"15.066667"}},{"country":"at","city":"Altenmarkt im Pongau","coordinates":{"lat":"47.383333","long":"13.416667"}},{"country":"at","city":"Altenmarkt im Thale","coordinates":{"lat":"48.583333","long":"16.2"}},{"country":"at","city":"Altenmarkt im Ysperthal","coordinates":{"lat":"48.283333","long":"15.066667"}},{"country":"at","city":"Altenrath","coordinates":{"lat":"48.15","long":"14.483333"}},{"country":"at","city":"Altenreith","coordinates":{"lat":"47.95","long":"15.066667"}},{"country":"at","city":"Altensam","coordinates":{"lat":"48.05","long":"13.7"}},{"country":"at","city":"Altenschlag","coordinates":{"lat":"48.533333","long":"14.166667"}},{"country":"at","city":"Altenstadt","coordinates":{"lat":"47.25","long":"9.616667"}},{"country":"at","city":"Altenworth","coordinates":{"lat":"48.383333","long":"15.85"}},{"country":"at","city":"Altenzoll","coordinates":{"lat":"47.116667","long":"10.633333"}},{"country":"at","city":"Alte Peunt","coordinates":{"lat":"48.674722","long":"16.171111"}},{"country":"at","city":"Alter Futterplatz","coordinates":{"lat":"48.043889","long":"16.868611"}},{"country":"at","city":"Alterilz","coordinates":{"lat":"47.216667","long":"15.7"}},{"country":"at","city":"Alterlaa","coordinates":{"lat":"48.133333","long":"16.316667"}},{"country":"at","city":"Alter Markt","coordinates":{"lat":"46.866667","long":"14.483333"}},{"country":"at","city":"Altersberg","coordinates":{"lat":"46.860278","long":"13.491667"}},{"country":"at","city":"Alterzoll","coordinates":{"lat":"47.116667","long":"10.633333"}},{"country":"at","city":"Altfinkenstein","coordinates":{"lat":"46.545833","long":"13.905833"}},{"country":"at","city":"Altgfohl","coordinates":{"lat":"48.516667","long":"15.483333"}},{"country":"at","city":"Altglandorf","coordinates":{"lat":"46.753889","long":"14.381667"}},{"country":"at","city":"Altgralla","coordinates":{"lat":"46.825","long":"15.568889"}},{"country":"at","city":"Althaus Alpe","coordinates":{"lat":"46.75","long":"13.383333"}},{"country":"at","city":"Althaus","coordinates":{"lat":"46.75","long":"13.383333"}},{"country":"at","city":"Althaus","coordinates":{"lat":"47.35","long":"13.116667"}},{"country":"at","city":"Altheim","coordinates":{"lat":"48.066667","long":"13.033333"}},{"country":"at","city":"Althellmonsodt","coordinates":{"lat":"48.433333","long":"14.3"}},{"country":"at","city":"Althodis","coordinates":{"lat":"47.316667","long":"16.383333"}},{"country":"at","city":"Althofen","coordinates":{"lat":"46.616667","long":"14.5"}},{"country":"at","city":"Althofen","coordinates":{"lat":"47.15","long":"13.733333"}},{"country":"at","city":"Althofen","coordinates":{"lat":"47.15","long":"14.233333"}},{"country":"at","city":"Althofen Unterer Markt","coordinates":{"lat":"46.866667","long":"14.483333"}},{"country":"at","city":"Althoflein","coordinates":{"lat":"48.633333","long":"16.733333"}},{"country":"at","city":"Altirdning","coordinates":{"lat":"47.5","long":"14.083333"}},{"country":"at","city":"Altkerschegg","coordinates":{"lat":"46.8","long":"15.416667"}},{"country":"at","city":"Altkettenhof","coordinates":{"lat":"48.116667","long":"16.466667"}},{"country":"at","city":"Altlassing","coordinates":{"lat":"47.533333","long":"14.266667"}},{"country":"at","city":"Altlengbach","coordinates":{"lat":"48.15","long":"15.916667"}},{"country":"at","city":"Altlichtenberg","coordinates":{"lat":"48.35","long":"14.266667"}},{"country":"at","city":"Altlichtenwarth","coordinates":{"lat":"48.633333","long":"16.8"}},{"country":"at","city":"Altmanns","coordinates":{"lat":"48.616667","long":"16.466667"}},{"country":"at","city":"Altmannsdorf","coordinates":{"lat":"48.15","long":"15.65"}},{"country":"at","city":"Altmannsdorf","coordinates":{"lat":"48.25","long":"13.566667"}},{"country":"at","city":"Altmannsdorf an der Traisen","coordinates":{"lat":"48.15","long":"15.65"}},{"country":"at","city":"Altmelon","coordinates":{"lat":"48.45","long":"14.966667"}},{"country":"at","city":"Altmuenster","coordinates":{"lat":"47.9","long":"13.75"}},{"country":"at","city":"Altmunster","coordinates":{"lat":"47.9","long":"13.75"}},{"country":"at","city":"Altnagelberg","coordinates":{"lat":"48.85","long":"15"}},{"country":"at","city":"Altossiach","coordinates":{"lat":"46.683333","long":"14"}},{"country":"at","city":"Altpolla","coordinates":{"lat":"48.616667","long":"15.466667"}},{"country":"at","city":"Alt-Prerau","coordinates":{"lat":"48.783056","long":"16.466667"}},{"country":"at","city":"Altreitgraben","coordinates":{"lat":"48.437778","long":"14.1025"}},{"country":"at","city":"Altreute","coordinates":{"lat":"47.510833","long":"9.764722"}},{"country":"at","city":"Altruppersdorf","coordinates":{"lat":"48.683333","long":"16.55"}},{"country":"at","city":"Alt-Sankt Michael","coordinates":{"lat":"46.481389","long":"14.153889"}},{"country":"at","city":"Altsberg","coordinates":{"lat":"47.970556","long":"12.995278"}},{"country":"at","city":"Altschlaining","coordinates":{"lat":"47.316667","long":"16.283333"}},{"country":"at","city":"Altschwendt","coordinates":{"lat":"48.333333","long":"13.683333"}},{"country":"at","city":"Altspielberg","coordinates":{"lat":"48.233333","long":"15.366667"}},{"country":"at","city":"Altstadt-Retz","coordinates":{"lat":"48.766667","long":"15.933333"}},{"country":"at","city":"Altwaidhofen","coordinates":{"lat":"48.816667","long":"15.3"}},{"country":"at","city":"Altwartenburg","coordinates":{"lat":"48.016667","long":"13.616667"}},{"country":"at","city":"Altweidling","coordinates":{"lat":"48.4","long":"15.666667"}},{"country":"at","city":"Altweitra","coordinates":{"lat":"48.716667","long":"14.9"}},{"country":"at","city":"Amagmach","coordinates":{"lat":"47.418056","long":"9.984167"}},{"country":"at","city":"Amaliendorf","coordinates":{"lat":"48.833333","long":"15.083333"}},{"country":"at","city":"Amasodt","coordinates":{"lat":"48.083333","long":"14.983333"}},{"country":"at","city":"Amassegg","coordinates":{"lat":"47.383333","long":"15.6"}},{"country":"at","city":"Ambach","coordinates":{"lat":"48.3","long":"15.566667"}},{"country":"at","city":"Am Bach","coordinates":{"lat":"48.654722","long":"16.5325"}},{"country":"at","city":"Amberg","coordinates":{"lat":"46.7","long":"13.75"}},{"country":"at","city":"Amberg","coordinates":{"lat":"48.266667","long":"13.166667"}},{"country":"at","city":"Am Berg","coordinates":{"lat":"47.583333","long":"14.233333"}},{"country":"at","city":"Ambras","coordinates":{"lat":"47.25","long":"11.416667"}},{"country":"at","city":"Ameis","coordinates":{"lat":"48.666667","long":"16.533333"}},{"country":"at","city":"Ameisberg","coordinates":{"lat":"48.216667","long":"16.083333"}},{"country":"at","city":"Ameisberg","coordinates":{"lat":"48","long":"13.233333"}},{"country":"at","city":"Ameisbichl","coordinates":{"lat":"46.662778","long":"14.216667"}},{"country":"at","city":"Ameisbuhel","coordinates":{"lat":"48.083333","long":"16.083333"}},{"country":"at","city":"Ameisthal","coordinates":{"lat":"48.483333","long":"16"}},{"country":"at","city":"Amelreiching","coordinates":{"lat":"48.516667","long":"13.483333"}},{"country":"at","city":"Amelsdorf","coordinates":{"lat":"48.583333","long":"15.783333"}},{"country":"at","city":"Amering","coordinates":{"lat":"47.058611","long":"14.726389"}},{"country":"at","city":"Amerlugen","coordinates":{"lat":"47.208333","long":"9.608611"}},{"country":"at","city":"Amersdorf","coordinates":{"lat":"48.466667","long":"13.9"}},{"country":"at","city":"Amerstorf","coordinates":{"lat":"48.466667","long":"13.9"}},{"country":"at","city":"Amesedt","coordinates":{"lat":"48.550556","long":"13.816944"}},{"country":"at","city":"Amesreith","coordinates":{"lat":"48.5","long":"14.65"}},{"country":"at","city":"Amesschlag","coordinates":{"lat":"48.483333","long":"14.216667"}},{"country":"at","city":"Am Feuersang","coordinates":{"lat":"47.366667","long":"13.4"}},{"country":"at","city":"Am Hasen","coordinates":{"lat":"48.61","long":"16.471944"}},{"country":"at","city":"Am Katzelbach","coordinates":{"lat":"47.016667","long":"15.383333"}},{"country":"at","city":"Am Kronawett","coordinates":{"lat":"48.333333","long":"16.4"}},{"country":"at","city":"Amlach","coordinates":{"lat":"46.733889","long":"13.155556"}},{"country":"at","city":"Amlach","coordinates":{"lat":"46.816389","long":"12.763611"}},{"country":"at","city":"Amlos","coordinates":{"lat":"47.566667","long":"16.2"}},{"country":"at","city":"Ammerlugen","coordinates":{"lat":"47.216667","long":"9.6"}},{"country":"at","city":"Ammeroid","coordinates":{"lat":"47.9575","long":"13.035"}},{"country":"at","city":"Ampass","coordinates":{"lat":"47.266667","long":"11.45"}},{"country":"at","city":"Ampass Unterdorf","coordinates":{"lat":"47.266667","long":"11.45"}},{"country":"at","city":"Ampfelwang","coordinates":{"lat":"48.083333","long":"13.566667"}},{"country":"at","city":"Ampfenham","coordinates":{"lat":"48.183333","long":"13.366667"}},{"country":"at","city":"Ampflwang","coordinates":{"lat":"48.083333","long":"13.566667"}},{"country":"at","city":"Am Pyhrnerhof","coordinates":{"lat":"47.583333","long":"14.266667"}},{"country":"at","city":"Amras","coordinates":{"lat":"47.25","long":"11.416667"}},{"country":"at","city":"Amschlbach","coordinates":{"lat":"46.95","long":"15.783333"}},{"country":"at","city":"Am See","coordinates":{"lat":"48.699722","long":"16.105556"}},{"country":"at","city":"Amstall","coordinates":{"lat":"48.383333","long":"15.316667"}},{"country":"at","city":"Am Steig","coordinates":{"lat":"47.116667","long":"10.483333"}},{"country":"at","city":"Amstein","coordinates":{"lat":"47.216667","long":"15.45"}},{"country":"at","city":"Am Stein","coordinates":{"lat":"47.524722","long":"9.752778"}},{"country":"at","city":"Amstetten","coordinates":{"lat":"48.116667","long":"14.866667"}},{"country":"at","city":"Am Sulzbichl","coordinates":{"lat":"47.916667","long":"15.25"}},{"country":"at","city":"Am Teiritz","coordinates":{"lat":"48.366667","long":"16.366667"}},{"country":"at","city":"Amtmann","coordinates":{"lat":"47.1","long":"15.566667"}},{"country":"at","city":"Am Vogel","coordinates":{"lat":"47.516111","long":"9.764444"}},{"country":"at","city":"Am Waldgrund","coordinates":{"lat":"47.133333","long":"15.516667"}},{"country":"at","city":"Am Ziegelwerk","coordinates":{"lat":"48.466667","long":"16.833333"}},{"country":"at","city":"Andau","coordinates":{"lat":"47.766667","long":"17.033333"}},{"country":"at","city":"An der Leiten","coordinates":{"lat":"47.95","long":"15.966667"}},{"country":"at","city":"An der Schanze","coordinates":{"lat":"47.416667","long":"11.216667"}},{"country":"at","city":"Andersdorf","coordinates":{"lat":"46.716667","long":"14.916667"}},{"country":"at","city":"An der Stadlhutte","coordinates":{"lat":"48.183333","long":"16.133333"}},{"country":"at","city":"Andiesen","coordinates":{"lat":"48.383333","long":"13.433333"}},{"country":"at","city":"Andiesenhofen","coordinates":{"lat":"48.35","long":"13.4"}},{"country":"at","city":"Andlersdorf","coordinates":{"lat":"48.183333","long":"16.666667"}},{"country":"at","city":"Andling","coordinates":{"lat":"48.366667","long":"13.8"}},{"country":"at","city":"Andorf","coordinates":{"lat":"48.383333","long":"13.583333"}},{"country":"at","city":"Andreute","coordinates":{"lat":"47.566667","long":"9.783056"}},{"country":"at","city":"Andrichsfurt","coordinates":{"lat":"48.25","long":"13.516667"}},{"country":"at","city":"Andrichsfurth","coordinates":{"lat":"48.25","long":"13.516667"}},{"country":"at","city":"Anetsham","coordinates":{"lat":"48.166667","long":"13.516667"}},{"country":"at","city":"Angath","coordinates":{"lat":"47.5","long":"12.066667"}},{"country":"at","city":"Angedair","coordinates":{"lat":"47.133333","long":"10.566667"}},{"country":"at","city":"Angelbach","coordinates":{"lat":"48.633333","long":"14.8"}},{"country":"at","city":"Angenofen","coordinates":{"lat":"46.9","long":"15.2"}},{"country":"at","city":"Anger","coordinates":{"lat":"47.85","long":"14.633333"}},{"country":"at","city":"Anger","coordinates":{"lat":"47.233333","long":"15.45"}},{"country":"at","city":"Angerberg","coordinates":{"lat":"47.283333","long":"12.683333"}},{"country":"at","city":"Angerberg","coordinates":{"lat":"46.9","long":"15.833333"}},{"country":"at","city":"Angern an der March","coordinates":{"lat":"48.377778","long":"16.828056"}},{"country":"at","city":"Angern","coordinates":{"lat":"46.566667","long":"14.316667"}},{"country":"at","city":"Angern","coordinates":{"lat":"48.3","long":"15.733333"}},{"country":"at","city":"Angern","coordinates":{"lat":"46.883333","long":"11.033333"}},{"country":"at","city":"Angersberg","coordinates":{"lat":"48.133333","long":"14.416667"}},{"country":"at","city":"Angerwies","coordinates":{"lat":"47.548056","long":"10.618611"}},{"country":"at","city":"Angsuss","coordinates":{"lat":"48.4","long":"13.616667"}},{"country":"at","city":"Anif","coordinates":{"lat":"47.75","long":"13.066667"}},{"country":"at","city":"Anitzberg","coordinates":{"lat":"48.366667","long":"14.5"}},{"country":"at","city":"Ankenhofen","coordinates":{"lat":"47.25","long":"15.466667"}},{"country":"at","city":"Anlauftal","coordinates":{"lat":"47.083333","long":"13.133333"}},{"country":"at","city":"Annaberg","coordinates":{"lat":"47.866667","long":"15.366667"}},{"country":"at","city":"Annaberg","coordinates":{"lat":"48.283333","long":"14.133333"}},{"country":"at","city":"Annaberg","coordinates":{"lat":"47.516667","long":"13.433333"}},{"country":"at","city":"Annaberg im Lammertal","coordinates":{"lat":"47.516667","long":"13.433333"}},{"country":"at","city":"Annabichl","coordinates":{"lat":"46.65","long":"14.316667"}},{"country":"at","city":"Annajorgl","coordinates":{"lat":"47.183333","long":"15.533333"}},{"country":"at","city":"Annarotte","coordinates":{"lat":"47.866667","long":"15.383333"}},{"country":"at","city":"Annatsberg","coordinates":{"lat":"48.133333","long":"15.166667"}},{"country":"at","city":"Annenheim","coordinates":{"lat":"46.65","long":"13.9"}},{"country":"at","city":"Anras","coordinates":{"lat":"46.773889","long":"12.560833"}},{"country":"at","city":"Ansfelden","coordinates":{"lat":"48.2","long":"14.283333"}},{"country":"at","city":"Ansfelden","coordinates":{"lat":"47.965","long":"13.049444"}},{"country":"at","city":"Antau","coordinates":{"lat":"47.766667","long":"16.483333"}},{"country":"at","city":"Antenfeinhofe","coordinates":{"lat":"48.533333","long":"14.9"}},{"country":"at","city":"Antersham","coordinates":{"lat":"48.383333","long":"13.566667"}},{"country":"at","city":"Anthering","coordinates":{"lat":"47.883333","long":"13.016667"}},{"country":"at","city":"Antiesenhofen","coordinates":{"lat":"48.35","long":"13.4"}},{"country":"at","city":"Antlangkirchen","coordinates":{"lat":"48.366667","long":"13.7"}},{"country":"at","city":"Anzberg","coordinates":{"lat":"48.501111","long":"13.523611"}},{"country":"at","city":"Anzenau","coordinates":{"lat":"47.666667","long":"13.616667"}},{"country":"at","city":"Anzenbach","coordinates":{"lat":"47.85","long":"14.466667"}},{"country":"at","city":"Anzenberg","coordinates":{"lat":"48.15","long":"15.233333"}},{"country":"at","city":"Anzendorf","coordinates":{"lat":"48.183333","long":"15.35"}},{"country":"at","city":"Anzendorf","coordinates":{"lat":"48.266667","long":"14.5"}},{"country":"at","city":"Anzfelden","coordinates":{"lat":"47.908333","long":"13.032778"}},{"country":"at","city":"Anzing","coordinates":{"lat":"48.25","long":"15.85"}},{"country":"at","city":"Apetlon","coordinates":{"lat":"47.75","long":"16.833333"}},{"country":"at","city":"Apfelberg","coordinates":{"lat":"47.2","long":"14.833333"}},{"country":"at","city":"Apfeldorf","coordinates":{"lat":"47.516667","long":"12.416667"}},{"country":"at","city":"Apfelsbach","coordinates":{"lat":"48.466667","long":"14"}},{"country":"at","city":"Apfoltern","coordinates":{"lat":"48.55","long":"14.483333"}},{"country":"at","city":"Appersberg","coordinates":{"lat":"48.283333","long":"14.183333"}},{"country":"at","city":"Apriach","coordinates":{"lat":"47.016667","long":"12.883333"}},{"country":"at","city":"Arb","coordinates":{"lat":"48.166667","long":"15.233333"}},{"country":"at","city":"Arbesbach","coordinates":{"lat":"48.483333","long":"14.95"}},{"country":"at","city":"Arbesthal","coordinates":{"lat":"48.066667","long":"16.7"}},{"country":"at","city":"Arbing","coordinates":{"lat":"48.05","long":"13.466667"}},{"country":"at","city":"Archbach Siedlung","coordinates":{"lat":"47.503333","long":"10.730833"}},{"country":"at","city":"Archkogel","coordinates":{"lat":"47.616667","long":"13.833333"}},{"country":"at","city":"Ardagger","coordinates":{"lat":"48.166667","long":"14.816667"}},{"country":"at","city":"Ardagger Markt","coordinates":{"lat":"48.166667","long":"14.816667"}},{"country":"at","city":"Ardagger Stift","coordinates":{"lat":"48.15","long":"14.833333"}},{"country":"at","city":"Ardning","coordinates":{"lat":"47.583333","long":"14.35"}},{"country":"at","city":"Argen","coordinates":{"lat":"47.319444","long":"9.985"}},{"country":"at","city":"Argenau","coordinates":{"lat":"47.319444","long":"9.985"}},{"country":"at","city":"Argenzipfel","coordinates":{"lat":"47.318333","long":"9.967778"}},{"country":"at","city":"Argetzleiten","coordinates":{"lat":"46.8","long":"15.85"}},{"country":"at","city":"Arlsdorf","coordinates":{"lat":"46.666667","long":"14.616667"}},{"country":"at","city":"Armau","coordinates":{"lat":"48.283333","long":"13.85"}},{"country":"at","city":"Armschlag","coordinates":{"lat":"48.45","long":"15.233333"}},{"country":"at","city":"Arnbach","coordinates":{"lat":"46.746667","long":"12.396667"}},{"country":"at","city":"Arnberg am Kobernauser Walde","coordinates":{"lat":"48.116667","long":"13.333333"}},{"country":"at","city":"Arnberg am Kobernausser Walde","coordinates":{"lat":"48.116667","long":"13.333333"}},{"country":"at","city":"Arnberg","coordinates":{"lat":"48.116667","long":"13.333333"}},{"country":"at","city":"Arndorf","coordinates":{"lat":"46.65","long":"14.083333"}},{"country":"at","city":"Arndorf","coordinates":{"lat":"48.3","long":"15.133333"}},{"country":"at","city":"Arndorf","coordinates":{"lat":"47.283333","long":"12.433333"}},{"country":"at","city":"Arndorf","coordinates":{"lat":"47.166667","long":"15.666667"}},{"country":"at","city":"Arndorf bei Sankt Ruprecht an der Raab","coordinates":{"lat":"47.166667","long":"15.666667"}},{"country":"at","city":"Arnersdorf","coordinates":{"lat":"48.15","long":"15.45"}},{"country":"at","city":"Arnfels","coordinates":{"lat":"46.676389","long":"15.403056"}},{"country":"at","city":"Arnig","coordinates":{"lat":"46.966667","long":"12.633333"}},{"country":"at","city":"Arnoldstein","coordinates":{"lat":"46.546111","long":"13.71"}},{"country":"at","city":"Arnolz","coordinates":{"lat":"48.85","long":"15.216667"}},{"country":"at","city":"Arnreit","coordinates":{"lat":"48.533333","long":"14"}},{"country":"at","city":"Arnreith","coordinates":{"lat":"48.533333","long":"14"}},{"country":"at","city":"Arnstein","coordinates":{"lat":"47.016667","long":"15.166667"}},{"country":"at","city":"Arnwiesen","coordinates":{"lat":"47.1","long":"15.766667"}},{"country":"at","city":"Arriach","coordinates":{"lat":"46.731944","long":"13.851944"}},{"country":"at","city":"Arthof","coordinates":{"lat":"48.216667","long":"14.533333"}},{"country":"at","city":"Artolz","coordinates":{"lat":"48.833333","long":"15.166667"}},{"country":"at","city":"Artstetten","coordinates":{"lat":"48.233333","long":"15.2"}},{"country":"at","city":"Arzbach","coordinates":{"lat":"47.633333","long":"15.566667"}},{"country":"at","city":"Arzberg","coordinates":{"lat":"47.883333","long":"14.466667"}},{"country":"at","city":"Arzberg","coordinates":{"lat":"47.25","long":"15.516667"}},{"country":"at","city":"Arzberg","coordinates":{"lat":"47.333333","long":"11.7"}},{"country":"at","city":"Arzgrub","coordinates":{"lat":"48.3","long":"16.216667"}},{"country":"at","city":"Arzkendl","coordinates":{"lat":"47.366667","long":"13.283333"}},{"country":"at","city":"Arzl","coordinates":{"lat":"47.2","long":"10.766667"}},{"country":"at","city":"Arzleiten","coordinates":{"lat":"47.633333","long":"13.766667"}},{"country":"at","city":"Arzl im Pitztal","coordinates":{"lat":"47.2","long":"10.766667"}},{"country":"at","city":"Arztal","coordinates":{"lat":"47.233333","long":"15.516667"}},{"country":"at","city":"Arzwaldgraben","coordinates":{"lat":"47.233333","long":"15.283333"}},{"country":"at","city":"Arzwiesen","coordinates":{"lat":"48.433333","long":"15.366667"}},{"country":"at","city":"Asang","coordinates":{"lat":"48.1","long":"14.45"}},{"country":"at","city":"Asberg","coordinates":{"lat":"48.366667","long":"14.25"}},{"country":"at","city":"Aschach an der Donau","coordinates":{"lat":"48.366667","long":"14.033333"}},{"country":"at","city":"Aschach an der Steyr","coordinates":{"lat":"48","long":"14.333333"}},{"country":"at","city":"Aschach","coordinates":{"lat":"48","long":"14.333333"}},{"country":"at","city":"Asch","coordinates":{"lat":"46.77","long":"12.540556"}},{"country":"at","city":"Aschau am Ottersbach","coordinates":{"lat":"46.883333","long":"15.733333"}},{"country":"at","city":"Aschau","coordinates":{"lat":"47.4","long":"16.2"}},{"country":"at","city":"Aschau","coordinates":{"lat":"47.716667","long":"13.55"}},{"country":"at","city":"Aschau","coordinates":{"lat":"46.883333","long":"15.733333"}},{"country":"at","city":"Aschau","coordinates":{"lat":"47.266667","long":"11.9"}},{"country":"at","city":"Aschauberg","coordinates":{"lat":"46.883333","long":"15.75"}},{"country":"at","city":"Aschau im Burgenland","coordinates":{"lat":"47.4","long":"16.2"}},{"country":"at","city":"Aschbach","coordinates":{"lat":"48.066667","long":"14.75"}},{"country":"at","city":"Aschbach","coordinates":{"lat":"47.033333","long":"16"}},{"country":"at","city":"Aschbach bei Furstenfeld","coordinates":{"lat":"47.033333","long":"16"}},{"country":"at","city":"Aschbach Markt","coordinates":{"lat":"48.066667","long":"14.75"}},{"country":"at","city":"Aschberg","coordinates":{"lat":"48.15","long":"15.9"}},{"country":"at","city":"Aschberg","coordinates":{"lat":"47.35","long":"13.3"}},{"country":"at","city":"Aschelberg","coordinates":{"lat":"48.333333","long":"15.2"}},{"country":"at","city":"Aschen","coordinates":{"lat":"48.466667","long":"15.1"}},{"country":"at","city":"Aschenbach","coordinates":{"lat":"47.016667","long":"15.533333"}},{"country":"at","city":"Aschenberg","coordinates":{"lat":"48.483333","long":"13.633333"}},{"country":"at","city":"Aschendorf","coordinates":{"lat":"48.6","long":"16.15"}},{"country":"at","city":"Ascher","coordinates":{"lat":"47.6","long":"12.05"}},{"country":"at","city":"Aschet","coordinates":{"lat":"48.15","long":"14.016667"}},{"country":"at","city":"Asching","coordinates":{"lat":"48.3","long":"14.666667"}},{"country":"at","city":"Aschland","coordinates":{"lat":"47.316667","long":"10.883333"}},{"country":"at","city":"Aschlberg","coordinates":{"lat":"48.384444","long":"14.208333"}},{"country":"at","city":"Aschlen","coordinates":{"lat":"47.316667","long":"10.566667"}},{"country":"at","city":"Aselkam","coordinates":{"lat":"48.25","long":"13.066667"}},{"country":"at","city":"Asenham","coordinates":{"lat":"48.216667","long":"13.433333"}},{"country":"at","city":"Asing","coordinates":{"lat":"48.35","long":"13.733333"}},{"country":"at","city":"Aspach","coordinates":{"lat":"48.183333","long":"13.3"}},{"country":"at","city":"Aspach im Innkreis","coordinates":{"lat":"48.183333","long":"13.3"}},{"country":"at","city":"Aspang","coordinates":{"lat":"47.55","long":"16.083333"}},{"country":"at","city":"Aspang Markt","coordinates":{"lat":"47.55","long":"16.083333"}},{"country":"at","city":"Asparn an der Zaya","coordinates":{"lat":"48.583333","long":"16.5"}},{"country":"at","city":"Asparn","coordinates":{"lat":"48.316667","long":"16"}},{"country":"at","city":"Asperding","coordinates":{"lat":"47.983611","long":"13.068889"}},{"country":"at","city":"Asperhofen","coordinates":{"lat":"48.233333","long":"15.916667"}},{"country":"at","city":"Asperlkeller","coordinates":{"lat":"48.383333","long":"16.283333"}},{"country":"at","city":"Aspern an der Donau","coordinates":{"lat":"48.218056","long":"16.483056"}},{"country":"at","city":"Aspern","coordinates":{"lat":"48.218056","long":"16.483056"}},{"country":"at","city":"Aspersdorf","coordinates":{"lat":"48.583333","long":"16.1"}},{"country":"at","city":"Aspet","coordinates":{"lat":"48.283333","long":"13.7"}},{"country":"at","city":"Aspoltsberg","coordinates":{"lat":"48.15","long":"13.716667"}},{"country":"at","city":"Assach","coordinates":{"lat":"47.416667","long":"13.833333"}},{"country":"at","city":"Assachberg","coordinates":{"lat":"47.431667","long":"13.846111"}},{"country":"at","city":"Assing","coordinates":{"lat":"46.7075","long":"12.830278"}},{"country":"at","city":"Astach","coordinates":{"lat":"47.35","long":"12.416667"}},{"country":"at","city":"Astatt","coordinates":{"lat":"48.016667","long":"13.15"}},{"country":"at","city":"Astegg","coordinates":{"lat":"47.383333","long":"13.316667"}},{"country":"at","city":"Asten","coordinates":{"lat":"48.216667","long":"14.4"}},{"country":"at","city":"Asten","coordinates":{"lat":"47.416667","long":"11.833333"}},{"country":"at","city":"Atschenbach","coordinates":{"lat":"48.216667","long":"13.883333"}},{"country":"at","city":"Attendorf","coordinates":{"lat":"46.683333","long":"14.633333"}},{"country":"at","city":"Attendorf","coordinates":{"lat":"47.016667","long":"15.316667"}},{"country":"at","city":"Attendorfberg","coordinates":{"lat":"47.016667","long":"15.333333"}},{"country":"at","city":"Attenedt","coordinates":{"lat":"48.45","long":"14.7"}},{"country":"at","city":"Attenreith","coordinates":{"lat":"48.466667","long":"15.333333"}},{"country":"at","city":"Attersee","coordinates":{"lat":"47.916667","long":"13.55"}},{"country":"at","city":"Attnang","coordinates":{"lat":"48.016667","long":"13.716667"}},{"country":"at","city":"Attnang-Puchheim","coordinates":{"lat":"48.008333","long":"13.716667"}},{"country":"at","city":"Atzbach","coordinates":{"lat":"48.083333","long":"13.7"}},{"country":"at","city":"Atzeldorf","coordinates":{"lat":"47.883333","long":"14.15"}},{"country":"at","city":"Atzelsdorf","coordinates":{"lat":"48.283333","long":"15.966667"}},{"country":"at","city":"Atzenbrugg","coordinates":{"lat":"48.283333","long":"15.9"}},{"country":"at","city":"Atzensberg","coordinates":{"lat":"47","long":"13.633333"}},{"country":"at","city":"Atzersdorf","coordinates":{"lat":"48.45","long":"13.783333"}},{"country":"at","city":"Atzesberg","coordinates":{"lat":"48.466667","long":"13.966667"}},{"country":"at","city":"Atzgersdorf","coordinates":{"lat":"48.15","long":"16.3"}},{"country":"at","city":"Atzing","coordinates":{"lat":"48.05","long":"13.95"}},{"country":"at","city":"Atzing","coordinates":{"lat":"47.35","long":"12.8"}},{"country":"at","city":"Atzmannsdorf","coordinates":{"lat":"48.066667","long":"13.983333"}},{"country":"at","city":"Atzmannsdorf","coordinates":{"lat":"47.133333","long":"13.883333"}},{"country":"at","city":"Au am Kracking","coordinates":{"lat":"48.216667","long":"16.033333"}},{"country":"at","city":"Au am Leithaberge","coordinates":{"lat":"47.916667","long":"16.55"}},{"country":"at","city":"Au am Leithagebirge","coordinates":{"lat":"47.916667","long":"16.55"}},{"country":"at","city":"Au an der Traun","coordinates":{"lat":"48.183333","long":"14.1"}},{"country":"at","city":"Au","coordinates":{"lat":"47.916667","long":"16.55"}},{"country":"at","city":"Au","coordinates":{"lat":"47.6","long":"13.633333"}},{"country":"at","city":"Au","coordinates":{"lat":"47.283333","long":"13.216667"}},{"country":"at","city":"Au","coordinates":{"lat":"46.75","long":"15.766667"}},{"country":"at","city":"Au","coordinates":{"lat":"47.1","long":"10.95"}},{"country":"at","city":"Au","coordinates":{"lat":"47.316667","long":"9.6"}},{"country":"at","city":"Au bei Gaishorn","coordinates":{"lat":"47.483333","long":"14.516667"}},{"country":"at","city":"Auberg","coordinates":{"lat":"48.533333","long":"14.05"}},{"country":"at","city":"Auberg","coordinates":{"lat":"47.858056","long":"13.064722"}},{"country":"at","city":"Auberg","coordinates":{"lat":"46.8","long":"15.95"}},{"country":"at","city":"Audorf","coordinates":{"lat":"48.116667","long":"15.9"}},{"country":"at","city":"Audorf","coordinates":{"lat":"48.216667","long":"14.266667"}},{"country":"at","city":"Audorfl","coordinates":{"lat":"46.984444","long":"15.496389"}},{"country":"at","city":"Aue","coordinates":{"lat":"47.666667","long":"15.9"}},{"country":"at","city":"Aue","coordinates":{"lat":"47.216667","long":"15.6"}},{"country":"at","city":"Aue","coordinates":{"lat":"46.783333","long":"12.666667"}},{"country":"at","city":"Auedt","coordinates":{"lat":"48.416667","long":"14.316667"}},{"country":"at","city":"Auegg","coordinates":{"lat":"46.933333","long":"15.6"}},{"country":"at","city":"Auen","coordinates":{"lat":"46.616667","long":"14.083333"}},{"country":"at","city":"Auen","coordinates":{"lat":"47.048889","long":"14.1575"}},{"country":"at","city":"Auen","coordinates":{"lat":"47.166667","long":"11.733333"}},{"country":"at","city":"Auen","coordinates":{"lat":"47.512778","long":"9.974167"}},{"country":"at","city":"Auerbach","coordinates":{"lat":"48.05","long":"13.1"}},{"country":"at","city":"Auerbach","coordinates":{"lat":"47.45","long":"15.966667"}},{"country":"at","city":"Auerberg","coordinates":{"lat":"47.233333","long":"15.783333"}},{"country":"at","city":"Auerling","coordinates":{"lat":"47.15","long":"14.666667"}},{"country":"at","city":"Auern","coordinates":{"lat":"48.15","long":"15.7"}},{"country":"at","city":"Auern","coordinates":{"lat":"47.983333","long":"14.116667"}},{"country":"at","city":"Auersbach","coordinates":{"lat":"47.016667","long":"15.866667"}},{"country":"at","city":"Auersberg","coordinates":{"lat":"46.966667","long":"15.883333"}},{"country":"at","city":"Auersthal","coordinates":{"lat":"48.366667","long":"16.633333"}},{"country":"at","city":"Auf der Leiten","coordinates":{"lat":"47.566667","long":"14.25"}},{"country":"at","city":"Aufellenbogen","coordinates":{"lat":"47.25","long":"10.283333"}},{"country":"at","city":"Auffach","coordinates":{"lat":"47.4","long":"12.033333"}},{"country":"at","city":"Auffenberg","coordinates":{"lat":"47.166667","long":"15.933333"}},{"country":"at","city":"Aufham","coordinates":{"lat":"47.9","long":"13.516667"}},{"country":"at","city":"Aufhausen","coordinates":{"lat":"47.3","long":"12.766667"}},{"country":"at","city":"Aug","coordinates":{"lat":"48.516667","long":"13.633333"}},{"country":"at","city":"Aug","coordinates":{"lat":"46.85","long":"15.783333"}},{"country":"at","city":"Augberg","coordinates":{"lat":"46.85","long":"15.8"}},{"country":"at","city":"Auggenthal","coordinates":{"lat":"48.7","long":"16.066667"}},{"country":"at","city":"Augraben","coordinates":{"lat":"47.2","long":"15.4"}},{"country":"at","city":"Augsdorf","coordinates":{"lat":"46.6","long":"14.066667"}},{"country":"at","city":"Augustinerhutte","coordinates":{"lat":"48.016667","long":"16.15"}},{"country":"at","city":"Auhausel","coordinates":{"lat":"47.516667","long":"12.283333"}},{"country":"at","city":"Auhof","coordinates":{"lat":"48.233333","long":"14.666667"}},{"country":"at","city":"Auhof","coordinates":{"lat":"48.2","long":"16.233333"}},{"country":"at","city":"Auland","coordinates":{"lat":"47.316667","long":"11.2"}},{"country":"at","city":"Aumuhl","coordinates":{"lat":"47.483333","long":"15.416667"}},{"country":"at","city":"Aunig","coordinates":{"lat":"46.484722","long":"14.188056"}},{"country":"at","city":"Aurach am Hongar","coordinates":{"lat":"47.95","long":"13.666667"}},{"country":"at","city":"Aurach","coordinates":{"lat":"47.95","long":"13.666667"}},{"country":"at","city":"Aurach","coordinates":{"lat":"47.4","long":"12.433333"}},{"country":"at","city":"Aurachkirchen","coordinates":{"lat":"47.966667","long":"13.75"}},{"country":"at","city":"Auratsberg","coordinates":{"lat":"48.233333","long":"15.133333"}},{"country":"at","city":"Aurolzmunster","coordinates":{"lat":"48.25","long":"13.45"}},{"country":"at","city":"Auschule","coordinates":{"lat":"47.283333","long":"13.216667"}},{"country":"at","city":"Ausserachleiten","coordinates":{"lat":"48.526944","long":"13.4625"}},{"country":"at","city":"Ausseraigen","coordinates":{"lat":"47.583333","long":"16.066667"}},{"country":"at","city":"Ausserbraz","coordinates":{"lat":"47.15","long":"9.883333"}},{"country":"at","city":"Ausser dem Steinhubel","coordinates":{"lat":"48.571111","long":"16.522222"}},{"country":"at","city":"Aussere Einode","coordinates":{"lat":"46.6925","long":"13.824167"}},{"country":"at","city":"Ausseregg","coordinates":{"lat":"47.383333","long":"15.733333"}},{"country":"at","city":"Aussere Grossrotte","coordinates":{"lat":"46.916667","long":"12.35"}},{"country":"at","city":"Aussere Kainisch","coordinates":{"lat":"47.566667","long":"13.833333"}},{"country":"at","city":"Aussere Ragnitz","coordinates":{"lat":"47.083333","long":"15.533333"}},{"country":"at","city":"Ausserer Sonnberg","coordinates":{"lat":"47.516667","long":"14.45"}},{"country":"at","city":"Aussere Wimitz","coordinates":{"lat":"46.833333","long":"14.316667"}},{"country":"at","city":"Ausserfragant","coordinates":{"lat":"46.938056","long":"13.109722"}},{"country":"at","city":"Aussergampabing","coordinates":{"lat":"47","long":"9.95"}},{"country":"at","city":"Aussergosta","coordinates":{"lat":"46.983333","long":"10.016667"}},{"country":"at","city":"Aussergosten","coordinates":{"lat":"46.983333","long":"10.016667"}},{"country":"at","city":"Aussergufer","coordinates":{"lat":"47.1","long":"10.666667"}},{"country":"at","city":"Ausserhalbach","coordinates":{"lat":"48.05","long":"15.716667"}},{"country":"at","city":"Ausserhareth","coordinates":{"lat":"48.541667","long":"13.529167"}},{"country":"at","city":"Ausserhorgersteig","coordinates":{"lat":"48.033333","long":"13.466667"}},{"country":"at","city":"Ausserjebing","coordinates":{"lat":"48.266667","long":"13.633333"}},{"country":"at","city":"Ausserkasten","coordinates":{"lat":"48.166667","long":"15.766667"}},{"country":"at","city":"Ausserklinglberg","coordinates":{"lat":"47.333333","long":"13.183333"}},{"country":"at","city":"Aussermanzing","coordinates":{"lat":"48.15","long":"15.9"}},{"country":"at","city":"Ausserpuhret","coordinates":{"lat":"48.033333","long":"13.833333"}},{"country":"at","city":"Ausserraah","coordinates":{"lat":"48.016667","long":"13.866667"}},{"country":"at","city":"Ausserrettenbach","coordinates":{"lat":"47.166667","long":"11.75"}},{"country":"at","city":"Ausserroid","coordinates":{"lat":"47.983333","long":"13.3"}},{"country":"at","city":"Ausserschmirn","coordinates":{"lat":"47.083333","long":"11.533333"}},{"country":"at","city":"Ausserschwende","coordinates":{"lat":"47.367778","long":"10.188056"}},{"country":"at","city":"Aussersiggam","coordinates":{"lat":"47.016667","long":"9.966667"}},{"country":"at","city":"Ausserst","coordinates":{"lat":"46.716667","long":"12.55"}},{"country":"at","city":"Aussersteinberg","coordinates":{"lat":"47.52","long":"11.826667"}},{"country":"at","city":"Ausserteuchen","coordinates":{"lat":"46.75","long":"13.966667"}},{"country":"at","city":"Aussertreffling","coordinates":{"lat":"48.333333","long":"14.35"}},{"country":"at","city":"Ausservals","coordinates":{"lat":"47.05","long":"11.533333"}},{"country":"at","city":"Ausserviligraten","coordinates":{"lat":"46.7875","long":"12.431389"}},{"country":"at","city":"Ausservillgraten","coordinates":{"lat":"46.7875","long":"12.431389"}},{"country":"at","city":"Ausser Wald am Arlberg","coordinates":{"lat":"47.133333","long":"10.033333"}},{"country":"at","city":"Ausserwald","coordinates":{"lat":"47.316667","long":"11.55"}},{"country":"at","city":"Ausserwald","coordinates":{"lat":"47.133333","long":"10.033333"}},{"country":"at","city":"Ausserwall","coordinates":{"lat":"47.943333","long":"13.045556"}},{"country":"at","city":"Ausserweerberg","coordinates":{"lat":"47.3","long":"11.683333"}},{"country":"at","city":"Ausserweg","coordinates":{"lat":"47.133333","long":"11.483333"}},{"country":"at","city":"Ausserwimitz","coordinates":{"lat":"46.833333","long":"14.316667"}},{"country":"at","city":"Auss Halbach","coordinates":{"lat":"48.05","long":"15.716667"}},{"country":"at","city":"Auswarts","coordinates":{"lat":"46.883333","long":"15.766667"}},{"country":"at","city":"Autendorf","coordinates":{"lat":"48.866667","long":"15.6"}},{"country":"at","city":"Autengrub","coordinates":{"lat":"48.55","long":"13.983333"}},{"country":"at","city":"Authal","coordinates":{"lat":"47.05","long":"15.55"}},{"country":"at","city":"Axams","coordinates":{"lat":"47.233333","long":"11.3"}},{"country":"at","city":"Axbach","coordinates":{"lat":"46.946111","long":"15.766111"}},{"country":"at","city":"Axberg","coordinates":{"lat":"48.25","long":"14.116667"}},{"country":"at","city":"Axberg","coordinates":{"lat":"46.95","long":"15.75"}},{"country":"at","city":"Baad","coordinates":{"lat":"47.316667","long":"10.116667"}},{"country":"at","city":"Babenham","coordinates":{"lat":"48.033333","long":"13.15"}},{"country":"at","city":"Bacharnsdorf","coordinates":{"lat":"48.383333","long":"15.45"}},{"country":"at","city":"Bach","coordinates":{"lat":"47.266667","long":"10.416667"}},{"country":"at","city":"Bach","coordinates":{"lat":"48.033333","long":"14.616667"}},{"country":"at","city":"Bach","coordinates":{"lat":"48.116667","long":"13.4"}},{"country":"at","city":"Bach","coordinates":{"lat":"47.216667","long":"15.4"}},{"country":"at","city":"Bach","coordinates":{"lat":"47","long":"12.483333"}},{"country":"at","city":"Bach","coordinates":{"lat":"47.506667","long":"9.966667"}},{"country":"at","city":"Bachbergen","coordinates":{"lat":"46.916667","long":"15.933333"}},{"country":"at","city":"Bacher","coordinates":{"lat":"47.166667","long":"13.75"}},{"country":"at","city":"Bachholz","coordinates":{"lat":"46.65","long":"15.2"}},{"country":"at","city":"Bachl","coordinates":{"lat":"48.333333","long":"14.283333"}},{"country":"at","city":"Bachlberg","coordinates":{"lat":"48.333333","long":"14.283333"}},{"country":"at","city":"Bachleiten","coordinates":{"lat":"48.1","long":"13.25"}},{"country":"at","city":"Bachleithen","coordinates":{"lat":"48.1","long":"13.25"}},{"country":"at","city":"Bachlergraben","coordinates":{"lat":"47","long":"15.8"}},{"country":"at","city":"Bachmaning","coordinates":{"lat":"48.116667","long":"13.8"}},{"country":"at","city":"Bachmanning","coordinates":{"lat":"48.116667","long":"13.8"}},{"country":"at","city":"Bachones","coordinates":{"lat":"48.266667","long":"15.15"}},{"country":"at","city":"Bachsdorf","coordinates":{"lat":"46.833333","long":"15.55"}},{"country":"at","city":"Bachwinkl","coordinates":{"lat":"47.383333","long":"12.933333"}},{"country":"at","city":"Bach Zweinitz","coordinates":{"lat":"46.9","long":"14.216667"}},{"country":"at","city":"Backengraben","coordinates":{"lat":"47.95","long":"14.316667"}},{"country":"at","city":"Backenreute","coordinates":{"lat":"47.55","long":"9.766667"}},{"country":"at","city":"Backhausenkolonie","coordinates":{"lat":"48.766667","long":"15.016667"}},{"country":"at","city":"Bad Aussee","coordinates":{"lat":"47.6","long":"13.783333"}},{"country":"at","city":"Badbruck","coordinates":{"lat":"47.133333","long":"13.133333"}},{"country":"at","city":"Bad Deutsch-Altenburg","coordinates":{"lat":"48.133333","long":"16.9"}},{"country":"at","city":"Bad Eisenkappel","coordinates":{"lat":"46.486389","long":"14.596111"}},{"country":"at","city":"Baden","coordinates":{"lat":"48.016667","long":"16.233333"}},{"country":"at","city":"Badenbrunn","coordinates":{"lat":"46.9","long":"15.766667"}},{"country":"at","city":"Badendorf","coordinates":{"lat":"46.85","long":"15.6"}},{"country":"at","city":"Badendorfberg","coordinates":{"lat":"46.866667","long":"15.6"}},{"country":"at","city":"Baderau","coordinates":{"lat":"47.7","long":"14.2"}},{"country":"at","city":"Baderbauer","coordinates":{"lat":"46.923889","long":"14.619167"}},{"country":"at","city":"Badersdorf","coordinates":{"lat":"47.2","long":"16.366667"}},{"country":"at","city":"Badeteichsiedlung","coordinates":{"lat":"48.023611","long":"16.573056"}},{"country":"at","city":"Bad Fischau","coordinates":{"lat":"47.833333","long":"16.166667"}},{"country":"at","city":"Bad Fusch","coordinates":{"lat":"47.2","long":"12.85"}},{"country":"at","city":"Bad Gams","coordinates":{"lat":"46.871111","long":"15.224722"}},{"country":"at","city":"Badgastein","coordinates":{"lat":"47.116667","long":"13.133333"}},{"country":"at","city":"Bad Gleichenberg","coordinates":{"lat":"46.875556","long":"15.908611"}},{"country":"at","city":"Bad Goisern","coordinates":{"lat":"47.633333","long":"13.616667"}},{"country":"at","city":"Bad Hall","coordinates":{"lat":"48.033333","long":"14.2"}},{"country":"at","city":"Badhaus","coordinates":{"lat":"47.433333","long":"12.4"}},{"country":"at","city":"Bad Hofgastein","coordinates":{"lat":"47.166667","long":"13.1"}},{"country":"at","city":"Bad Ischl","coordinates":{"lat":"47.716667","long":"13.616667"}},{"country":"at","city":"Bad Jungbrunn","coordinates":{"lat":"46.811389","long":"12.816389"}},{"country":"at","city":"Bad Kleinkirchheim","coordinates":{"lat":"46.822778","long":"13.792222"}},{"country":"at","city":"Bad Kreckelmoos","coordinates":{"lat":"47.483333","long":"10.733333"}},{"country":"at","city":"Badl","coordinates":{"lat":"47.233333","long":"15.35"}},{"country":"at","city":"Bad Neidharting","coordinates":{"lat":"48.066667","long":"13.9"}},{"country":"at","city":"Bad Pirawarth","coordinates":{"lat":"48.451944","long":"16.598333"}},{"country":"at","city":"Bad Radkersburg","coordinates":{"lat":"46.688056","long":"15.988056"}},{"country":"at","city":"Bad Rothenbrunn","coordinates":{"lat":"47.216667","long":"11.216667"}},{"country":"at","city":"Bad Sankt Leonhard","coordinates":{"lat":"46.962778","long":"14.791667"}},{"country":"at","city":"Bad Sankt Leonhard im Lavanttal","coordinates":{"lat":"46.962778","long":"14.791667"}},{"country":"at","city":"Bad Sankt Leonhard im Lavanttale","coordinates":{"lat":"46.962778","long":"14.791667"}},{"country":"at","city":"Bad Schallerbach","coordinates":{"lat":"48.233333","long":"13.916667"}},{"country":"at","city":"Bad Schonau","coordinates":{"lat":"47.483333","long":"16.233333"}},{"country":"at","city":"Bad Tatzmannsdorf","coordinates":{"lat":"47.333333","long":"16.216667"}},{"country":"at","city":"Bad Vellach","coordinates":{"lat":"46.433333","long":"14.566667"}},{"country":"at","city":"Bad Volderwildbad","coordinates":{"lat":"47.25","long":"11.566667"}},{"country":"at","city":"Bad Voslau","coordinates":{"lat":"47.966667","long":"16.2"}},{"country":"at","city":"Bad Weissenbach","coordinates":{"lat":"46.866667","long":"14.766667"}},{"country":"at","city":"Bad Wimsbach-Neydharting","coordinates":{"lat":"48.066667","long":"13.9"}},{"country":"at","city":"Bahnhofsiedlung","coordinates":{"lat":"48.25","long":"16.816667"}},{"country":"at","city":"Baierdorf","coordinates":{"lat":"48.55","long":"15.816667"}},{"country":"at","city":"Baierdorf","coordinates":{"lat":"47.066667","long":"15.4"}},{"country":"at","city":"Baierdorf bei Anger","coordinates":{"lat":"47.283333","long":"15.7"}},{"country":"at","city":"Baierdorf Dorf","coordinates":{"lat":"47.283333","long":"15.7"}},{"country":"at","city":"Baierham","coordinates":{"lat":"47.916667","long":"13.133333"}},{"country":"at","city":"Bairau","coordinates":{"lat":"47.4","long":"13.316667"}},{"country":"at","city":"Bairberg","coordinates":{"lat":"46.95","long":"14.5"}},{"country":"at","city":"Bairisch Kolldorf","coordinates":{"lat":"46.866667","long":"15.933333"}},{"country":"at","city":"Baldau","coordinates":{"lat":"46.866667","long":"15.583333"}},{"country":"at","city":"Baldauberg","coordinates":{"lat":"46.866667","long":"15.583333"}},{"country":"at","city":"Baldersdorf","coordinates":{"lat":"46.783333","long":"13.55"}},{"country":"at","city":"Balding","coordinates":{"lat":"48.133333","long":"13.816667"}},{"country":"at","city":"Baldramsdorf","coordinates":{"lat":"46.801111","long":"13.453333"}},{"country":"at","city":"Balldorf","coordinates":{"lat":"48.116667","long":"14.966667"}},{"country":"at","city":"Balsdorf","coordinates":{"lat":"47.033333","long":"15.816667"}},{"country":"at","city":"Bambach","coordinates":{"lat":"47.946944","long":"13.07"}},{"country":"at","city":"Bam","coordinates":{"lat":"47.3","long":"12.533333"}},{"country":"at","city":"Bamm","coordinates":{"lat":"47.3","long":"12.533333"}},{"country":"at","city":"Bangs","coordinates":{"lat":"47.266667","long":"9.533056"}},{"country":"at","city":"Bannberg","coordinates":{"lat":"46.805","long":"12.688333"}},{"country":"at","city":"Bannteufen","coordinates":{"lat":"48.733333","long":"16.4"}},{"country":"at","city":"Barenbad","coordinates":{"lat":"47.116667","long":"11.266667"}},{"country":"at","city":"Barendorf","coordinates":{"lat":"46.665","long":"14.134444"}},{"country":"at","city":"Barental","coordinates":{"lat":"46.466667","long":"14.15"}},{"country":"at","city":"Barenthal","coordinates":{"lat":"46.466667","long":"14.15"}},{"country":"at","city":"Barenwirt","coordinates":{"lat":"47.216667","long":"12.816667"}},{"country":"at","city":"Barfeld","coordinates":{"lat":"47.483333","long":"12.5"}},{"country":"at","city":"Barmherzigkeitswinkel","coordinates":{"lat":"46.85","long":"15.633333"}},{"country":"at","city":"Barnbach","coordinates":{"lat":"46.983333","long":"16.05"}},{"country":"at","city":"Barnbad","coordinates":{"lat":"46.783333","long":"13.35"}},{"country":"at","city":"Barndorf","coordinates":{"lat":"46.665","long":"14.134444"}},{"country":"at","city":"Barndorf","coordinates":{"lat":"48.333333","long":"15.866667"}},{"country":"at","city":"Barndorf","coordinates":{"lat":"46.95","long":"15.566667"}},{"country":"at","city":"Barnegg","coordinates":{"lat":"47.35","long":"15.333333"}},{"country":"at","city":"Barnkopf","coordinates":{"lat":"48.4","long":"15"}},{"country":"at","city":"Barnsdorf","coordinates":{"lat":"46.95","long":"15.566667"}},{"country":"at","city":"Barnthal","coordinates":{"lat":"47.033333","long":"14.633333"}},{"country":"at","city":"Bartberg","coordinates":{"lat":"48.183333","long":"16.116667"}},{"country":"at","city":"Bartholomaberg","coordinates":{"lat":"47.083333","long":"9.9"}},{"country":"at","city":"Barwies","coordinates":{"lat":"47.3","long":"10.966667"}},{"country":"at","city":"Baschallern","coordinates":{"lat":"48.066667","long":"14.333333"}},{"country":"at","city":"Basling","coordinates":{"lat":"48.35","long":"13.566667"}},{"country":"at","city":"Bassing","coordinates":{"lat":"47.216667","long":"9.75"}},{"country":"at","city":"Batschuns","coordinates":{"lat":"47.283056","long":"9.65"}},{"country":"at","city":"Bauer","coordinates":{"lat":"46.926111","long":"13.932778"}},{"country":"at","city":"Bauerding","coordinates":{"lat":"48.25","long":"13.183333"}},{"country":"at","city":"Bauer in Reithalpe","coordinates":{"lat":"47.85","long":"14.433333"}},{"country":"at","city":"Bauern","coordinates":{"lat":"47.35","long":"9.666667"}},{"country":"at","city":"Bauern-Wasen","coordinates":{"lat":"47.35","long":"9.666667"}},{"country":"at","city":"Bauerstatt","coordinates":{"lat":"47.934167","long":"13.005"}},{"country":"at","city":"Bauland","coordinates":{"lat":"48.2","long":"15.783333"}},{"country":"at","city":"Baulanden","coordinates":{"lat":"48.15","long":"15.233333"}},{"country":"at","city":"Baum","coordinates":{"lat":"47.95","long":"13.533333"}},{"country":"at","city":"Baumbuch","coordinates":{"lat":"46.933333","long":"15.883333"}},{"country":"at","city":"Baumgarten am Tullnerfeld","coordinates":{"lat":"48.283333","long":"16.033333"}},{"country":"at","city":"Baumgarten am Wagram","coordinates":{"lat":"48.483333","long":"15.95"}},{"country":"at","city":"Baumgarten an der March","coordinates":{"lat":"48.3","long":"16.866667"}},{"country":"at","city":"Baumgarten","coordinates":{"lat":"47.733333","long":"16.5"}},{"country":"at","city":"Baumgarten","coordinates":{"lat":"48.133333","long":"15.55"}},{"country":"at","city":"Baumgarten","coordinates":{"lat":"48.216667","long":"14.65"}},{"country":"at","city":"Baumgarten","coordinates":{"lat":"47.901389","long":"13.0525"}},{"country":"at","city":"Baumgarten","coordinates":{"lat":"46.916667","long":"15.766667"}},{"country":"at","city":"Baumgarten","coordinates":{"lat":"47.516667","long":"12.05"}},{"country":"at","city":"Baumgarten bei Gnas","coordinates":{"lat":"46.916667","long":"15.766667"}},{"country":"at","city":"Baumgartenberg","coordinates":{"lat":"48.2","long":"14.733333"}},{"country":"at","city":"Baumgarten im Burgenland","coordinates":{"lat":"47.733333","long":"16.5"}},{"country":"at","city":"Baumgartsau","coordinates":{"lat":"48.458611","long":"14.086389"}},{"country":"at","city":"Baumkirchen","coordinates":{"lat":"47.3","long":"11.566667"}},{"country":"at","city":"Baumle","coordinates":{"lat":"47.533333","long":"9.733333"}},{"country":"at","city":"Baunzen","coordinates":{"lat":"48.166667","long":"16.183333"}},{"country":"at","city":"Baureith","coordinates":{"lat":"48.633333","long":"13.983333"}},{"country":"at","city":"Becs","coordinates":{"lat":"48.2","long":"16.366667"}},{"country":"at","city":"Begoriach","coordinates":{"lat":"47.133333","long":"13.683333"}},{"country":"at","city":"Behamberg","coordinates":{"lat":"48.016667","long":"14.483333"}},{"country":"at","city":"Behofen","coordinates":{"lat":"48.8","long":"15.083333"}},{"country":"at","city":"Beissendorf","coordinates":{"lat":"46.756111","long":"14.316944"}},{"country":"at","city":"Beistein","coordinates":{"lat":"47.583333","long":"16.283333"}},{"country":"at","city":"Beistein","coordinates":{"lat":"46.916667","long":"16.016667"}},{"country":"at","city":"Bela","coordinates":{"lat":"46.433333","long":"14.566667"}},{"country":"at","city":"Bellevue","coordinates":{"lat":"48.25","long":"16.316667"}},{"country":"at","city":"Benesirnitz","coordinates":{"lat":"46.8","long":"14.033333"}},{"country":"at","city":"Benking","coordinates":{"lat":"48.35","long":"15.366667"}},{"country":"at","city":"Berbersdorf","coordinates":{"lat":"48.416667","long":"14.433333"}},{"country":"at","city":"Berdetschlag","coordinates":{"lat":"48.683333","long":"13.883333"}},{"country":"at","city":"Berg an der Krems","coordinates":{"lat":"48.183333","long":"14.233333"}},{"country":"at","city":"Bergassing","coordinates":{"lat":"47.875833","long":"13.029722"}},{"country":"at","city":"Bergau","coordinates":{"lat":"48.516667","long":"16.166667"}},{"country":"at","city":"Bergbau","coordinates":{"lat":"47.444722","long":"14.464167"}},{"country":"at","city":"Berg bei Rohrbach","coordinates":{"lat":"48.566667","long":"13.983333"}},{"country":"at","city":"Berg","coordinates":{"lat":"46.572222","long":"14.006389"}},{"country":"at","city":"Berg","coordinates":{"lat":"48.1","long":"17.033333"}},{"country":"at","city":"Berg","coordinates":{"lat":"47.933333","long":"13.533333"}},{"country":"at","city":"Berg","coordinates":{"lat":"47.3","long":"13"}},{"country":"at","city":"Berg","coordinates":{"lat":"47.009167","long":"12.664722"}},{"country":"at","city":"Berg","coordinates":{"lat":"47.333056","long":"9.666667"}},{"country":"at","city":"Berg Dienten","coordinates":{"lat":"47.4","long":"13.016667"}},{"country":"at","city":"Bergegg","coordinates":{"lat":"46.85","long":"15.2"}},{"country":"at","city":"Bergen","coordinates":{"lat":"48.916667","long":"15.133333"}},{"country":"at","city":"Bergen","coordinates":{"lat":"46.708333","long":"12.643611"}},{"country":"at","city":"Bergern","coordinates":{"lat":"48.166667","long":"14.716667"}},{"country":"at","city":"Bergern","coordinates":{"lat":"48.1","long":"13.633333"}},{"country":"at","city":"Bergern","coordinates":{"lat":"47.383333","long":"12.8"}},{"country":"at","city":"Bergerndorf","coordinates":{"lat":"48.133333","long":"14.033333"}},{"country":"at","city":"Bergham","coordinates":{"lat":"47.983333","long":"13.9"}},{"country":"at","city":"Bergheim","coordinates":{"lat":"48.366667","long":"14.05"}},{"country":"at","city":"Bergheim","coordinates":{"lat":"47.833333","long":"13.033333"}},{"country":"at","city":"Berghof","coordinates":{"lat":"48.2","long":"14.95"}},{"country":"at","city":"Bergin","coordinates":{"lat":"48.530556","long":"13.592222"}},{"country":"at","city":"Berging","coordinates":{"lat":"48.116667","long":"15.133333"}},{"country":"at","city":"Bergl","coordinates":{"lat":"47.25","long":"13.116667"}},{"country":"at","city":"Bergl","coordinates":{"lat":"46.983333","long":"15.916667"}},{"country":"at","city":"Bergl","coordinates":{"lat":"46.933333","long":"12.466667"}},{"country":"at","city":"Bergwerk","coordinates":{"lat":"47.366667","long":"16.25"}},{"country":"at","city":"Bergwerksgraben","coordinates":{"lat":"46.850556","long":"14.375278"}},{"country":"at","city":"Bernaich","coordinates":{"lat":"46.797222","long":"14.422222"}},{"country":"at","city":"Bernau","coordinates":{"lat":"47.033333","long":"15.233333"}},{"country":"at","city":"Bernau","coordinates":{"lat":"47.416667","long":"12.033333"}},{"country":"at","city":"Berndorf bei Salzburg","coordinates":{"lat":"47.983333","long":"13.066667"}},{"country":"at","city":"Berndorf","coordinates":{"lat":"47.95","long":"16.1"}},{"country":"at","city":"Berndorf","coordinates":{"lat":"48.166667","long":"12.966667"}},{"country":"at","city":"Berndorf","coordinates":{"lat":"47.983333","long":"13.066667"}},{"country":"at","city":"Berndorf","coordinates":{"lat":"46.971944","long":"15.792222"}},{"country":"at","city":"Bernegg","coordinates":{"lat":"47.583333","long":"16.05"}},{"country":"at","city":"Bernhards","coordinates":{"lat":"48.416667","long":"15.316667"}},{"country":"at","city":"Bernhardschlag","coordinates":{"lat":"48.533333","long":"14.183333"}},{"country":"at","city":"Bernhardshof","coordinates":{"lat":"48.4","long":"15.233333"}},{"country":"at","city":"Bernhardsthal","coordinates":{"lat":"48.683333","long":"16.866667"}},{"country":"at","city":"Bernharts","coordinates":{"lat":"48.633333","long":"15.016667"}},{"country":"at","city":"Bernreith","coordinates":{"lat":"48.45","long":"15.183333"}},{"country":"at","city":"Bernreith","coordinates":{"lat":"46.883333","long":"15.9"}},{"country":"at","city":"Bernschlag","coordinates":{"lat":"48.683333","long":"15.266667"}},{"country":"at","city":"Bernstein","coordinates":{"lat":"47.4","long":"16.25"}},{"country":"at","city":"Bersbuch","coordinates":{"lat":"47.401667","long":"9.865556"}},{"country":"at","city":"Berwang","coordinates":{"lat":"47.4","long":"10.75"}},{"country":"at","city":"Beschling","coordinates":{"lat":"47.183056","long":"9.683056"}},{"country":"at","city":"Besenbuch","coordinates":{"lat":"48.283333","long":"15.483333"}},{"country":"at","city":"Besendorf","coordinates":{"lat":"46.883333","long":"15.583333"}},{"country":"at","city":"Bezau","coordinates":{"lat":"47.385","long":"9.901667"}},{"country":"at","city":"Biberbach","coordinates":{"lat":"48.016667","long":"14.7"}},{"country":"at","city":"Biberschlag","coordinates":{"lat":"48.433333","long":"15.166667"}},{"country":"at","city":"Biberwiehr","coordinates":{"lat":"47.383333","long":"10.9"}},{"country":"at","city":"Biberwier","coordinates":{"lat":"47.383333","long":"10.9"}},{"country":"at","city":"Biburg","coordinates":{"lat":"48.183333","long":"13.116667"}},{"country":"at","city":"Bicheln","coordinates":{"lat":"47.283333","long":"12.366667"}},{"country":"at","city":"Bichlach","coordinates":{"lat":"47.466667","long":"12.35"}},{"country":"at","city":"Bichlbach","coordinates":{"lat":"47.416667","long":"10.783333"}},{"country":"at","city":"Bichlbachle","coordinates":{"lat":"47.4","long":"10.783333"}},{"country":"at","city":"Bichl","coordinates":{"lat":"47.4","long":"13.233333"}},{"country":"at","city":"Bichl","coordinates":{"lat":"46.8","long":"12.633333"}},{"country":"at","city":"Bichlhaiden","coordinates":{"lat":"47.95","long":"12.933333"}},{"country":"at","city":"Bichling","coordinates":{"lat":"47.433333","long":"12.233333"}},{"country":"at","city":"Bichlwang","coordinates":{"lat":"47.516667","long":"12.1"}},{"country":"at","city":"Bichlwimm","coordinates":{"lat":"48.166667","long":"13.966667"}},{"country":"at","city":"Biedermann","coordinates":{"lat":"46.753889","long":"13.910278"}},{"country":"at","city":"Biedermannsdorf","coordinates":{"lat":"48.083333","long":"16.333333"}},{"country":"at","city":"Bierbaum am Auersbach","coordinates":{"lat":"46.833333","long":"15.783333"}},{"country":"at","city":"Bierbaum am Kleebigl","coordinates":{"lat":"48.383333","long":"15.933333"}},{"country":"at","city":"Bierbaum am Kleebuhel","coordinates":{"lat":"48.383333","long":"15.933333"}},{"country":"at","city":"Bierbaum an der Safen","coordinates":{"lat":"47.1","long":"16.066667"}},{"country":"at","city":"Bierbaum an der Saifen","coordinates":{"lat":"47.1","long":"16.066667"}},{"country":"at","city":"Bierbaumberg","coordinates":{"lat":"46.833333","long":"15.783333"}},{"country":"at","city":"Bierbaum","coordinates":{"lat":"48.383333","long":"15.933333"}},{"country":"at","city":"Bierbaum","coordinates":{"lat":"48","long":"13.5"}},{"country":"at","city":"Bierbaum","coordinates":{"lat":"46.833333","long":"15.783333"}},{"country":"at","city":"Bierbaumdorf","coordinates":{"lat":"48.066667","long":"14.683333"}},{"country":"at","city":"Bierbaumer","coordinates":{"lat":"46.731944","long":"14.756111"}},{"country":"at","city":"Bildein","coordinates":{"lat":"47.133333","long":"16.466667"}},{"country":"at","city":"Bildstein","coordinates":{"lat":"47.45","long":"9.766667"}},{"country":"at","city":"Bindermichl","coordinates":{"lat":"48.274722","long":"14.282222"}},{"country":"at","city":"Bings","coordinates":{"lat":"47.149722","long":"9.85"}},{"country":"at","city":"Birchach","coordinates":{"lat":"46.983333","long":"10.55"}},{"country":"at","city":"Birchagraben","coordinates":{"lat":"46.916667","long":"15.75"}},{"country":"at","city":"Birchbaum","coordinates":{"lat":"47.216667","long":"15.6"}},{"country":"at","city":"Bircheregg","coordinates":{"lat":"46.85","long":"15.85"}},{"country":"at","city":"Birgitz","coordinates":{"lat":"47.233333","long":"11.283333"}},{"country":"at","city":"Birkenfeld","coordinates":{"lat":"47.466667","long":"9.65"}},{"country":"at","city":"Birkengreith","coordinates":{"lat":"47.033333","long":"15.566667"}},{"country":"at","city":"Birkensiedlung","coordinates":{"lat":"48.558333","long":"16.390833"}},{"country":"at","city":"Birkfeld","coordinates":{"lat":"47.35","long":"15.683333"}},{"country":"at","city":"Birleiten","coordinates":{"lat":"47.15","long":"15.55"}},{"country":"at","city":"Birnbach","coordinates":{"lat":"46.966667","long":"16.05"}},{"country":"at","city":"Birnbaum bei Kottschach","coordinates":{"lat":"46.684722","long":"12.888611"}},{"country":"at","city":"Birnbaum","coordinates":{"lat":"46.684722","long":"12.888611"}},{"country":"at","city":"Birnberg","coordinates":{"lat":"47.416667","long":"13.716667"}},{"country":"at","city":"Bisamberg","coordinates":{"lat":"48.333333","long":"16.35"}},{"country":"at","city":"Bischelsroid","coordinates":{"lat":"47.916944","long":"13.069722"}},{"country":"at","city":"Bischofberg","coordinates":{"lat":"47.083333","long":"14.433333"}},{"country":"at","city":"Bischofegg","coordinates":{"lat":"46.7","long":"15.316667"}},{"country":"at","city":"Bischoffeld","coordinates":{"lat":"47.266667","long":"14.7"}},{"country":"at","city":"Bischofgraben","coordinates":{"lat":"47.05","long":"15.333333"}},{"country":"at","city":"Bischofhofen","coordinates":{"lat":"47.416667","long":"13.216667"}},{"country":"at","city":"Bischofsberg","coordinates":{"lat":"46.866667","long":"14.083333"}},{"country":"at","city":"Bischofshofen","coordinates":{"lat":"47.416667","long":"13.216667"}},{"country":"at","city":"Bischofshogen","coordinates":{"lat":"47.416667","long":"13.216667"}},{"country":"at","city":"Bischofstetten","coordinates":{"lat":"48.116667","long":"15.466667"}},{"country":"at","city":"Bistumer","coordinates":{"lat":"46.740278","long":"13.7"}},{"country":"at","city":"Bitschweil","coordinates":{"lat":"47.05","long":"9.9"}},{"country":"at","city":"Bitzlthal","coordinates":{"lat":"48.15","long":"12.916667"}},{"country":"at","city":"Bizau","coordinates":{"lat":"47.368889","long":"9.923333"}},{"country":"at","city":"Blaimau","coordinates":{"lat":"47.816667","long":"14.833333"}},{"country":"at","city":"Blaindorf","coordinates":{"lat":"47.166667","long":"15.85"}},{"country":"at","city":"Blamau","coordinates":{"lat":"47.816667","long":"14.833333"}},{"country":"at","city":"Blankenbach","coordinates":{"lat":"48.216667","long":"13"}},{"country":"at","city":"Blankohauser","coordinates":{"lat":"49.016667","long":"15.066667"}},{"country":"at","city":"Blasendorf","coordinates":{"lat":"46.641667","long":"14.361667"}},{"country":"at","city":"Blatterthal","coordinates":{"lat":"47.883333","long":"15.916667"}},{"country":"at","city":"Bleiberg","coordinates":{"lat":"46.6275","long":"13.688889"}},{"country":"at","city":"Bleiberger Graben","coordinates":{"lat":"46.488889","long":"14.214722"}},{"country":"at","city":"Bleiberg-Kreuth","coordinates":{"lat":"46.631944","long":"13.635833"}},{"country":"at","city":"Bleiberg-Notsch","coordinates":{"lat":"46.624444","long":"13.646944"}},{"country":"at","city":"Bleiberg ober Villach","coordinates":{"lat":"46.6275","long":"13.688889"}},{"country":"at","city":"Bleiberg ob Villach","coordinates":{"lat":"46.6275","long":"13.688889"}},{"country":"at","city":"Bleiburg","coordinates":{"lat":"46.59","long":"14.798889"}},{"country":"at","city":"Bleimau","coordinates":{"lat":"48.566667","long":"15.016667"}},{"country":"at","city":"Blelburg","coordinates":{"lat":"46.59","long":"14.798889"}},{"country":"at","city":"Blindberg","coordinates":{"lat":"48.116667","long":"14.65"}},{"country":"at","city":"Blindendorf","coordinates":{"lat":"47.7","long":"16.05"}},{"country":"at","city":"Blindendorf","coordinates":{"lat":"48.283333","long":"14.483333"}},{"country":"at","city":"Blindenmarkt","coordinates":{"lat":"48.133333","long":"14.983333"}},{"country":"at","city":"Blindenmarkt","coordinates":{"lat":"48.133333","long":"14.083333"}},{"country":"at","city":"Blindhof","coordinates":{"lat":"48.05","long":"14.466667"}},{"country":"at","city":"Blindorf","coordinates":{"lat":"48.166667","long":"15.666667"}},{"country":"at","city":"Blodenbach","coordinates":{"lat":"46.866667","long":"15.883333"}},{"country":"at","city":"Blons","coordinates":{"lat":"47.183333","long":"10.75"}},{"country":"at","city":"Blons","coordinates":{"lat":"47.216667","long":"9.816667"}},{"country":"at","city":"Bloslberg","coordinates":{"lat":"46.85","long":"15.683333"}},{"country":"at","city":"Bludenz","coordinates":{"lat":"47.149722","long":"9.816667"}},{"country":"at","city":"Bludesch","coordinates":{"lat":"47.2","long":"9.733056"}},{"country":"at","city":"Blumau an der Wild","coordinates":{"lat":"48.75","long":"15.45"}},{"country":"at","city":"Blumau","coordinates":{"lat":"47.916667","long":"16.3"}},{"country":"at","city":"Blumau","coordinates":{"lat":"47.916667","long":"14.1"}},{"country":"at","city":"Blumau","coordinates":{"lat":"46.833333","long":"15.2"}},{"country":"at","city":"Blumau in Steiermark","coordinates":{"lat":"47.116667","long":"16.05"}},{"country":"at","city":"Blumensiedlung","coordinates":{"lat":"48.033333","long":"16.316667"}},{"country":"at","city":"Blumenthal","coordinates":{"lat":"48.516667","long":"16.7"}},{"country":"at","city":"Bobojach","coordinates":{"lat":"47.016667","long":"12.4"}},{"country":"at","city":"Bockberg","coordinates":{"lat":"46.883333","long":"15.766667"}},{"country":"at","city":"Bockern","coordinates":{"lat":"47.45","long":"12.283333"}},{"country":"at","city":"Bockfliess","coordinates":{"lat":"48.36","long":"16.603889"}},{"country":"at","city":"Bockfluss","coordinates":{"lat":"48.36","long":"16.603889"}},{"country":"at","city":"Bocking","coordinates":{"lat":"47.516667","long":"12.216667"}},{"country":"at","city":"Bocksbuhel","coordinates":{"lat":"48.916667","long":"15.116667"}},{"country":"at","city":"Bocksdorf","coordinates":{"lat":"47.133333","long":"16.166667"}},{"country":"at","city":"Bockstein","coordinates":{"lat":"48.419444","long":"14.111389"}},{"country":"at","city":"Bockstein","coordinates":{"lat":"47.083333","long":"13.116667"}},{"country":"at","city":"Boden","coordinates":{"lat":"46.680278","long":"13.497778"}},{"country":"at","city":"Boden","coordinates":{"lat":"47.233333","long":"15.416667"}},{"country":"at","city":"Boden","coordinates":{"lat":"46.728889","long":"12.500833"}},{"country":"at","city":"Boden","coordinates":{"lat":"47.261111","long":"10.081111"}},{"country":"at","city":"Bodendorf","coordinates":{"lat":"48.05","long":"15.35"}},{"country":"at","city":"Bodendorf","coordinates":{"lat":"48.333333","long":"14.483333"}},{"country":"at","city":"Bodendorf","coordinates":{"lat":"47.11","long":"14.054722"}},{"country":"at","city":"Boden-Flecken","coordinates":{"lat":"47.233333","long":"9.9"}},{"country":"at","city":"Bodengraben","coordinates":{"lat":"46.966667","long":"15.666667"}},{"country":"at","city":"Bodensdorf","coordinates":{"lat":"46.691111","long":"13.971111"}},{"country":"at","city":"Bodensdorf","coordinates":{"lat":"48.116667","long":"15.116667"}},{"country":"at","city":"Bodental","coordinates":{"lat":"46.478611","long":"14.228611"}},{"country":"at","city":"Boder","coordinates":{"lat":"47.533333","long":"14.366667"}},{"country":"at","city":"Bodingbach","coordinates":{"lat":"47.9","long":"15"}},{"country":"at","city":"Bofa","coordinates":{"lat":"46.966667","long":"10.033333"}},{"country":"at","city":"Bofen","coordinates":{"lat":"46.966667","long":"10.033333"}},{"country":"at","city":"Bogendorf","coordinates":{"lat":"48.416667","long":"14.1"}},{"country":"at","city":"Bogenfeld","coordinates":{"lat":"46.583333","long":"13.933333"}},{"country":"at","city":"Bogenhofen","coordinates":{"lat":"48.266667","long":"13.1"}},{"country":"at","city":"Bogenneusiedl","coordinates":{"lat":"48.466667","long":"16.516667"}},{"country":"at","city":"Boheimkirchen","coordinates":{"lat":"48.2","long":"15.766667"}},{"country":"at","city":"Bohlerwenk","coordinates":{"lat":"47.983333","long":"14.75"}},{"country":"at","city":"Bohmdorf","coordinates":{"lat":"48.55","long":"14.35"}},{"country":"at","city":"Bohmhof","coordinates":{"lat":"48.566667","long":"15.166667"}},{"country":"at","city":"Bohmhofe","coordinates":{"lat":"48.566667","long":"15.166667"}},{"country":"at","city":"Bohmsdorf","coordinates":{"lat":"48.6","long":"14.95"}},{"country":"at","city":"Bohmzeil","coordinates":{"lat":"48.766667","long":"14.983333"}},{"country":"at","city":"Bohnerberg","coordinates":{"lat":"46.983333","long":"16.016667"}},{"country":"at","city":"Bollersberg","coordinates":{"lat":"48.509167","long":"13.651667"}},{"country":"at","city":"Bonacker","coordinates":{"lat":"47.266667","long":"9.733056"}},{"country":"at","city":"Bonisdorf","coordinates":{"lat":"46.844444","long":"16.049722"}},{"country":"at","city":"Bosenbach","coordinates":{"lat":"46.816667","long":"15.216667"}},{"country":"at","city":"Bosendorfl","coordinates":{"lat":"48.1","long":"15.6"}},{"country":"at","city":"Bosendurnbach","coordinates":{"lat":"48.5","long":"15.766667"}},{"country":"at","city":"Bosenneunzehn","coordinates":{"lat":"48.683333","long":"15.15"}},{"country":"at","city":"Bosenneunzen","coordinates":{"lat":"48.683333","long":"15.15"}},{"country":"at","city":"Bosenort","coordinates":{"lat":"46.719444","long":"14.587778"}},{"country":"at","city":"Boven","coordinates":{"lat":"46.966667","long":"10.033333"}},{"country":"at","city":"Bradern","coordinates":{"lat":"48.05","long":"14.166667"}},{"country":"at","city":"Bradirn","coordinates":{"lat":"48.066667","long":"13.183333"}},{"country":"at","city":"Bramberg am Wildkogel","coordinates":{"lat":"47.266667","long":"12.35"}},{"country":"at","city":"Bramberg","coordinates":{"lat":"48.033333","long":"14.15"}},{"country":"at","city":"Bramberg","coordinates":{"lat":"47.266667","long":"12.35"}},{"country":"at","city":"Brandberg","coordinates":{"lat":"46.866667","long":"15.6"}},{"country":"at","city":"Brandberg","coordinates":{"lat":"47.166667","long":"11.9"}},{"country":"at","city":"Brand","coordinates":{"lat":"48.1","long":"15.866667"}},{"country":"at","city":"Brand","coordinates":{"lat":"46.933333","long":"15.666667"}},{"country":"at","city":"Brand","coordinates":{"lat":"47.016667","long":"11"}},{"country":"at","city":"Brand","coordinates":{"lat":"47.100833","long":"9.737222"}},{"country":"at","city":"Brandeben","coordinates":{"lat":"47.916667","long":"15.283333"}},{"country":"at","city":"Brandenberg","coordinates":{"lat":"47.716667","long":"13.633333"}},{"country":"at","city":"Brandenberg","coordinates":{"lat":"47.483333","long":"11.883333"}},{"country":"at","city":"Brandgegend","coordinates":{"lat":"47.916667","long":"15.25"}},{"country":"at","city":"Brandhauser","coordinates":{"lat":"48.833333","long":"15.15"}},{"country":"at","city":"Brandhof","coordinates":{"lat":"47.1","long":"15.016667"}},{"country":"at","city":"Brandlegg","coordinates":{"lat":"46.916667","long":"15.75"}},{"country":"at","city":"Brandnerberg","coordinates":{"lat":"46.833333","long":"15.783333"}},{"country":"at","city":"Brandstatt","coordinates":{"lat":"46.983333","long":"13.466667"}},{"country":"at","city":"Brandstatt","coordinates":{"lat":"48.016667","long":"15.15"}},{"country":"at","city":"Brandstatt","coordinates":{"lat":"48.333333","long":"14.016667"}},{"country":"at","city":"Brandstatt","coordinates":{"lat":"47.94","long":"13.022222"}},{"country":"at","city":"Brandstatt","coordinates":{"lat":"46.833333","long":"15.883333"}},{"country":"at","city":"Brandstatt","coordinates":{"lat":"47.516667","long":"10.683333"}},{"country":"at","city":"Brandstatten","coordinates":{"lat":"48.283333","long":"13.55"}},{"country":"at","city":"Brandstatter","coordinates":{"lat":"46.925833","long":"13.871389"}},{"country":"at","city":"Brandstattgraben","coordinates":{"lat":"47.45","long":"15.516667"}},{"country":"at","city":"Brandstetten","coordinates":{"lat":"48.116667","long":"15.2"}},{"country":"at","city":"Brantmann","coordinates":{"lat":"47.548333","long":"9.756389"}},{"country":"at","city":"Brauchsdorf","coordinates":{"lat":"48.433333","long":"13.533333"}},{"country":"at","city":"Brauerau","coordinates":{"lat":"48.683333","long":"13.85"}},{"country":"at","city":"Brauhausl","coordinates":{"lat":"48.783333","long":"15.033333"}},{"country":"at","city":"Brauhof","coordinates":{"lat":"47.616667","long":"13.816667"}},{"country":"at","city":"Braunau am Inn","coordinates":{"lat":"48.266667","long":"13.033333"}},{"country":"at","city":"Braunau","coordinates":{"lat":"48.266667","long":"13.033333"}},{"country":"at","city":"Braunberg","coordinates":{"lat":"47.916667","long":"14.083333"}},{"country":"at","city":"Braunegg","coordinates":{"lat":"48.35","long":"15.216667"}},{"country":"at","city":"Braunsberg","coordinates":{"lat":"46.833333","long":"14.133333"}},{"country":"at","city":"Braunsberg","coordinates":{"lat":"47.916667","long":"14.083333"}},{"country":"at","city":"Braunsdorf","coordinates":{"lat":"48.633333","long":"15.933333"}},{"country":"at","city":"Brawinkl","coordinates":{"lat":"48.333333","long":"14.666667"}},{"country":"at","city":"Brederis","coordinates":{"lat":"47.283056","long":"9.616667"}},{"country":"at","city":"Bregenz","coordinates":{"lat":"47.5","long":"9.766667"}},{"country":"at","city":"Breiningsdorf","coordinates":{"lat":"48.3","long":"13.55"}},{"country":"at","city":"Breitberg","coordinates":{"lat":"46.933333","long":"15.65"}},{"country":"at","city":"Breit","coordinates":{"lat":"47.854167","long":"13.045278"}},{"country":"at","city":"Breitbrunn","coordinates":{"lat":"48.25","long":"14.166667"}},{"country":"at","city":"Breitegg","coordinates":{"lat":"47.183333","long":"15.633333"}},{"country":"at","city":"Breitenaich","coordinates":{"lat":"48.25","long":"13.966667"}},{"country":"at","city":"Breitenau","coordinates":{"lat":"47.733333","long":"16.133333"}},{"country":"at","city":"Breitenau","coordinates":{"lat":"47.866667","long":"14.716667"}},{"country":"at","city":"Breitenau","coordinates":{"lat":"47.216667","long":"15.483333"}},{"country":"at","city":"Breitenbach am Inn","coordinates":{"lat":"47.483333","long":"11.966667"}},{"country":"at","city":"Breitenbach","coordinates":{"lat":"46.95","long":"15.3"}},{"country":"at","city":"Breitenbach","coordinates":{"lat":"47.483333","long":"11.966667"}},{"country":"at","city":"Breitenbach in Weststeiermark","coordinates":{"lat":"46.95","long":"15.3"}},{"country":"at","city":"Breitenberg","coordinates":{"lat":"48.1","long":"13.883333"}},{"country":"at","city":"Breitenbergham","coordinates":{"lat":"47.4","long":"12.833333"}},{"country":"at","city":"Breitenbrunn","coordinates":{"lat":"47.933333","long":"16.716667"}},{"country":"at","city":"Breitenbrunn","coordinates":{"lat":"47.483333","long":"15.85"}},{"country":"at","city":"Breitenbuch","coordinates":{"lat":"47.683333","long":"16.216667"}},{"country":"at","city":"Breitenbuch","coordinates":{"lat":"46.966667","long":"15.666667"}},{"country":"at","city":"Breiteneich","coordinates":{"lat":"48.666667","long":"15.683333"}},{"country":"at","city":"Breitenfeld am Tannenriegel","coordinates":{"lat":"46.85","long":"15.633333"}},{"country":"at","city":"Breitenfeld an der Rittschein","coordinates":{"lat":"47.033333","long":"15.95"}},{"country":"at","city":"Breitenfeld","coordinates":{"lat":"48.75","long":"15.383333"}},{"country":"at","city":"Breitenfeld","coordinates":{"lat":"46.85","long":"15.633333"}},{"country":"at","city":"Breitenfurt bei Wien","coordinates":{"lat":"48.133333","long":"16.15"}},{"country":"at","city":"Breitenfurt","coordinates":{"lat":"48.133333","long":"16.15"}},{"country":"at","city":"Breitenfurth bei Wien","coordinates":{"lat":"48.133333","long":"16.15"}},{"country":"at","city":"Breitenfurth","coordinates":{"lat":"48.133333","long":"16.15"}},{"country":"at","city":"Breitenfurt-Ost","coordinates":{"lat":"48.133333","long":"16.183333"}},{"country":"at","city":"Breitenhilm","coordinates":{"lat":"47","long":"15.466667"}},{"country":"at","city":"Breitenlee","coordinates":{"lat":"48.25","long":"16.5"}},{"country":"at","city":"Breitenried","coordinates":{"lat":"48.283333","long":"13.6"}},{"country":"at","city":"Breitenschutzing","coordinates":{"lat":"48.083333","long":"13.783333"}},{"country":"at","city":"Breitensee","coordinates":{"lat":"48.233333","long":"16.866667"}},{"country":"at","city":"Breitensohl","coordinates":{"lat":"47.75","long":"15.933333"}},{"country":"at","city":"Breitenstein am Semmering","coordinates":{"lat":"47.666667","long":"15.816667"}},{"country":"at","city":"Breitenstein","coordinates":{"lat":"46.8","long":"14.383333"}},{"country":"at","city":"Breitenstein","coordinates":{"lat":"47.666667","long":"15.816667"}},{"country":"at","city":"Breitenwaida","coordinates":{"lat":"48.5","long":"16.066667"}},{"country":"at","city":"Breitenwang","coordinates":{"lat":"47.483333","long":"10.733333"}},{"country":"at","city":"Breitstetten","coordinates":{"lat":"48.2","long":"16.7"}},{"country":"at","city":"Breitteich","coordinates":{"lat":"48.575556","long":"13.513611"}},{"country":"at","city":"Brenitz","coordinates":{"lat":"46.861944","long":"14.145556"}},{"country":"at","city":"Brennbichl","coordinates":{"lat":"47.216667","long":"10.75"}},{"country":"at","city":"Brenndorf","coordinates":{"lat":"46.632222","long":"14.625"}},{"country":"at","city":"Brenner","coordinates":{"lat":"46.920833","long":"12.600278"}},{"country":"at","city":"Brenner","coordinates":{"lat":"47.524444","long":"9.92"}},{"country":"at","city":"Brennitz","coordinates":{"lat":"46.866667","long":"14.133333"}},{"country":"at","city":"Brennleiten","coordinates":{"lat":"48.35","long":"16.4"}},{"country":"at","city":"Brenntenmaiss","coordinates":{"lat":"48.183333","long":"16.083333"}},{"country":"at","city":"Brentenmais","coordinates":{"lat":"48.183333","long":"16.083333"}},{"country":"at","city":"Brenterberg","coordinates":{"lat":"46.866667","long":"16"}},{"country":"at","city":"Bretstein","coordinates":{"lat":"47.3325","long":"14.419722"}},{"country":"at","city":"Bretsteiner Gassen","coordinates":{"lat":"47.343056","long":"14.399722"}},{"country":"at","city":"Bretsteingassen","coordinates":{"lat":"47.333333","long":"14.416667"}},{"country":"at","city":"Bretstein-Gassen","coordinates":{"lat":"47.343056","long":"14.399722"}},{"country":"at","city":"Bretsteingraben","coordinates":{"lat":"47.35","long":"14.366667"}},{"country":"at","city":"Bretstein vor der Kirche","coordinates":{"lat":"47.316667","long":"14.433333"}},{"country":"at","city":"Brettl","coordinates":{"lat":"47.95","long":"15.05"}},{"country":"at","city":"Brettstein","coordinates":{"lat":"47.333333","long":"14.416667"}},{"country":"at","city":"Brettwies","coordinates":{"lat":"48.2","long":"16.1"}},{"country":"at","city":"Briefelsdorf","coordinates":{"lat":"46.7","long":"14.15"}},{"country":"at","city":"Brillhauser","coordinates":{"lat":"48.9","long":"15.283333"}},{"country":"at","city":"Brittenberg","coordinates":{"lat":"47.424722","long":"9.844444"}},{"country":"at","city":"Brittenhutten","coordinates":{"lat":"47.5","long":"9.783056"}},{"country":"at","city":"Brixen","coordinates":{"lat":"47.45","long":"12.25"}},{"country":"at","city":"Brixen im Tal","coordinates":{"lat":"47.45","long":"12.25"}},{"country":"at","city":"Brixen im Tale","coordinates":{"lat":"47.45","long":"12.25"}},{"country":"at","city":"Brixen im Thale","coordinates":{"lat":"47.45","long":"12.25"}},{"country":"at","city":"Brixlegg","coordinates":{"lat":"47.416667","long":"11.883333"}},