[{"country":"py","city":"24 De Julio","coordinates":{"lat":"-25.083333","long":"-57.3"}},{"country":"py","city":"28 Km Paranambu","coordinates":{"lat":"-25.816667","long":"-54.833333"}},{"country":"py","city":"Abaí","coordinates":{"lat":"-26.033333","long":"-55.933333"}},{"country":"py","city":"Abá-Ñe-é","coordinates":{"lat":"-21.933333","long":"-61.933333"}},{"country":"py","city":"Abay","coordinates":{"lat":"-26.033333","long":"-55.933333"}},{"country":"py","city":"Acahaí","coordinates":{"lat":"-25.916667","long":"-57.15"}},{"country":"py","city":"Acahay","coordinates":{"lat":"-25.916667","long":"-57.15"}},{"country":"py","city":"Acá Verá","coordinates":{"lat":"-23.533333","long":"-60.933333"}},{"country":"py","city":"Achaval","coordinates":{"lat":"-22.833333","long":"-61.766667"}},{"country":"py","city":"Administración Lunardelli","coordinates":{"lat":"-23.233333","long":"-55.85"}},{"country":"py","city":"Agriex","coordinates":{"lat":"-26.116667","long":"-54.683333"}},{"country":"py","city":"Agua Dulce","coordinates":{"lat":"-20.016667","long":"-59.766667"}},{"country":"py","city":"Aguaity","coordinates":{"lat":"-25.333333","long":"-57.033333"}},{"country":"py","city":"Aguará Charte","coordinates":{"lat":"-23.833333","long":"-55.483333"}},{"country":"py","city":"Aguara-i","coordinates":{"lat":"-19.85","long":"-58.516667"}},{"country":"py","city":"Aguaray","coordinates":{"lat":"-19.85","long":"-58.516667"}},{"country":"py","city":"Aguay","coordinates":{"lat":"-19.45","long":"-61.216667"}},{"country":"py","city":"Agüerito","coordinates":{"lat":"-22.916667","long":"-56.666667"}},{"country":"py","city":"Agüero","coordinates":{"lat":"-23.55","long":"-61.216667"}},{"country":"py","city":"Aguilera","coordinates":{"lat":"-23.25","long":"-60.35"}},{"country":"py","city":"Aguirre","coordinates":{"lat":"-26.833333","long":"-57.55"}},{"country":"py","city":"Aguirre","coordinates":{"lat":"-23.116667","long":"-60.066667"}},{"country":"py","city":"Ajos","coordinates":{"lat":"-25.416667","long":"-56.45"}},{"country":"py","city":"Alberdi","coordinates":{"lat":"-26.166667","long":"-58.15"}},{"country":"py","city":"Alberto","coordinates":{"lat":"-21.966667","long":"-57.933333"}},{"country":"py","city":"Alborada","coordinates":{"lat":"-22.716667","long":"-61.366667"}},{"country":"py","city":"Alborada Dos","coordinates":{"lat":"-27.3","long":"-55.716667"}},{"country":"py","city":"Alborada Uno","coordinates":{"lat":"-27.266667","long":"-55.7"}},{"country":"py","city":"Aldea Loma Plata","coordinates":{"lat":"-22.383333","long":"-59.85"}},{"country":"py","city":"Alianza","coordinates":{"lat":"-23.633333","long":"-61.133333"}},{"country":"py","city":"Altos","coordinates":{"lat":"-25.233333","long":"-57.25"}},{"country":"py","city":"Alto Verá","coordinates":{"lat":"-26.583333","long":"-55.633333"}},{"country":"py","city":"Aluralde","coordinates":{"lat":"-22","long":"-62.233333"}},{"country":"py","city":"Alurralde","coordinates":{"lat":"-22","long":"-62.233333"}},{"country":"py","city":"Alvar Núñez Cabeza de Vaca","coordinates":{"lat":"-24.45","long":"-54.35"}},{"country":"py","city":"Amambay","coordinates":{"lat":"-25.933333","long":"-55.783333"}},{"country":"py","city":"Amarillo","coordinates":{"lat":"-22.966667","long":"-61.95"}},{"country":"py","city":"Amarillo Pericote","coordinates":{"lat":"-22.966667","long":"-61.95"}},{"country":"py","city":"Anahi","coordinates":{"lat":"-24.233333","long":"-54.85"}},{"country":"py","city":"Andres Aquirye","coordinates":{"lat":"-25.25","long":"-56.933333"}},{"country":"py","city":"Angelito","coordinates":{"lat":"-25.8","long":"-55.466667"}},{"country":"py","city":"Angelito","coordinates":{"lat":"-23.216667","long":"-56.35"}},{"country":"py","city":"Angostura","coordinates":{"lat":"-25.533333","long":"-57.616667"}},{"country":"py","city":"Anguá","coordinates":{"lat":"-26.883333","long":"-57.4"}},{"country":"py","city":"Antequera","coordinates":{"lat":"-24.133333","long":"-57.083333"}},{"country":"py","city":"Apipé","coordinates":{"lat":"-27.1","long":"-57.816667"}},{"country":"py","city":"Apya","coordinates":{"lat":"-24.716667","long":"-56.133333"}},{"country":"py","city":"Arce Rojas","coordinates":{"lat":"-23.433333","long":"-59.716667"}},{"country":"py","city":"Areco","coordinates":{"lat":"-25.7","long":"-56.666667"}},{"country":"py","city":"Arecutacuá","coordinates":{"lat":"-25.1","long":"-57.383333"}},{"country":"py","city":"Arecutacué","coordinates":{"lat":"-25.1","long":"-57.383333"}},{"country":"py","city":"Areguá","coordinates":{"lat":"-25.3","long":"-57.416667"}},{"country":"py","city":"Arquitecto Tomás Romero Pereira","coordinates":{"lat":"-26.483333","long":"-55.25"}},{"country":"py","city":"Arrocera Softo","coordinates":{"lat":"-26.733333","long":"-56.9"}},{"country":"py","city":"Arroyito","coordinates":{"lat":"-23.266667","long":"-56.45"}},{"country":"py","city":"Arroyito","coordinates":{"lat":"-25.733333","long":"-56.616667"}},{"country":"py","city":"Arroyo Costa","coordinates":{"lat":"-26.183333","long":"-56.85"}},{"country":"py","city":"Arroyo Horco","coordinates":{"lat":"-27.083333","long":"-58.366667"}},{"country":"py","city":"Arroyos y Esteros","coordinates":{"lat":"-25.066667","long":"-57.1"}},{"country":"py","city":"Asseradero","coordinates":{"lat":"-27.216667","long":"-56.166667"}},{"country":"py","city":"Assetadero","coordinates":{"lat":"-27.366667","long":"-55.85"}},{"country":"py","city":"Asunción","coordinates":{"lat":"-25.266667","long":"-57.666667"}},{"country":"py","city":"Atajado","coordinates":{"lat":"-22.1","long":"-62.366667"}},{"country":"py","city":"Atyrá","coordinates":{"lat":"-25.25","long":"-57.166667"}},{"country":"py","city":"Audivert","coordinates":{"lat":"-20","long":"-58.35"}},{"country":"py","city":"Aurora","coordinates":{"lat":"-23.433333","long":"-61.333333"}},{"country":"py","city":"Ayolas","coordinates":{"lat":"-27.4","long":"-56.9"}},{"country":"py","city":"Bahía Negra","coordinates":{"lat":"-20.25","long":"-58.2"}},{"country":"py","city":"Ballivián","coordinates":{"lat":"-22.683333","long":"-62.166667"}},{"country":"py","city":"Banco San Miguel","coordinates":{"lat":"-25.266667","long":"-57.616667"}},{"country":"py","city":"Bandera Blanca","coordinates":{"lat":"-23.116667","long":"-61.866667"}},{"country":"py","city":"Barranquerita","coordinates":{"lat":"-24.25","long":"-57.133333"}},{"country":"py","city":"Barrero Grande","coordinates":{"lat":"-25.4","long":"-56.966667"}},{"country":"py","city":"Barrero Pyta","coordinates":{"lat":"-25.666667","long":"-56.683333"}},{"country":"py","city":"Barrio Asunción","coordinates":{"lat":"-25.533333","long":"-57.083333"}},{"country":"py","city":"Barrio Caacupé Mí","coordinates":{"lat":"-25.216667","long":"-57.55"}},{"country":"py","city":"Barrio del Carmen","coordinates":{"lat":"-25.333333","long":"-56.7"}},{"country":"py","city":"Barrio Itá-cuá","coordinates":{"lat":"-25","long":"-57.166667"}},{"country":"py","city":"Barrio San Blas","coordinates":{"lat":"-25.216667","long":"-57.566667"}},{"country":"py","city":"Barrio San Isidro","coordinates":{"lat":"-25.366667","long":"-57.5"}},{"country":"py","city":"Barrio San Miguel","coordinates":{"lat":"-25.433333","long":"-56.066667"}},{"country":"py","city":"Barrio Santa Maria","coordinates":{"lat":"-25.366667","long":"-55.833333"}},{"country":"py","city":"Batallón Ingeniería No. 4 Aquidabán","coordinates":{"lat":"-21.754167","long":"-60.964444"}},{"country":"py","city":"Batallón Ingeniería Número Cuatro Aquidabán","coordinates":{"lat":"-21.754167","long":"-60.964444"}},{"country":"py","city":"Batallón Ingeniero Número Cinco P.J. Caballero","coordinates":{"lat":"-24.65","long":"-58.716667"}},{"country":"py","city":"Batallón Ingeniero Número Cuatro Aquidabán","coordinates":{"lat":"-21.754167","long":"-60.964444"}},{"country":"py","city":"Batallón Número Uno Palmar de las Islas","coordinates":{"lat":"-19.6","long":"-60.566667"}},{"country":"py","city":"Beatriz","coordinates":{"lat":"-21.816667","long":"-62.316667"}},{"country":"py","city":"Becalde-cué","coordinates":{"lat":"-23.05","long":"-57.45"}},{"country":"py","city":"Bedoya-cue","coordinates":{"lat":"-22.683333","long":"-56.683333"}},{"country":"py","city":"Belén","coordinates":{"lat":"-23.466111","long":"-57.261944"}},{"country":"py","city":"Belén Tuyá","coordinates":{"lat":"-26.416667","long":"-56.583333"}},{"country":"py","city":"Bella Vista","coordinates":{"lat":"-22.133333","long":"-56.516667"}},{"country":"py","city":"Bella Vista","coordinates":{"lat":"-27.05","long":"-55.55"}},{"country":"py","city":"Bella Vista","coordinates":{"lat":"-22.783333","long":"-62.116667"}},{"country":"py","city":"Bella Vista de Alto Paraná","coordinates":{"lat":"-27.05","long":"-55.55"}},{"country":"py","city":"Benjamín Aceval","coordinates":{"lat":"-24.966667","long":"-57.566667"}},{"country":"py","city":"Bertoni","coordinates":{"lat":"-25.65","long":"-54.583333"}},{"country":"py","city":"Blanco Nu","coordinates":{"lat":"-27.233333","long":"-57.766667"}},{"country":"py","city":"Blas Garay","coordinates":{"lat":"-25.516667","long":"-56.216667"}},{"country":"py","city":"Bobí","coordinates":{"lat":"-26.933333","long":"-56.216667"}},{"country":"py","city":"Bobi-Cangó","coordinates":{"lat":"-26.933333","long":"-56.216667"}},{"country":"py","city":"Boquerón","coordinates":{"lat":"-26.25","long":"-56.233333"}},{"country":"py","city":"Boquerón","coordinates":{"lat":"-26.966667","long":"-58.366667"}},{"country":"py","city":"Boquerón","coordinates":{"lat":"-23.966667","long":"-57.283333"}},{"country":"py","city":"Borja","coordinates":{"lat":"-25.95","long":"-56.483333"}},{"country":"py","city":"Buena Vista","coordinates":{"lat":"-26.183333","long":"-56.083333"}},{"country":"py","city":"Buena Vista","coordinates":{"lat":"-24.033333","long":"-57.133333"}},{"country":"py","city":"Buena Vista","coordinates":{"lat":"-22.3","long":"-62.583333"}},{"country":"py","city":"Caacupé","coordinates":{"lat":"-25.383333","long":"-57.15"}},{"country":"py","city":"Caacupé","coordinates":{"lat":"-19.7","long":"-58.65"}},{"country":"py","city":"Caaguazú","coordinates":{"lat":"-25.45","long":"-56.016667"}},{"country":"py","city":"Caaguazú","coordinates":{"lat":"-27.1","long":"-56.783333"}},{"country":"py","city":"Caaguy cupé","coordinates":{"lat":"-26.116667","long":"-56.883333"}},{"country":"py","city":"Caagüy Porá","coordinates":{"lat":"-23.933333","long":"-55.816667"}},{"country":"py","city":"Caaguy-rupé","coordinates":{"lat":"-26.116667","long":"-56.883333"}},{"country":"py","city":"Caapucú","coordinates":{"lat":"-26.216667","long":"-57.2"}},{"country":"py","city":"Caarendy","coordinates":{"lat":"-25.4","long":"-55.266667"}},{"country":"py","city":"Caarendy Guazú","coordinates":{"lat":"-25.466667","long":"-55.216667"}},{"country":"py","city":"Caa Rogue","coordinates":{"lat":"-27.2","long":"-57.316667"}},{"country":"py","city":"Caá Yovai","coordinates":{"lat":"-25.6","long":"-55.35"}},{"country":"py","city":"Caazapá","coordinates":{"lat":"-26.15","long":"-56.4"}},{"country":"py","city":"Caballern","coordinates":{"lat":"-25.683333","long":"-56.833333"}},{"country":"py","city":"Caballero","coordinates":{"lat":"-25.683333","long":"-56.833333"}},{"country":"py","city":"Caballo Muerto","coordinates":{"lat":"-23.533333","long":"-59.95"}},{"country":"py","city":"Cabeza de Tigre","coordinates":{"lat":"-23.383333","long":"-59.533333"}},{"country":"py","city":"Cabo Juan","coordinates":{"lat":"-23.016667","long":"-59.7"}},{"country":"py","city":"Cabral-cué","coordinates":{"lat":"-25.55","long":"-56.666667"}},{"country":"py","city":"Cacha Labrada","coordinates":{"lat":"-19.609167","long":"-59.651944"}},{"country":"py","city":"Cachi Puente","coordinates":{"lat":"-27.183333","long":"-56.3"}},{"country":"py","city":"Cacique Bueno","coordinates":{"lat":"-22.3","long":"-59.616667"}},{"country":"py","city":"Cacique Ramón","coordinates":{"lat":"-22.466667","long":"-59.783333"}},{"country":"py","city":"Cafetal Cerro Cuatia","coordinates":{"lat":"-23.133333","long":"-55.616667"}},{"country":"py","city":"Cafetal San Antonio","coordinates":{"lat":"-23.25","long":"-55.7"}},{"country":"py","city":"Calia","coordinates":{"lat":"-22.483333","long":"-58.216667"}},{"country":"py","city":"Calixto Benítez","coordinates":{"lat":"-22.65","long":"-60.083333"}},{"country":"py","city":"Camacho","coordinates":{"lat":"-22.033333","long":"-60.633333"}},{"country":"py","city":"Camalote","coordinates":{"lat":"-26.266667","long":"-57.6"}},{"country":"py","city":"Cambyretá","coordinates":{"lat":"-27.35","long":"-55.783333"}},{"country":"py","city":"Campamento Aña-retá","coordinates":{"lat":"-20.6","long":"-58.916667"}},{"country":"py","city":"Campamento Cabichu-í","coordinates":{"lat":"-20.383333","long":"-58.483333"}},{"country":"py","city":"Campamento","coordinates":{"lat":"-21.716667","long":"-58.5"}},{"country":"py","city":"Campamento Final","coordinates":{"lat":"-21.45","long":"-59.133333"}},{"country":"py","city":"Campamento Mercedita","coordinates":{"lat":"-20.416667","long":"-58.566667"}},{"country":"py","city":"Campamento Michin","coordinates":{"lat":"-19.75","long":"-59.483333"}},{"country":"py","city":"Campamento Quince de Agosto","coordinates":{"lat":"-20.6","long":"-58.883333"}},{"country":"py","city":"Campamento Rivarola","coordinates":{"lat":"-19.6","long":"-58.733333"}},{"country":"py","city":"Campamento Santa Mercedita","coordinates":{"lat":"-20.416667","long":"-58.566667"}},{"country":"py","city":"Campamento V. Rivarola","coordinates":{"lat":"-19.6","long":"-58.733333"}},{"country":"py","city":"Campichuelo","coordinates":{"lat":"-27.433333","long":"-55.766667"}},{"country":"py","city":"Campo Aceval","coordinates":{"lat":"-23.183333","long":"-59.85"}},{"country":"py","city":"Campo Alegre","coordinates":{"lat":"-25.616667","long":"-55.316667"}},{"country":"py","city":"Campo Alegre","coordinates":{"lat":"-24.05","long":"-59.85"}},{"country":"py","city":"Campo Ana-reta","coordinates":{"lat":"-20.6","long":"-58.916667"}},{"country":"py","city":"Campo Azul","coordinates":{"lat":"-23.666667","long":"-61.1"}},{"country":"py","city":"Campo Cerro Sarambí","coordinates":{"lat":"-22.75","long":"-56.166667"}},{"country":"py","city":"Campo Cuarentiocho","coordinates":{"lat":"-22.75","long":"-59.666667"}},{"country":"py","city":"Campo Duarte-cué","coordinates":{"lat":"-22.433333","long":"-56.583333"}},{"country":"py","city":"Campo Esperanza","coordinates":{"lat":"-22.333333","long":"-59.65"}},{"country":"py","city":"Campo Lata","coordinates":{"lat":"-22.266667","long":"-59.5"}},{"country":"py","city":"Campo Lobo-cué","coordinates":{"lat":"-25.2","long":"-56.7"}},{"country":"py","city":"Campo Michin","coordinates":{"lat":"-19.75","long":"-59.483333"}},{"country":"py","city":"Campo Punta Diamante","coordinates":{"lat":"-26.85","long":"-57.9"}},{"country":"py","city":"Campo San Luis","coordinates":{"lat":"-22.316667","long":"-55.916667"}},{"country":"py","city":"Campos","coordinates":{"lat":"-20.133333","long":"-59.533333"}},{"country":"py","city":"Caña Blanca","coordinates":{"lat":"-22.75","long":"-61.033333"}},{"country":"py","city":"Cañada Blanca","coordinates":{"lat":"-22.133333","long":"-61.916667"}},{"country":"py","city":"Cañada Calais","coordinates":{"lat":"-22.15","long":"-59.6"}},{"country":"py","city":"Cañada Catorce de Mayo","coordinates":{"lat":"-22.016667","long":"-61.2"}},{"country":"py","city":"Cañada la Paz","coordinates":{"lat":"-21.7","long":"-61.033333"}},{"country":"py","city":"Cañada Oruro","coordinates":{"lat":"-21.666667","long":"-62.4"}},{"country":"py","city":"Cañada Strongest","coordinates":{"lat":"-21.666667","long":"-62.4"}},{"country":"py","city":"Cañada Tarua","coordinates":{"lat":"-21.566667","long":"-61.366667"}},{"country":"py","city":"Caña de Castilla","coordinates":{"lat":"-23.433333","long":"-58.433333"}},{"country":"py","city":"Canandero","coordinates":{"lat":"-23.65","long":"-55.9"}},{"country":"py","city":"Cañaverales","coordinates":{"lat":"-22.266667","long":"-58.8"}},{"country":"py","city":"Cancha Labrada","coordinates":{"lat":"-19.609167","long":"-59.651944"}},{"country":"py","city":"Cancha Pinilla","coordinates":{"lat":"-20.15","long":"-58.833333"}},{"country":"py","city":"Candida Aohucarro","coordinates":{"lat":"-25.433333","long":"-57.533333"}},{"country":"py","city":"Cañete","coordinates":{"lat":"-26.566667","long":"-56.45"}},{"country":"py","city":"Cañete-cué","coordinates":{"lat":"-26.55","long":"-56.716667"}},{"country":"py","city":"Cango","coordinates":{"lat":"-26.933333","long":"-56.216667"}},{"country":"py","city":"Caniza-cué","coordinates":{"lat":"-26.316667","long":"-57.416667"}},{"country":"py","city":"Capiatá","coordinates":{"lat":"-25.35","long":"-57.416667"}},{"country":"py","city":"Capibindi","coordinates":{"lat":"-24.366667","long":"-54.816667"}},{"country":"py","city":"Capiíbary","coordinates":{"lat":"-24.8","long":"-56.033333"}},{"country":"py","city":"Capiipobó","coordinates":{"lat":"-24.816667","long":"-57.216667"}},{"country":"py","city":"Capiitindi","coordinates":{"lat":"-24.366667","long":"-54.816667"}},{"country":"py","city":"Capiitindy","coordinates":{"lat":"-24.366667","long":"-54.816667"}},{"country":"py","city":"Capilla San Rafael","coordinates":{"lat":"-24.916667","long":"-56.733333"}},{"country":"py","city":"Capilla Tuyá","coordinates":{"lat":"-26.233333","long":"-56.866667"}},{"country":"py","city":"Capista","coordinates":{"lat":"-25.35","long":"-57.416667"}},{"country":"py","city":"Capitán Bado","coordinates":{"lat":"-23.266667","long":"-55.533333"}},{"country":"py","city":"Capitán Castro","coordinates":{"lat":"-22.7","long":"-61.05"}},{"country":"py","city":"Capitán Meza","coordinates":{"lat":"-27.016667","long":"-55.566667"}},{"country":"py","city":"Capitán Miranda","coordinates":{"lat":"-27.2","long":"-55.8"}},{"country":"py","city":"Capitán Pablo Lagerenza","coordinates":{"lat":"-19.916667","long":"-60.783333"}},{"country":"py","city":"Capitán Peralta","coordinates":{"lat":"-20.1","long":"-58.183333"}},{"country":"py","city":"Capitán Sosa","coordinates":{"lat":"-23.399167","long":"-57.018611"}},{"country":"py","city":"Capitán Vicente A. Matiauda","coordinates":{"lat":"-27.233333","long":"-55.6"}},{"country":"py","city":"Caracol","coordinates":{"lat":"-22.3","long":"-57.016667"}},{"country":"py","city":"Caracoles","coordinates":{"lat":"-24.133333","long":"-59.55"}},{"country":"py","city":"Caraguatá","coordinates":{"lat":"-27.25","long":"-56.083333"}},{"country":"py","city":"Caraguatay","coordinates":{"lat":"-25.233333","long":"-56.816667"}},{"country":"py","city":"Carapá","coordinates":{"lat":"-23.983333","long":"-55.266667"}},{"country":"py","city":"Carapeguá","coordinates":{"lat":"-25.8","long":"-57.233333"}},{"country":"py","city":"Carayaó","coordinates":{"lat":"-25.183333","long":"-56.4"}},{"country":"py","city":"Carayá Vuelta","coordinates":{"lat":"-23.121667","long":"-57.6375"}},{"country":"py","city":"Caray-cué","coordinates":{"lat":"-26.433333","long":"-57.816667"}},{"country":"py","city":"Cargué","coordinates":{"lat":"-25.083333","long":"-57.866667"}},{"country":"py","city":"Carlos Antonio López","coordinates":{"lat":"-26.4","long":"-54.766667"}},{"country":"py","city":"Carlos Pfanel","coordinates":{"lat":"-25.65","long":"-56.233333"}},{"country":"py","city":"Carmen","coordinates":{"lat":"-27.233333","long":"-56.216667"}},{"country":"py","city":"Carmencita","coordinates":{"lat":"-22.483333","long":"-62.266667"}},{"country":"py","city":"Carmen del Paraná","coordinates":{"lat":"-27.233333","long":"-56.216667"}},{"country":"py","city":"Carmen Inés","coordinates":{"lat":"-22.416667","long":"-62.4"}},{"country":"py","city":"Carolina","coordinates":{"lat":"-24.6","long":"-56.683333"}},{"country":"py","city":"Carpincho Cuá","coordinates":{"lat":"-26.383333","long":"-58.183333"}},{"country":"py","city":"Carreria","coordinates":{"lat":"-21.55","long":"-58.116667"}},{"country":"py","city":"Caruperá","coordinates":{"lat":"-24.316667","long":"-55.483333"}},{"country":"py","city":"Casado","coordinates":{"lat":"-22.333333","long":"-57.916667"}},{"country":"py","city":"Cascabel","coordinates":{"lat":"-20.316667","long":"-58.4"}},{"country":"py","city":"Cascahal","coordinates":{"lat":"-20.316667","long":"-58.4"}},{"country":"py","city":"Castillo","coordinates":{"lat":"-22.833333","long":"-60"}},{"country":"py","city":"Castillo Cué","coordinates":{"lat":"-27.183333","long":"-57.483333"}},{"country":"py","city":"Catan","coordinates":{"lat":"-23.45","long":"-60.883333"}},{"country":"py","city":"Catorce de Mayo","coordinates":{"lat":"-19.633333","long":"-58.733333"}},{"country":"py","city":"Cebolla","coordinates":{"lat":"-22.383333","long":"-57.666667"}},{"country":"py","city":"Cecilio Báez","coordinates":{"lat":"-25.05","long":"-56.316667"}},{"country":"py","city":"Cecina","coordinates":{"lat":"-25.933333","long":"-55.8"}},{"country":"py","city":"Celada Cué","coordinates":{"lat":"-23.866667","long":"-57.95"}},{"country":"py","city":"Celia","coordinates":{"lat":"-22.483333","long":"-58.216667"}},{"country":"py","city":"Celina","coordinates":{"lat":"-21.85","long":"-62.416667"}},{"country":"py","city":"Centinela","coordinates":{"lat":"-24.133333","long":"-57.183333"}},{"country":"py","city":"Cerrito Caaguazú","coordinates":{"lat":"-24.616667","long":"-54.883333"}},{"country":"py","city":"Cerrito","coordinates":{"lat":"-27.316667","long":"-57.666667"}},{"country":"py","city":"Cerrito","coordinates":{"lat":"-26.4","long":"-57.466667"}},{"country":"py","city":"Cerrito","coordinates":{"lat":"-23.833333","long":"-57"}},{"country":"py","city":"Cerrito Jara","coordinates":{"lat":"-19.766667","long":"-58.2"}},{"country":"py","city":"Cerro Corá","coordinates":{"lat":"-22.616667","long":"-55.983333"}},{"country":"py","city":"Cerro Corá","coordinates":{"lat":"-20.283333","long":"-58.283333"}},{"country":"py","city":"Cerro Cora-i","coordinates":{"lat":"-22.583333","long":"-55.833333"}},{"country":"py","city":"Cerro León","coordinates":{"lat":"-25.55","long":"-57.183333"}},{"country":"py","city":"Cerro Sarambi","coordinates":{"lat":"-22.75","long":"-56.166667"}},{"country":"py","city":"Cerro Tarin","coordinates":{"lat":"-23.533333","long":"-55.55"}},{"country":"py","city":"Cerro Torín","coordinates":{"lat":"-23.533333","long":"-55.55"}},{"country":"py","city":"Chaco-i","coordinates":{"lat":"-25.25","long":"-57.633333"}},{"country":"py","city":"Charagua","coordinates":{"lat":"-22.616667","long":"-56.366667"}},{"country":"py","city":"Charará","coordinates":{"lat":"-26.05","long":"-55.4"}},{"country":"py","city":"Charara","coordinates":{"lat":"-25.916667","long":"-56.183333"}},{"country":"py","city":"Charara","coordinates":{"lat":"-26.166667","long":"-57.283333"}},{"country":"py","city":"Charata","coordinates":{"lat":"-23.133333","long":"-60.05"}},{"country":"py","city":"China Blanca","coordinates":{"lat":"-22.75","long":"-61.033333"}},{"country":"py","city":"China Muerta","coordinates":{"lat":"-22.35","long":"-61.6"}},{"country":"py","city":"Chingüelo","coordinates":{"lat":"-22.666667","long":"-55.916667"}},{"country":"py","city":"Chivilar","coordinates":{"lat":"-23.316667","long":"-61.616667"}},{"country":"py","city":"Chore","coordinates":{"lat":"-24.2","long":"-56.566667"}},{"country":"py","city":"Ciervo Blanco","coordinates":{"lat":"-26.466667","long":"-57.85"}},{"country":"py","city":"Ciudad del Este","coordinates":{"lat":"-25.516667","long":"-54.616667"}},{"country":"py","city":"Ciudad Presidente Stroessner","coordinates":{"lat":"-25.516667","long":"-54.616667"}},{"country":"py","city":"Cleto Romero","coordinates":{"lat":"-25.1","long":"-56.616667"}},{"country":"py","city":"Cobija","coordinates":{"lat":"-20.433333","long":"-61.183333"}},{"country":"py","city":"Cocueré","coordinates":{"lat":"-26.8","long":"-57.533333"}},{"country":"py","city":"Codo Kononi","coordinates":{"lat":"-21.85","long":"-62.283333"}},{"country":"py","city":"Collar Ahorcada","coordinates":{"lat":"-23.133333","long":"-61.833333"}},{"country":"py","city":"Collar Ahorcado","coordinates":{"lat":"-23.133333","long":"-61.833333"}},{"country":"py","city":"Colón","coordinates":{"lat":"-23.183333","long":"-57.55"}},{"country":"py","city":"Colonia 21 de Julio","coordinates":{"lat":"-25.283333","long":"-57.05"}},{"country":"py","city":"Colonia Acaray","coordinates":{"lat":"-25.316667","long":"-54.833333"}},{"country":"py","city":"Colonia Aca-Yuasa","coordinates":{"lat":"-25.866667","long":"-56.883333"}},{"country":"py","city":"Colonia Aceval","coordinates":{"lat":"-24.966667","long":"-57.566667"}},{"country":"py","city":"Colonia Acuña de Figueroa","coordinates":{"lat":"-25.216667","long":"-57.216667"}},{"country":"py","city":"Colonia Acuña Figueroa","coordinates":{"lat":"-25.216667","long":"-57.216667"}},{"country":"py","city":"Colonia A. Dacak","coordinates":{"lat":"-25.583333","long":"-56.816667"}},{"country":"py","city":"Colonia Adriano Iralá","coordinates":{"lat":"-25.633333","long":"-56.983333"}},{"country":"py","city":"Colonia A. Goiburú","coordinates":{"lat":"-26.166667","long":"-56.9"}},{"country":"py","city":"Colonia Agustin Molas","coordinates":{"lat":"-26.05","long":"-56.666667"}},{"country":"py","city":"Colonia Agustín R. Pinedo","coordinates":{"lat":"-22.75","long":"-56.283333"}},{"country":"py","city":"Colonia Alberdi","coordinates":{"lat":"-26.15","long":"-58.116667"}},{"country":"py","city":"Colonia Alborada","coordinates":{"lat":"-23.966667","long":"-54.633333"}},{"country":"py","city":"Colonia Alejo García","coordinates":{"lat":"-27.383333","long":"-56.9"}},{"country":"py","city":"Colonia Alfonso Tranquera","coordinates":{"lat":"-25.15","long":"-56.916667"}},{"country":"py","city":"Colonia Altura","coordinates":{"lat":"-25.183333","long":"-56.3"}},{"country":"py","city":"Colonia Alvar Núñez Cabeza de Vaca","coordinates":{"lat":"-24.45","long":"-54.35"}},{"country":"py","city":"Colonia Antequera","coordinates":{"lat":"-24.133333","long":"-57.083333"}},{"country":"py","city":"Colonia Aparypa","coordinates":{"lat":"-25.166667","long":"-57.05"}},{"country":"py","city":"Colonia Ape-Aime","coordinates":{"lat":"-26.583333","long":"-54.866667"}},{"country":"py","city":"Colonia Arroyita Ex-combatientes","coordinates":{"lat":"-25.55","long":"-55.8"}},{"country":"py","city":"Colonia Austria-í","coordinates":{"lat":"-22.066667","long":"-61.75"}},{"country":"py","city":"Colonia Bella Vista","coordinates":{"lat":"-27.05","long":"-55.55"}},{"country":"py","city":"Colonia Benjamín Aceval","coordinates":{"lat":"-24.966667","long":"-57.566667"}},{"country":"py","city":"Colonia Bergtal","coordinates":{"lat":"-25.316667","long":"-55.583333"}},{"country":"py","city":"Colonia Bergthal","coordinates":{"lat":"-25.316667","long":"-55.583333"}},{"country":"py","city":"Colonia Blas A. Garay","coordinates":{"lat":"-25.466667","long":"-56.233333"}},{"country":"py","city":"Colonia Blas Garay","coordinates":{"lat":"-25.466667","long":"-56.233333"}},{"country":"py","city":"Colonia Blumengart","coordinates":{"lat":"-22.366667","long":"-59.9"}},{"country":"py","city":"Colonia Bogado-cué","coordinates":{"lat":"-23.2","long":"-57.316667"}},{"country":"py","city":"Colonia Boquerón","coordinates":{"lat":"-25.916667","long":"-56.533333"}},{"country":"py","city":"Colonia Caárendy","coordinates":{"lat":"-26.933333","long":"-55.45"}},{"country":"py","city":"Colonia Cadete Pastor Pando","coordinates":{"lat":"-24.4","long":"-58.9"}},{"country":"py","city":"Colonia Caninobyú","coordinates":{"lat":"-23.95","long":"-54.45"}},{"country":"py","city":"Colonia Capitán F. Leguizamón","coordinates":{"lat":"-26.75","long":"-56.233333"}},{"country":"py","city":"Colonia Capitán Miranda","coordinates":{"lat":"-27.2","long":"-55.8"}},{"country":"py","city":"Colonia Capitán V. Brizuela","coordinates":{"lat":"-25.966667","long":"-56.5"}},{"country":"py","city":"Colonia Carlos A. López","coordinates":{"lat":"-25.7","long":"-56.9"}},{"country":"py","city":"Colonia Carlos Peanell","coordinates":{"lat":"-25.65","long":"-56.233333"}},{"country":"py","city":"Colonia Carlos Pfanell","coordinates":{"lat":"-25.65","long":"-56.233333"}},{"country":"py","city":"Colonia Carmelo Peralta","coordinates":{"lat":"-21.666667","long":"-57.95"}},{"country":"py","city":"Colonia Casualidad","coordinates":{"lat":"-22.683333","long":"-56.516667"}},{"country":"py","city":"Colonia Catorce de Mayo","coordinates":{"lat":"-25.816667","long":"-56.383333"}},{"country":"py","city":"Colonia Catuete","coordinates":{"lat":"-24.133333","long":"-54.616667"}},{"country":"py","city":"Colonia Cerro Memby","coordinates":{"lat":"-22.833333","long":"-56.366667"}},{"country":"py","city":"Colonia Chaontal","coordinates":{"lat":"-22.366667","long":"-59.916667"}},{"country":"py","city":"Colonia Cleto Romero","coordinates":{"lat":"-25.1","long":"-56.616667"}},{"country":"py","city":"Colonia Comondante Pedro Caballero","coordinates":{"lat":"-25.5","long":"-57.016667"}},{"country":"py","city":"Colonia Cosme","coordinates":{"lat":"-25.566667","long":"-56.283333"}},{"country":"py","city":"Colonia Costa Jhoby","coordinates":{"lat":"-23.316667","long":"-55.583333"}},{"country":"py","city":"Colonia Costa Jhovy","coordinates":{"lat":"-23.316667","long":"-55.583333"}},{"country":"py","city":"Colonia Cumandá Kay","coordinates":{"lat":"-24.416667","long":"-54.816667"}},{"country":"py","city":"Colonia Curupayty","coordinates":{"lat":"-25.416667","long":"-56.983333"}},{"country":"py","city":"Colonia Defensores del Chaco","coordinates":{"lat":"-24.55","long":"-56.45"}},{"country":"py","city":"Colonia de Mompox","coordinates":{"lat":"-25.2","long":"-56.983333"}},{"country":"py","city":"Colonia Doctor Bottrel","coordinates":{"lat":"-25.583333","long":"-56.316667"}},{"country":"py","city":"Colonia Doctor Domingo Montanaro","coordinates":{"lat":"-25.433333","long":"-56.216667"}},{"country":"py","city":"Colonia Doctor Pastor Obligado","coordinates":{"lat":"-27.033333","long":"-55.633333"}},{"country":"py","city":"Colonia Dr. A. Yrala","coordinates":{"lat":"-25.633333","long":"-56.983333"}},{"country":"py","city":"Colonia Eligio Ayala","coordinates":{"lat":"-26.233333","long":"-56.833333"}},{"country":"py","city":"Colonia Eliza","coordinates":{"lat":"-25.366667","long":"-57.616667"}},{"country":"py","city":"Colonia Escalada","coordinates":{"lat":"-25.933333","long":"-56.266667"}},{"country":"py","city":"Colonia Estrella","coordinates":{"lat":"-22.3","long":"-55.933333"}},{"country":"py","city":"Colonia Ex Combatiente","coordinates":{"lat":"-25.55","long":"-55.8"}},{"country":"py","city":"Colonia Ex Combatiente","coordinates":{"lat":"-23.3","long":"-56.916667"}},{"country":"py","city":"Colonia Ex Enfermera del Chaco","coordinates":{"lat":"-23.15","long":"-56.75"}},{"country":"py","city":"Colonia Falcón","coordinates":{"lat":"-25.25","long":"-57.716667"}},{"country":"py","city":"Colonia Felicidad","coordinates":{"lat":"-24.233333","long":"-56.4"}},{"country":"py","city":"Colonia Felix Azara","coordinates":{"lat":"-25.483333","long":"-54.766667"}},{"country":"py","city":"Colonia Félix de Azara","coordinates":{"lat":"-25.483333","long":"-54.766667"}},{"country":"py","city":"Colonia Ferheim","coordinates":{"lat":"-22.25","long":"-59.833333"}},{"country":"py","city":"Colonia Fernando de la Mora","coordinates":{"lat":"-23.416667","long":"-57.066667"}},{"country":"py","city":"Colonia Fernando de Trejo y Sanabria","coordinates":{"lat":"-24.8","long":"-54.45"}},{"country":"py","city":"Colonia Fernheim","coordinates":{"lat":"-22.25","long":"-59.833333"}},{"country":"py","city":"Colonia Filadelfia","coordinates":{"lat":"-22.35","long":"-60.033333"}},{"country":"py","city":"Colonia Fram","coordinates":{"lat":"-27.033333","long":"-56.05"}},{"country":"py","city":"Colonia Fran","coordinates":{"lat":"-27.033333","long":"-56.05"}},{"country":"py","city":"Colonia Friesland","coordinates":{"lat":"-24.633333","long":"-56.766667"}},{"country":"py","city":"Colonia F. R. Moreno","coordinates":{"lat":"-25.7","long":"-55.2"}},{"country":"py","city":"Colonia Gaboto","coordinates":{"lat":"-26.266667","long":"-57.983333"}},{"country":"py","city":"Colonia Genaro Romero","coordinates":{"lat":"-25.35","long":"-56.433333"}},{"country":"py","city":"Colonia General Acuino","coordinates":{"lat":"-24.433333","long":"-56.7"}},{"country":"py","city":"Colonia General Alfredo Stroessner","coordinates":{"lat":"-25.366667","long":"-55.7"}},{"country":"py","city":"Colonia General Bernardino Caballero","coordinates":{"lat":"-25.216667","long":"-57.116667"}},{"country":"py","city":"Colonia General Bernardino Caballero","coordinates":{"lat":"-24.316667","long":"-54.933333"}},{"country":"py","city":"Colonia General Bruguez","coordinates":{"lat":"-24.733333","long":"-58.8"}},{"country":"py","city":"Colonia General de División A. Fretes Dávalos","coordinates":{"lat":"-23.366667","long":"-56.516667"}},{"country":"py","city":"Colonia General de División A. Fretes Dávalos","coordinates":{"lat":"-24.45","long":"-55.15"}},{"country":"py","city":"Colonia General Delgado","coordinates":{"lat":"-27.166667","long":"-56.516667"}},{"country":"py","city":"Colonia General Díaz","coordinates":{"lat":"-24.7","long":"-54.95"}},{"country":"py","city":"Colonia General Díaz","coordinates":{"lat":"-23.416667","long":"-57.233333"}},{"country":"py","city":"Colonia General Morínigo","coordinates":{"lat":"-25.95","long":"-55.916667"}},{"country":"py","city":"Colonia General P. Colmán","coordinates":{"lat":"-25.733333","long":"-55.066667"}},{"country":"py","city":"Colonia General Roa","coordinates":{"lat":"-27.283333","long":"-57.583333"}},{"country":"py","city":"Colonia Goiburú","coordinates":{"lat":"-26.166667","long":"-56.9"}},{"country":"py","city":"Colonia Guzman","coordinates":{"lat":"-26.083333","long":"-57.95"}},{"country":"py","city":"Colonia Hector L Vega","coordinates":{"lat":"-25.816667","long":"-56.733333"}},{"country":"py","city":"Colonia Hector L. Vera","coordinates":{"lat":"-25.816667","long":"-56.733333"}},{"country":"py","city":"Colonia Hernandarias","coordinates":{"lat":"-23.3","long":"-57.183333"}},{"country":"py","city":"Colonia Herrera Vega","coordinates":{"lat":"-27.216667","long":"-55.716667"}},{"country":"py","city":"Colonia Herrera Vegas","coordinates":{"lat":"-27.216667","long":"-55.716667"}},{"country":"py","city":"Colonia Hohenau","coordinates":{"lat":"-27.083333","long":"-55.75"}},{"country":"py","city":"Colonia Hondo","coordinates":{"lat":"-25.15","long":"-56.283333"}},{"country":"py","city":"Colonia Independencia","coordinates":{"lat":"-25.716667","long":"-56.25"}},{"country":"py","city":"Colonia J. Cancio Flecha","coordinates":{"lat":"-25.583333","long":"-56.8"}},{"country":"py","city":"Colonia J.E. Estigarribia","coordinates":{"lat":"-25.016667","long":"-54.8"}},{"country":"py","city":"Colonia J.L. Mallorquín","coordinates":{"lat":"-25.366667","long":"-55.216667"}},{"country":"py","city":"Colonia Joan M. Frutos","coordinates":{"lat":"-25.45","long":"-56.266667"}},{"country":"py","city":"Colonia Jorje L. Moreira","coordinates":{"lat":"-25.633333","long":"-57.183333"}},{"country":"py","city":"Colonia José Beger","coordinates":{"lat":"-23.433333","long":"-56.9"}},{"country":"py","city":"Colonia José Berges","coordinates":{"lat":"-23.433333","long":"-56.9"}},{"country":"py","city":"Colonia Jose Palcón","coordinates":{"lat":"-25.25","long":"-57.716667"}},{"country":"py","city":"Colonia Juan Sinforiano Bogarin","coordinates":{"lat":"-25.083333","long":"-56.083333"}},{"country":"py","city":"Colonia La Colmena","coordinates":{"lat":"-25.883333","long":"-56.816667"}},{"country":"py","city":"Colonia la Pastora","coordinates":{"lat":"-25.216667","long":"-56.533333"}},{"country":"py","city":"Colonia la Pastora","coordinates":{"lat":"-25.25","long":"-56.566667"}},{"country":"py","city":"Colonia Laura","coordinates":{"lat":"-25.266667","long":"-54.9"}},{"country":"py","city":"Colonia Liberación","coordinates":{"lat":"-24.166667","long":"-56.65"}},{"country":"py","city":"Colonia Limoy","coordinates":{"lat":"-24.783333","long":"-54.866667"}},{"country":"py","city":"Colonia Lomas Valentinas","coordinates":{"lat":"-25.516667","long":"-57.516667"}},{"country":"py","city":"Colonia Maka","coordinates":{"lat":"-25.216667","long":"-57.583333"}},{"country":"py","city":"Colonia M.A. Molas","coordinates":{"lat":"-25.95","long":"-57.7"}},{"country":"py","city":"Colonia Manitoba","coordinates":{"lat":"-23.566667","long":"-56.55"}},{"country":"py","city":"Colonia Maria Auxiliadora","coordinates":{"lat":"-25.483333","long":"-56.183333"}},{"country":"py","city":"Colonia Maria Auxiliadora","coordinates":{"lat":"-24.45","long":"-56.5"}},{"country":"py","city":"Colonia Mariano Roque Alonso","coordinates":{"lat":"-25.166667","long":"-57.55"}},{"country":"py","city":"Colonia Mariscal López","coordinates":{"lat":"-22.783333","long":"-55.566667"}},{"country":"py","city":"Colonia Martínez de Irala","coordinates":{"lat":"-26.15","long":"-56"}},{"country":"py","city":"Colonia Mauricio José Troche","coordinates":{"lat":"-25.566667","long":"-56.283333"}},{"country":"py","city":"Colonia Mauricio J. Troche","coordinates":{"lat":"-25.566667","long":"-56.283333"}},{"country":"py","city":"Colonia Mayor Hermosa","coordinates":{"lat":"-23.95","long":"-56.366667"}},{"country":"py","city":"Colonia Mayor Nicolás Arguello","coordinates":{"lat":"-26.183333","long":"-56.183333"}},{"country":"py","city":"Colonia Mayor Otaño","coordinates":{"lat":"-26.616667","long":"-54.9"}},{"country":"py","city":"Colonia Mbareté","coordinates":{"lat":"-26.05","long":"-54.866667"}},{"country":"py","city":"Colonia Mburicá Potrero","coordinates":{"lat":"-26.133333","long":"-56.116667"}},{"country":"py","city":"Colonia Mburucuya","coordinates":{"lat":"-24.533333","long":"-55.766667"}},{"country":"py","city":"Colonia Mburupy","coordinates":{"lat":"-25.433333","long":"-56.3"}},{"country":"py","city":"Colonia M. Domínguez","coordinates":{"lat":"-25.85","long":"-57.8"}},{"country":"py","city":"Colonia Medianera","coordinates":{"lat":"-26.116667","long":"-54.816667"}},{"country":"py","city":"Colonia Memnonista","coordinates":{"lat":"-22.5","long":"-60"}},{"country":"py","city":"Colonia Menno","coordinates":{"lat":"-22.366667","long":"-59.816667"}},{"country":"py","city":"Colonia Mennonita Canadiense","coordinates":{"lat":"-22.5","long":"-60"}},{"country":"py","city":"Colonia Mennonita","coordinates":{"lat":"-22.5","long":"-60"}},{"country":"py","city":"Colonia Mennonitas","coordinates":{"lat":"-22.5","long":"-60"}},{"country":"py","city":"Colonia Menonitas","coordinates":{"lat":"-22.5","long":"-60"}},{"country":"py","city":"Colonia Mesquita","coordinates":{"lat":"-25.766667","long":"-54.633333"}},{"country":"py","city":"Colonia M. Gondra","coordinates":{"lat":"-25.7","long":"-56.4"}},{"country":"py","city":"Colonia Minga Porá","coordinates":{"lat":"-24.866667","long":"-54.9"}},{"country":"py","city":"Colonia Miranda","coordinates":{"lat":"-22.966667","long":"-56.833333"}},{"country":"py","city":"Colonia Moises Bertoni","coordinates":{"lat":"-26.366667","long":"-56.433333"}},{"country":"py","city":"Colonia Mompox","coordinates":{"lat":"-25.2","long":"-56.983333"}},{"country":"py","city":"Colonia Mons Bogarin","coordinates":{"lat":"-25.1","long":"-56.05"}},{"country":"py","city":"Colonia Montanaro","coordinates":{"lat":"-25.433333","long":"-56.2"}},{"country":"py","city":"Colonia Moses Bertoni","coordinates":{"lat":"-26.366667","long":"-56.433333"}},{"country":"py","city":"Colonia Ñande Mbaepá","coordinates":{"lat":"-24.783333","long":"-58.416667"}},{"country":"py","city":"Colonia Natalicio Talavera","coordinates":{"lat":"-25.633333","long":"-56.3"}},{"country":"py","city":"Colonia Neuland","coordinates":{"lat":"-22.666667","long":"-60.116667"}},{"country":"py","city":"Colonia Nueva Australia","coordinates":{"lat":"-25.416667","long":"-56.583333"}},{"country":"py","city":"Colonia Nueva Colombia","coordinates":{"lat":"-25.183333","long":"-57.35"}},{"country":"py","city":"Colonia Nueva Germania","coordinates":{"lat":"-23.9","long":"-56.566667"}},{"country":"py","city":"Colonia Nueva Independencia","coordinates":{"lat":"-22.933333","long":"-55.65"}},{"country":"py","city":"Colonia Nueva Italia","coordinates":{"lat":"-25.616667","long":"-57.5"}},{"country":"py","city":"Colonia Número Dos General Alfredo Stroessner","coordinates":{"lat":"-24.666667","long":"-55.983333"}},{"country":"py","city":"Colonia Oliva","coordinates":{"lat":"-26.066667","long":"-57.85"}},{"country":"py","city":"Colonia Osterwich","coordinates":{"lat":"-22.4","long":"-59.883333"}},{"country":"py","city":"Colonia Padre Guido Coronel","coordinates":{"lat":"-25.216667","long":"-54.683333"}},{"country":"py","city":"Colonia Pancho Garmendia","coordinates":{"lat":"-25.983333","long":"-57.083333"}},{"country":"py","city":"Colonia Paratodo","coordinates":{"lat":"-23.216667","long":"-59.616667"}},{"country":"py","city":"Colonia Pedro M. de Portugal","coordinates":{"lat":"-25.566667","long":"-56.75"}},{"country":"py","city":"Colonia Peguajhó","coordinates":{"lat":"-25.6","long":"-57.283333"}},{"country":"py","city":"Colonia PFannl","coordinates":{"lat":"-25.65","long":"-56.233333"}},{"country":"py","city":"Colonia Pirareta","coordinates":{"lat":"-25.55","long":"-56.9"}},{"country":"py","city":"Colonia Pira Rita","coordinates":{"lat":"-25.516667","long":"-56.883333"}},{"country":"py","city":"Colonia Piray","coordinates":{"lat":"-25.366667","long":"-56.716667"}},{"country":"py","city":"Colonia Presbítero A. Molas","coordinates":{"lat":"-26.05","long":"-56.666667"}},{"country":"py","city":"Colonia Presbítero Fidel Maíz","coordinates":{"lat":"-24.983333","long":"-57"}},{"country":"py","city":"Colonia Presidente Franco","coordinates":{"lat":"-25.533333","long":"-56.75"}},{"country":"py","city":"Colonia Presidente Stroessner","coordinates":{"lat":"-23.25","long":"-56.9"}},{"country":"py","city":"Colonia Primero de Marzo","coordinates":{"lat":"-25.1","long":"-57.016667"}},{"country":"py","city":"Colonia Puente Canií","coordinates":{"lat":"-22.9","long":"-55.783333"}},{"country":"py","city":"Colonia Puente Franco","coordinates":{"lat":"-25.533333","long":"-56.75"}},{"country":"py","city":"Colonia R. Díaz de Guzmán","coordinates":{"lat":"-26.083333","long":"-57.95"}},{"country":"py","city":"Colonia Reconstrucción","coordinates":{"lat":"-23.133333","long":"-57.283333"}},{"country":"py","city":"Colonia Reinland","coordinates":{"lat":"-22.4","long":"-59.85"}},{"country":"py","city":"Colonia Repatriación","coordinates":{"lat":"-25.55","long":"-56.066667"}},{"country":"py","city":"Colonia R.G. de Santa Cruz","coordinates":{"lat":"-25.95","long":"-56.233333"}},{"country":"py","city":"Colonia Riachuelo","coordinates":{"lat":"-26.1","long":"-56.233333"}},{"country":"py","city":"Colonia Río Verde","coordinates":{"lat":"-23.716667","long":"-56.5"}},{"country":"py","city":"Colonia Risso","coordinates":{"lat":"-22.35","long":"-57.833333"}},{"country":"py","city":"Colonia Roberto L. Petit","coordinates":{"lat":"-23.183333","long":"-57.45"}},{"country":"py","city":"Colonia Roque Alonso","coordinates":{"lat":"-25.166667","long":"-57.55"}},{"country":"py","city":"Colonia R. Scagnoli","coordinates":{"lat":"-25.833333","long":"-56.833333"}},{"country":"py","city":"Colonia R. Scagnoti","coordinates":{"lat":"-25.833333","long":"-56.833333"}},{"country":"py","city":"Colonia Rubio Ñu","coordinates":{"lat":"-25.45","long":"-56.85"}},{"country":"py","city":"Colonia Rusa","coordinates":{"lat":"-27.233333","long":"-55.85"}},{"country":"py","city":"Colonia Salto","coordinates":{"lat":"-27.45","long":"-56.683333"}},{"country":"py","city":"Colonia San Alfredo","coordinates":{"lat":"-26.033333","long":"-55.1"}},{"country":"py","city":"Colonia San Alfredo","coordinates":{"lat":"-22.9","long":"-57.416667"}},{"country":"py","city":"Colonia San Alfredo","coordinates":{"lat":"-19.9","long":"-60.9"}},{"country":"py","city":"Colonia San Antonio","coordinates":{"lat":"-25.983333","long":"-56.566667"}},{"country":"py","city":"Colonia San Blas","coordinates":{"lat":"-25.4","long":"-56.683333"}},{"country":"py","city":"Colonia San Francisco","coordinates":{"lat":"-22.9","long":"-55"}},{"country":"py","city":"Colonia San Ignacio de Loyola","coordinates":{"lat":"-25.483333","long":"-56.766667"}},{"country":"py","city":"Colonia San Isidro","coordinates":{"lat":"-25.6","long":"-56.716667"}},{"country":"py","city":"Colonia San José","coordinates":{"lat":"-22.4","long":"-56.316667"}},{"country":"py","city":"Colonia San José Obrero","coordinates":{"lat":"-24.666667","long":"-55.85"}},{"country":"py","city":"Colonia San Juan","coordinates":{"lat":"-23.556111","long":"-57.2"}},{"country":"py","city":"Colonia San Lazaro","coordinates":{"lat":"-22.166667","long":"-57.916667"}},{"country":"py","city":"Colonia San Marcos","coordinates":{"lat":"-25.333333","long":"-56.666667"}},{"country":"py","city":"Colonia San Pedro","coordinates":{"lat":"-24.433333","long":"-56.416667"}},{"country":"py","city":"Colonia San Roque","coordinates":{"lat":"-24.833333","long":"-55.683333"}},{"country":"py","city":"Colonia Santa Catalina","coordinates":{"lat":"-25.166667","long":"-56.316667"}},{"country":"py","city":"Colonia Santa Gaboto","coordinates":{"lat":"-26.266667","long":"-57.983333"}},{"country":"py","city":"Colonia Santa Isabel","coordinates":{"lat":"-25.466667","long":"-56.7"}},{"country":"py","city":"Colonia Santa Isabel","coordinates":{"lat":"-25.733333","long":"-56.95"}},{"country":"py","city":"Colonia Santa Maria","coordinates":{"lat":"-24.766667","long":"-55.016667"}},{"country":"py","city":"Colonia Santo Domingo","coordinates":{"lat":"-27.316667","long":"-56.033333"}},{"country":"py","city":"Colonia Sargento Duré","coordinates":{"lat":"-22.166667","long":"-56.45"}},{"country":"py","city":"Colonia Sargento José E. Lopéz","coordinates":{"lat":"-22.383333","long":"-56.933333"}},{"country":"py","city":"Colonia Schoental","coordinates":{"lat":"-22.366667","long":"-59.916667"}},{"country":"py","city":"Colonia Sebastián Gaboto","coordinates":{"lat":"-26.3","long":"-57.966667"}},{"country":"py","city":"Colonia Serafini","coordinates":{"lat":"-25.566667","long":"-56.766667"}},{"country":"py","city":"Colonia S. Escobar","coordinates":{"lat":"-25.85","long":"-56.733333"}},{"country":"py","city":"Colonia Sierra León","coordinates":{"lat":"-19.683333","long":"-60.85"}},{"country":"py","city":"Colonia Siete de Agosto","coordinates":{"lat":"-26.383333","long":"-54.9"}},{"country":"py","city":"Colonia Siete Montes","coordinates":{"lat":"-24.2","long":"-55.833333"}},{"country":"py","city":"Colonia Somerfield","coordinates":{"lat":"-25.433333","long":"-55.716667"}},{"country":"py","city":"Colonia Sommerfeld","coordinates":{"lat":"-25.433333","long":"-55.716667"}},{"country":"py","city":"Colonia Stica","coordinates":{"lat":"-25.55","long":"-56.883333"}},{"country":"py","city":"Colonia Stroessner","coordinates":{"lat":"-25.483333","long":"-54.75"}},{"country":"py","city":"Colonia Sudetia","coordinates":{"lat":"-25.716667","long":"-56.033333"}},{"country":"py","city":"Colonia Tacuara","coordinates":{"lat":"-24.5","long":"-55.716667"}},{"country":"py","city":"Colonia Tacuarí","coordinates":{"lat":"-27.266667","long":"-55.866667"}},{"country":"py","city":"Colonia Tacuruty","coordinates":{"lat":"-25.983333","long":"-56.883333"}},{"country":"py","city":"Colonia Tañarandy","coordinates":{"lat":"-26.9","long":"-57.083333"}},{"country":"py","city":"Colonia Tavapy II","coordinates":{"lat":"-25.65","long":"-54.933333"}},{"country":"py","city":"Colonia Tendal","coordinates":{"lat":"-24.05","long":"-55.566667"}},{"country":"py","city":"Colonia Teniente A. Dakak","coordinates":{"lat":"-25.583333","long":"-56.816667"}},{"country":"py","city":"Colonia Teniente A. Dakan","coordinates":{"lat":"-25.583333","long":"-56.816667"}},{"country":"py","city":"Colonia Teniente Alfonso Rojas","coordinates":{"lat":"-26.333333","long":"-57.183333"}},{"country":"py","city":"Colonia Teniente Farina","coordinates":{"lat":"-25.3","long":"-57.1"}},{"country":"py","city":"Colonia Teniente Rojas","coordinates":{"lat":"-26.333333","long":"-57.183333"}},{"country":"py","city":"Colonia Teniente Tristán A. Zalazar","coordinates":{"lat":"-26.683333","long":"-57.1"}},{"country":"py","city":"Colonia Teniente Tristan","coordinates":{"lat":"-26.683333","long":"-57.1"}},{"country":"py","city":"Colonia Thompson","coordinates":{"lat":"-25.45","long":"-57.5"}},{"country":"py","city":"Colonia Thomson","coordinates":{"lat":"-25.45","long":"-57.5"}},{"country":"py","city":"Colonia Tres Palos","coordinates":{"lat":"-22.45","long":"-55.933333"}},{"country":"py","city":"Colonia Trinacria","coordinates":{"lat":"-24.366667","long":"-56.6"}},{"country":"py","city":"Colonia Tuyu Cué","coordinates":{"lat":"-27.116667","long":"-58.433333"}},{"country":"py","city":"Colonia Valois Rivarola","coordinates":{"lat":"-26.266667","long":"-56.75"}},{"country":"py","city":"Colonia Veinticinco de Diciembre","coordinates":{"lat":"-24.7","long":"-56.55"}},{"country":"py","city":"Colonia Veinticinco de Noviembre","coordinates":{"lat":"-25.483333","long":"-56.5"}},{"country":"py","city":"Colonia Veintiuno de Julio","coordinates":{"lat":"-25.283333","long":"-57.05"}},{"country":"py","city":"Colonia Virgen de Fátima","coordinates":{"lat":"-25.883333","long":"-57.166667"}},{"country":"py","city":"Colonia Volendam","coordinates":{"lat":"-24.25","long":"-57.033333"}},{"country":"py","city":"Colonia Walter Insfran","coordinates":{"lat":"-25.466667","long":"-56.1"}},{"country":"py","city":"Colonia Yacubó","coordinates":{"lat":"-26.283333","long":"-55.983333"}},{"country":"py","city":"Colonia Yacy Corá","coordinates":{"lat":"-24.083333","long":"-54.433333"}},{"country":"py","city":"Colonia Yapepó Isla","coordinates":{"lat":"-26.1","long":"-56.05"}},{"country":"py","city":"Colonia Ybycuí","coordinates":{"lat":"-23.716667","long":"-55.5"}},{"country":"py","city":"Colonia Yby Pé","coordinates":{"lat":"-24.016667","long":"-56.5"}},{"country":"py","city":"Colonia Ybypyté","coordinates":{"lat":"-22.983333","long":"-56"}},{"country":"py","city":"Colonia Yby Yu","coordinates":{"lat":"-22.816667","long":"-55.783333"}},{"country":"py","city":"Colonia Yguazú","coordinates":{"lat":"-25.45","long":"-55"}},{"country":"py","city":"Colonia Yoaijhú","coordinates":{"lat":"-24.266667","long":"-56.483333"}},{"country":"py","city":"Comis","coordinates":{"lat":"-26.05","long":"-55.4"}},{"country":"py","city":"Compañía Cañada","coordinates":{"lat":"-23.305556","long":"-57.254167"}},{"country":"py","city":"Compañia Curuñai","coordinates":{"lat":"-27.1","long":"-56.483333"}},{"country":"py","city":"Compañía Curuzu Nú","coordinates":{"lat":"-23.240556","long":"-57.390556"}},{"country":"py","city":"Compañía Gumersindo Sosa","coordinates":{"lat":"-23.399167","long":"-57.018611"}},{"country":"py","city":"Compañía Laguna","coordinates":{"lat":"-24.983333","long":"-55.05"}},{"country":"py","city":"Compañía Potrero Romero","coordinates":{"lat":"-23.325833","long":"-57.357222"}},{"country":"py","city":"Compañía Resquín Cué","coordinates":{"lat":"-27.25","long":"-56.233333"}},{"country":"py","city":"Compañía Salinas Cué","coordinates":{"lat":"-23.273056","long":"-57.073889"}},{"country":"py","city":"Compañía San Antonio","coordinates":{"lat":"-23.430278","long":"-57.322222"}},{"country":"py","city":"Compañía San Jose","coordinates":{"lat":"-23.937222","long":"-57.063333"}},{"country":"py","city":"Compañía Yhuguá Guazú","coordinates":{"lat":"-23.152222","long":"-57.245556"}},{"country":"py","city":"Compañía Ytú","coordinates":{"lat":"-24.95","long":"-55.2"}},{"country":"py","city":"Compañía Zanja Cué","coordinates":{"lat":"-23.262222","long":"-57.228611"}},{"country":"py","city":"Comparada","coordinates":{"lat":"-24.183333","long":"-57.183333"}},{"country":"py","city":"Comunidad","coordinates":{"lat":"-23.933333","long":"-55.5"}},{"country":"py","city":"Concepción","coordinates":{"lat":"-23.406389","long":"-57.434444"}},{"country":"py","city":"Concordia","coordinates":{"lat":"-24.2","long":"-57.7"}},{"country":"py","city":"Cooperativa Lagerenza","coordinates":{"lat":"-19.7","long":"-60.966667"}},{"country":"py","city":"Cooper","coordinates":{"lat":"-23.05","long":"-57.716667"}},{"country":"py","city":"Corá Cué","coordinates":{"lat":"-25.933333","long":"-57.65"}},{"country":"py","city":"Coratei","coordinates":{"lat":"-27.416667","long":"-56.933333"}},{"country":"py","city":"Coronel Bogado","coordinates":{"lat":"-27.183333","long":"-56.3"}},{"country":"py","city":"Coronel Eugenio A. Garay","coordinates":{"lat":"-25.916667","long":"-56.183333"}},{"country":"py","city":"Coronel Jose F. Bogado","coordinates":{"lat":"-27.183333","long":"-56.3"}},{"country":"py","city":"Coronel Martínez","coordinates":{"lat":"-25.383333","long":"-57.116667"}},{"country":"py","city":"Coronel Martínez","coordinates":{"lat":"-25.75","long":"-56.616667"}},{"country":"py","city":"Coronel Oviedo","coordinates":{"lat":"-25.416667","long":"-56.45"}},{"country":"py","city":"Cororo","coordinates":{"lat":"-23.466667","long":"-56.516667"}},{"country":"py","city":"Corpus Christi","coordinates":{"lat":"-24.033333","long":"-54.833333"}},{"country":"py","city":"Corpus Cristi Viejo","coordinates":{"lat":"-24.083333","long":"-54.933333"}},{"country":"py","city":"Corral","coordinates":{"lat":"-23.433333","long":"-58.5"}},{"country":"py","city":"Corral de los Paraguayos","coordinates":{"lat":"-23.833333","long":"-60.15"}},{"country":"py","city":"Corralito","coordinates":{"lat":"-23.5","long":"-57.65"}},{"country":"py","city":"Corralón","coordinates":{"lat":"-23.533333","long":"-57.933333"}},{"country":"py","city":"Correa","coordinates":{"lat":"-23.4","long":"-60.7"}},{"country":"py","city":"Cosme","coordinates":{"lat":"-25.566667","long":"-56.283333"}},{"country":"py","city":"Costa Barrio","coordinates":{"lat":"-25.683333","long":"-56.583333"}},{"country":"py","city":"Costa","coordinates":{"lat":"-25.016667","long":"-57.516667"}},{"country":"py","city":"Costa Mercado","coordinates":{"lat":"-25.716667","long":"-56.533333"}},{"country":"py","city":"Costa Peña","coordinates":{"lat":"-25.833333","long":"-57"}},{"country":"py","city":"Costa Pucú","coordinates":{"lat":"-26.95","long":"-58.2"}},{"country":"py","city":"Costa Rosado","coordinates":{"lat":"-26.666667","long":"-57.916667"}},{"country":"py","city":"Creyo-cué","coordinates":{"lat":"-25.633333","long":"-56.766667"}},{"country":"py","city":"Cristo Rey","coordinates":{"lat":"-25.566667","long":"-56.666667"}},{"country":"py","city":"Cruce Dolores","coordinates":{"lat":"-25.85","long":"-55.116667"}},{"country":"py","city":"Cruce Margarita","coordinates":{"lat":"-25.633333","long":"-54.983333"}},{"country":"py","city":"Cuatro de Julio","coordinates":{"lat":"-20.133333","long":"-58.183333"}},{"country":"py","city":"Cuatro Mojones","coordinates":{"lat":"-25.333333","long":"-57.583333"}},{"country":"py","city":"Curuguaty","coordinates":{"lat":"-24.516667","long":"-55.7"}},{"country":"py","city":"Curumbatay","coordinates":{"lat":"-24.566667","long":"-55.783333"}},{"country":"py","city":"Curuñai","coordinates":{"lat":"-27.1","long":"-56.483333"}},{"country":"py","city":"Curupaity","coordinates":{"lat":"-27.116667","long":"-58.616667"}},{"country":"py","city":"Curupayty","coordinates":{"lat":"-25.366667","long":"-54.65"}},{"country":"py","city":"Curupayty","coordinates":{"lat":"-26.85","long":"-56.783333"}},{"country":"py","city":"Curupayty","coordinates":{"lat":"-27.116667","long":"-58.616667"}},{"country":"py","city":"Curupayty","coordinates":{"lat":"-20.233333","long":"-58.283333"}},{"country":"py","city":"Curupayty","coordinates":{"lat":"-23.466667","long":"-61.033333"}},{"country":"py","city":"Curuzúabá","coordinates":{"lat":"-27.25","long":"-57.833333"}},{"country":"py","city":"Curuzú","coordinates":{"lat":"-27.133333","long":"-58.65"}},{"country":"py","city":"Delegación de Gobierno","coordinates":{"lat":"-23.5","long":"-58.766667"}},{"country":"py","city":"Delfin","coordinates":{"lat":"-23.25","long":"-57.466667"}},{"country":"py","city":"Delicia","coordinates":{"lat":"-22.9","long":"-61.733333"}},{"country":"py","city":"Delicias","coordinates":{"lat":"-22.9","long":"-61.733333"}},{"country":"py","city":"Deolinda","coordinates":{"lat":"-23.433333","long":"-58.366667"}},{"country":"py","city":"Desmochado","coordinates":{"lat":"-27.116667","long":"-58.1"}},{"country":"py","city":"Desmochados","coordinates":{"lat":"-27.116667","long":"-58.1"}},{"country":"py","city":"Destacamento General P. Colman","coordinates":{"lat":"-20.383333","long":"-60.516667"}},{"country":"py","city":"Destacamento Militar Número Dos Parque Cué","coordinates":{"lat":"-20.216667","long":"-61.8"}},{"country":"py","city":"Diarte","coordinates":{"lat":"-25.816667","long":"-56.833333"}},{"country":"py","city":"Diez Caballos","coordinates":{"lat":"-23.616667","long":"-59.966667"}},{"country":"py","city":"Doctor Botrell","coordinates":{"lat":"-25.583333","long":"-56.316667"}},{"country":"py","city":"Doctor Cecilio Báez","coordinates":{"lat":"-25.05","long":"-56.316667"}},{"country":"py","city":"Doctor J. León Mallorquín","coordinates":{"lat":"-25.4","long":"-55.266667"}},{"country":"py","city":"Doctor Juan León Mallorquín","coordinates":{"lat":"-25.4","long":"-55.266667"}},{"country":"py","city":"Doctor Juan Manuel Frutos","coordinates":{"lat":"-25.366667","long":"-55.8"}},{"country":"py","city":"Doctor Juan M. Frutos","coordinates":{"lat":"-25.366667","long":"-55.8"}},{"country":"py","city":"Doctor Pedro P. Peña","coordinates":{"lat":"-22.45","long":"-62.35"}},{"country":"py","city":"Doctor Raúl Peña","coordinates":{"lat":"-26.1","long":"-55.183333"}},{"country":"py","city":"Dolores","coordinates":{"lat":"-26.366667","long":"-55.883333"}},{"country":"py","city":"Domingo M. Irala","coordinates":{"lat":"-25.9","long":"-54.716667"}},{"country":"py","city":"Dorado","coordinates":{"lat":"-21.616667","long":"-61.916667"}},{"country":"py","city":"Dos Hermanas","coordinates":{"lat":"-25.233333","long":"-54.5"}},{"country":"py","city":"Dos Tuscas","coordinates":{"lat":"-22.916667","long":"-61.85"}},{"country":"py","city":"Duarte","coordinates":{"lat":"-25.816667","long":"-56.833333"}},{"country":"py","city":"Edelira","coordinates":{"lat":"-26.75","long":"-55.266667"}},{"country":"py","city":"El Atajado","coordinates":{"lat":"-22.1","long":"-62.366667"}},{"country":"py","city":"El Cuervo","coordinates":{"lat":"-23.833333","long":"-60.366667"}},{"country":"py","city":"El Galpón","coordinates":{"lat":"-22.566667","long":"-62.216667"}},{"country":"py","city":"El Kastro","coordinates":{"lat":"-22.366667","long":"-62.5"}},{"country":"py","city":"El Mojón","coordinates":{"lat":"-24.033333","long":"-60.383333"}},{"country":"py","city":"El Paraíso","coordinates":{"lat":"-25.833333","long":"-57.8"}},{"country":"py","city":"El Pocito","coordinates":{"lat":"-23.4","long":"-60.883333"}},{"country":"py","city":"El Quemado","coordinates":{"lat":"-24.5","long":"-59.083333"}},{"country":"py","city":"El Rastro","coordinates":{"lat":"-22.333333","long":"-62.483333"}},{"country":"py","city":"El Trébol","coordinates":{"lat":"-25.066667","long":"-57.833333"}},{"country":"py","city":"Elvira","coordinates":{"lat":"-23.933333","long":"-57.75"}},{"country":"py","city":"Emboscada","coordinates":{"lat":"-25.15","long":"-57.35"}},{"country":"py","city":"Emiliano","coordinates":{"lat":"-24.933333","long":"-57.266667"}},{"country":"py","city":"Encarnación","coordinates":{"lat":"-27.333333","long":"-55.9"}},{"country":"py","city":"Enramadita","coordinates":{"lat":"-26.166667","long":"-55.683333"}},{"country":"py","city":"Entre Ríos","coordinates":{"lat":"-23.033333","long":"-61.933333"}},{"country":"py","city":"Escobar","coordinates":{"lat":"-25.65","long":"-57.016667"}},{"country":"py","city":"Escobar","coordinates":{"lat":"-22.3","long":"-61.316667"}},{"country":"py","city":"Esmeralda","coordinates":{"lat":"-23.616667","long":"-58.466667"}},{"country":"py","city":"Espectro","coordinates":{"lat":"-22.483333","long":"-61.45"}},{"country":"py","city":"Esperanza","coordinates":{"lat":"-22.333333","long":"-56.133333"}},{"country":"py","city":"Esperanza","coordinates":{"lat":"-20.433333","long":"-58.1"}},{"country":"py","city":"Espinilla","coordinates":{"lat":"-25.183333","long":"-57.766667"}},{"country":"py","city":"Espinillar","coordinates":{"lat":"-25.183333","long":"-57.766667"}},{"country":"py","city":"Espinillo","coordinates":{"lat":"-27.183333","long":"-57.2"}},{"country":"py","city":"Espinillo","coordinates":{"lat":"-25","long":"-57.95"}},{"country":"py","city":"Esquina","coordinates":{"lat":"-23.533333","long":"-58.083333"}},{"country":"py","city":"Establecimento Ñanducuá","coordinates":{"lat":"-22.966667","long":"-56.683333"}},{"country":"py","city":"Establecimento Randacua","coordinates":{"lat":"-22.966667","long":"-56.683333"}},{"country":"py","city":"Establecimiento Aquino Puentecito","coordinates":{"lat":"-25.283333","long":"-55.95"}},{"country":"py","city":"Establecimiento Cabañas","coordinates":{"lat":"-26.4","long":"-56.883333"}},{"country":"py","city":"Establecimiento Ganadero Torocay","coordinates":{"lat":"-25.283333","long":"-55.916667"}},{"country":"py","city":"Establecimiento Kenneth","coordinates":{"lat":"-26.15","long":"-56.733333"}},{"country":"py","city":"Establecimiento La Norma","coordinates":{"lat":"-25.633333","long":"-57.15"}},{"country":"py","city":"Establecimiento Mil","coordinates":{"lat":"-22.366667","long":"-62.266667"}},{"country":"py","city":"Establecimiento Noguera","coordinates":{"lat":"-26.283333","long":"-56.816667"}},{"country":"py","city":"Establecimiento Ortiz","coordinates":{"lat":"-26.15","long":"-56.783333"}},{"country":"py","city":"Establecimiento Primavera","coordinates":{"lat":"-25.033333","long":"-56.983333"}},{"country":"py","city":"Establecimiento Sanaóría","coordinates":{"lat":"-26.283333","long":"-56.966667"}},{"country":"py","city":"Establecimiento San José","coordinates":{"lat":"-26.866667","long":"-56.9"}},{"country":"py","city":"Establecimiento San Luis","coordinates":{"lat":"-26.933333","long":"-56.95"}},{"country":"py","city":"Establecimito Juan Benitez","coordinates":{"lat":"-27.1","long":"-56.316667"}},{"country":"py","city":"Establicimiento Santa Irene","coordinates":{"lat":"-25.1","long":"-56.166667"}},{"country":"py","city":"Estación Charara","coordinates":{"lat":"-25.916667","long":"-56.183333"}},{"country":"py","city":"Estación Isla Corazón","coordinates":{"lat":"-21.066667","long":"-58.4"}},{"country":"py","city":"Estación José Fassardi","coordinates":{"lat":"-25.95","long":"-56.1"}},{"country":"py","city":"Estación San Salvador","coordinates":{"lat":"-25.9","long":"-56.483333"}},{"country":"py","city":"Estancia Adelina","coordinates":{"lat":"-22.066667","long":"-59.1"}},{"country":"py","city":"Estancia Agatapé","coordinates":{"lat":"-26.116667","long":"-58.05"}},{"country":"py","city":"Estancia Agualinda","coordinates":{"lat":"-23.883333","long":"-59.983333"}},{"country":"py","city":"Estancia Aguaray-mí","coordinates":{"lat":"-23.566667","long":"-56.316667"}},{"country":"py","city":"Estancia Aguirre","coordinates":{"lat":"-26.833333","long":"-57.55"}},{"country":"py","city":"Estancia Alambre Tuajhá","coordinates":{"lat":"-23.116667","long":"-56.366667"}},{"country":"py","city":"Estancia Albardón","coordinates":{"lat":"-26.833333","long":"-57.466667"}},{"country":"py","city":"Estancia Alborada","coordinates":{"lat":"-23.666667","long":"-58.383333"}},{"country":"py","city":"Estancia Alegría","coordinates":{"lat":"-24.7","long":"-57.616667"}},{"country":"py","city":"Estancia Alfonso XIII","coordinates":{"lat":"-25.65","long":"-57.083333"}},{"country":"py","city":"Estancia Algarrobo","coordinates":{"lat":"-24.583333","long":"-58.133333"}},{"country":"py","city":"Estancia Alina","coordinates":{"lat":"-24.616667","long":"-58.016667"}},{"country":"py","city":"Estancia Amalia","coordinates":{"lat":"-22.583333","long":"-59.15"}},{"country":"py","city":"Estancia Ana Berta","coordinates":{"lat":"-24.3","long":"-58.133333"}},{"country":"py","city":"Estancia Andrada","coordinates":{"lat":"-25.3","long":"-56.566667"}},{"country":"py","city":"Estancia Anguá","coordinates":{"lat":"-26.883333","long":"-57.4"}},{"country":"py","city":"Estancia Antonio Maki","coordinates":{"lat":"-25.216667","long":"-57.05"}},{"country":"py","city":"Estancia Anuncia","coordinates":{"lat":"-24.283333","long":"-57.15"}},{"country":"py","city":"Estancia Apsa","coordinates":{"lat":"-26.016667","long":"-56.75"}},{"country":"py","city":"Estancia Aquino-cué","coordinates":{"lat":"-26.533333","long":"-58.283333"}},{"country":"py","city":"Estancia Aquino","coordinates":{"lat":"-26.966667","long":"-57.9"}},{"country":"py","city":"Estancia Arámbulo","coordinates":{"lat":"-22.8","long":"-56.566667"}},{"country":"py","city":"Estancia Ararapó","coordinates":{"lat":"-21.316667","long":"-61.133333"}},{"country":"py","city":"Estancia Ardeba","coordinates":{"lat":"-22.9","long":"-56.55"}},{"country":"py","city":"Estancia Armonia","coordinates":{"lat":"-23.683333","long":"-58.933333"}},{"country":"py","city":"Estancia Arroyo Blanco","coordinates":{"lat":"-23.216667","long":"-56.116667"}},{"country":"py","city":"Estancia Arroyo Primero","coordinates":{"lat":"-22.283333","long":"-56.55"}},{"country":"py","city":"Estancia Aurora","coordinates":{"lat":"-23.316667","long":"-58.066667"}},{"country":"py","city":"Estancia Avarenga","coordinates":{"lat":"-27.05","long":"-56.2"}},{"country":"py","city":"Estancia Barbero","coordinates":{"lat":"-24.916667","long":"-57.583333"}},{"country":"py","city":"Estancia Barboza","coordinates":{"lat":"-26.783333","long":"-56.433333"}},{"country":"py","city":"Estancia Barrero","coordinates":{"lat":"-20.966667","long":"-57.883333"}},{"country":"py","city":"Estancia Barrero Grande","coordinates":{"lat":"-21.066667","long":"-58.083333"}},{"country":"py","city":"Estancia Barrios Canal","coordinates":{"lat":"-26.1","long":"-56.85"}},{"country":"py","city":"Estancia Becalde-cué","coordinates":{"lat":"-23.05","long":"-57.45"}},{"country":"py","city":"Estancia Bedoya-cué","coordinates":{"lat":"-22.683333","long":"-56.683333"}},{"country":"py","city":"Estancia Belén-cué","coordinates":{"lat":"-23.766667","long":"-57.05"}},{"country":"py","city":"Estancia Belén","coordinates":{"lat":"-26.416667","long":"-56.583333"}},{"country":"py","city":"Estancia Belén","coordinates":{"lat":"-24.583333","long":"-57.416667"}},{"country":"py","city":"Estancia Bella Vista","coordinates":{"lat":"-25.483333","long":"-56.65"}},{"country":"py","city":"Estancia Bella Vista","coordinates":{"lat":"-23.193889","long":"-57.815833"}},{"country":"py","city":"Estancia Berta","coordinates":{"lat":"-22.55","long":"-61.033333"}},{"country":"py","city":"Estancia Betty","coordinates":{"lat":"-24.55","long":"-58.816667"}},{"country":"py","city":"Estancia Blanca","coordinates":{"lat":"-23.533333","long":"-58.65"}},{"country":"py","city":"Estancia Boca-í","coordinates":{"lat":"-24.55","long":"-58.266667"}},{"country":"py","city":"Estancia Bonanza","coordinates":{"lat":"-23.883333","long":"-59.4"}},{"country":"py","city":"Estancia Boquerón","coordinates":{"lat":"-26.416667","long":"-56.183333"}},{"country":"py","city":"Estancia Borja","coordinates":{"lat":"-26.75","long":"-56.85"}},{"country":"py","city":"Estancia Bottrell","coordinates":{"lat":"-25.3","long":"-56.516667"}},{"country":"py","city":"Estancia Bretona","coordinates":{"lat":"-23.315","long":"-57.565"}},{"country":"py","city":"Estancia Brusqueti","coordinates":{"lat":"-21.25","long":"-61.3"}},{"country":"py","city":"Estancia Buena Suerte","coordinates":{"lat":"-23.766667","long":"-59.133333"}},{"country":"py","city":"Estancia Buena Vista","coordinates":{"lat":"-26.583333","long":"-57.066667"}},{"country":"py","city":"Estancia Buena Vista","coordinates":{"lat":"-22.933333","long":"-58.466667"}},{"country":"py","city":"Estancia Buena Vista","coordinates":{"lat":"-19.916667","long":"-58.2"}},{"country":"py","city":"Estancia Caa Cara-í","coordinates":{"lat":"-27.2","long":"-56.833333"}},{"country":"py","city":"Estancia Caá Corá","coordinates":{"lat":"-26.666667","long":"-56.8"}},{"country":"py","city":"Estancia Caacupe","coordinates":{"lat":"-20.333333","long":"-58.533333"}},{"country":"py","city":"Estancia Caa Poí","coordinates":{"lat":"-26.5","long":"-56.983333"}},{"country":"py","city":"Estancia Caapucú-mí","coordinates":{"lat":"-26.916667","long":"-57.15"}},{"country":"py","city":"Estancia Caaty Cue","coordinates":{"lat":"-26.7","long":"-56.75"}},{"country":"py","city":"Estancia Caatygue","coordinates":{"lat":"-26.7","long":"-56.75"}},{"country":"py","city":"Estancia Caballero","coordinates":{"lat":"-26.65","long":"-56.916667"}},{"country":"py","city":"Estancia Cabañas","coordinates":{"lat":"-22.866667","long":"-57.65"}},{"country":"py","city":"Estancia Cabaraí","coordinates":{"lat":"-20.316667","long":"-58.35"}},{"country":"py","city":"Estancia Cabeza de Tigre","coordinates":{"lat":"-23.383333","long":"-59.533333"}},{"country":"py","city":"Estancia Cabral Cué","coordinates":{"lat":"-26.783333","long":"-56.8"}},{"country":"py","city":"Estancia Caceres Cué","coordinates":{"lat":"-22.983333","long":"-58.233333"}},{"country":"py","city":"Estancia Cagatá","coordinates":{"lat":"-22.916667","long":"-56.25"}},{"country":"py","city":"Estancia Cali","coordinates":{"lat":"-23.067778","long":"-57.003056"}},{"country":"py","city":"Estancia Camalote","coordinates":{"lat":"-26.266667","long":"-57.6"}},{"country":"py","city":"Estancia Campana","coordinates":{"lat":"-23","long":"-55.85"}},{"country":"py","city":"Estancia Campichuelo","coordinates":{"lat":"-21.05","long":"-58.233333"}},{"country":"py","city":"Estancia Campo Aroma","coordinates":{"lat":"-22.183333","long":"-60.066667"}},{"country":"py","city":"Estancia Campo Azul","coordinates":{"lat":"-23.666667","long":"-61.1"}},{"country":"py","city":"Estancia Campo I","coordinates":{"lat":"-22.2","long":"-60.516667"}},{"country":"py","city":"Estancia Campo León","coordinates":{"lat":"-22.566667","long":"-59.5"}},{"country":"py","city":"Estancia Campo Lima","coordinates":{"lat":"-23.25","long":"-60.066667"}},{"country":"py","city":"Estancia Campo Loa","coordinates":{"lat":"-22.35","long":"-60.5"}},{"country":"py","city":"Estancia Campo Sastre","coordinates":{"lat":"-22","long":"-58.516667"}},{"country":"py","city":"Estancia Caña de Castilla","coordinates":{"lat":"-24.4","long":"-58.583333"}},{"country":"py","city":"Estancia Cañaverales","coordinates":{"lat":"-22.266667","long":"-58.8"}},{"country":"py","city":"Estancia Cañete Cué","coordinates":{"lat":"-26.516667","long":"-56.9"}},{"country":"py","city":"Estancia Capiípobó","coordinates":{"lat":"-24.816667","long":"-57.216667"}},{"country":"py","city":"Estancia Capitán Carmelo Peralta","coordinates":{"lat":"-20.1","long":"-58.183333"}},{"country":"py","city":"Estancia Capurro","coordinates":{"lat":"-26.7","long":"-56.85"}},{"country":"py","city":"Estancia Caracol","coordinates":{"lat":"-22.3","long":"-57.016667"}},{"country":"py","city":"Estancia Carai","coordinates":{"lat":"-27.2","long":"-56.833333"}},{"country":"py","city":"Estancia Carambola","coordinates":{"lat":"-24.366667","long":"-58.366667"}},{"country":"py","city":"Estancia Carandayty","coordinates":{"lat":"-25.1","long":"-57.4"}},{"country":"py","city":"Estancia Cara ü","coordinates":{"lat":"-22.983333","long":"-59.5"}},{"country":"py","city":"Estancia Carayá","coordinates":{"lat":"-25.616667","long":"-57.233333"}},{"country":"py","city":"Estancia Carayá Vuelta","coordinates":{"lat":"-23.121667","long":"-57.6375"}},{"country":"py","city":"Estancia Cardús","coordinates":{"lat":"-25.733333","long":"-57.116667"}},{"country":"py","city":"Estancia Caridad","coordinates":{"lat":"-23.783333","long":"-59.316667"}},{"country":"py","city":"Estancia Carmelita","coordinates":{"lat":"-26.733333","long":"-57.283333"}},{"country":"py","city":"Estancia Carmencita","coordinates":{"lat":"-24.1","long":"-58.866667"}},{"country":"py","city":"Estancia Carumbé","coordinates":{"lat":"-25.55","long":"-56.666667"}},{"country":"py","city":"Estancia Cascada","coordinates":{"lat":"-22.533333","long":"-56.233333"}},{"country":"py","city":"Estancia Casilda","coordinates":{"lat":"-22.216667","long":"-57.933333"}},{"country":"py","city":"Estancia Casualidad","coordinates":{"lat":"-22.983333","long":"-59.833333"}},{"country":"py","city":"Estancia Casualidad","coordinates":{"lat":"-21.05","long":"-58.116667"}},{"country":"py","city":"Estancia Casuarina","coordinates":{"lat":"-22.916667","long":"-59.966667"}},{"country":"py","city":"Estancia Catorce de Mayo","coordinates":{"lat":"-22.833333","long":"-58.283333"}},{"country":"py","city":"Estancia Cazal Cué","coordinates":{"lat":"-22.866667","long":"-56.816667"}},{"country":"py","city":"Estancia Ceibo","coordinates":{"lat":"-22.966667","long":"-59.583333"}},{"country":"py","city":"Estancia Celia","coordinates":{"lat":"-24.516667","long":"-57.1"}},{"country":"py","city":"Estancia Centurión","coordinates":{"lat":"-22.3","long":"-57.55"}},{"country":"py","city":"Estancia Cerrito Amakera","coordinates":{"lat":"-23.783333","long":"-58.983333"}},{"country":"py","city":"Estancia Cerrito","coordinates":{"lat":"-26.9","long":"-56.483333"}},{"country":"py","city":"Estancia Cerrito","coordinates":{"lat":"-26.933333","long":"-57.133333"}},{"country":"py","city":"Estancia Cerrito","coordinates":{"lat":"-23.680833","long":"-57.756667"}},{"country":"py","city":"Estancia Cerrito Jara","coordinates":{"lat":"-19.766667","long":"-58.2"}},{"country":"py","city":"Estancia Cerro Corá","coordinates":{"lat":"-22.9","long":"-56.7"}},{"country":"py","city":"Estancia Cerro Corá","coordinates":{"lat":"-20.283333","long":"-58.283333"}},{"country":"py","city":"Estancia Cerro Memby","coordinates":{"lat":"-22.983333","long":"-56.45"}},{"country":"py","city":"Estancia Chamacoco","coordinates":{"lat":"-21.9","long":"-58.983333"}},{"country":"py","city":"Estancia Chovoreca","coordinates":{"lat":"-20.85","long":"-59.1"}},{"country":"py","city":"Estancia Ciervo","coordinates":{"lat":"-24.45","long":"-57.983333"}},{"country":"py","city":"Estancia Ciervo","coordinates":{"lat":"-23.7","long":"-56.2"}},{"country":"py","city":"Estancia Clarita","coordinates":{"lat":"-24.65","long":"-58.766667"}},{"country":"py","city":"Estancia Coco Laguna","coordinates":{"lat":"-21.816667","long":"-58.666667"}},{"country":"py","city":"Estancia Coé Puajhú","coordinates":{"lat":"-20.666667","long":"-61.95"}},{"country":"py","city":"Estancia Coeyú","coordinates":{"lat":"-23.930833","long":"-57.733889"}},{"country":"py","city":"Estancia Colón","coordinates":{"lat":"-23.195833","long":"-57.603889"}},{"country":"py","city":"Estancia Colo ó","coordinates":{"lat":"-23.65","long":"-55.7"}},{"country":"py","city":"Estancia Concepción","coordinates":{"lat":"-26.75","long":"-56.766667"}},{"country":"py","city":"Estancia Copacar","coordinates":{"lat":"-25.166667","long":"-57.566667"}},{"country":"py","city":"Estancia Cora-í","coordinates":{"lat":"-22.9","long":"-59"}},{"country":"py","city":"Estancia Corazón","coordinates":{"lat":"-21.066667","long":"-58.4"}},{"country":"py","city":"Estancia Corralito","coordinates":{"lat":"-22.75","long":"-56.683333"}},{"country":"py","city":"Estancia Corralito","coordinates":{"lat":"-24.583333","long":"-58.216667"}},{"country":"py","city":"Estancia Corralón","coordinates":{"lat":"-23.533333","long":"-57.933333"}},{"country":"py","city":"Estancia Cuarenta","coordinates":{"lat":"-20.666667","long":"-58"}},{"country":"py","city":"Estancia Cuatro Ciervo","coordinates":{"lat":"-24.966667","long":"-58.033333"}},{"country":"py","city":"Estancia Cuatro de Mayo","coordinates":{"lat":"-23.586944","long":"-57.137222"}},{"country":"py","city":"Estancia Cunataí","coordinates":{"lat":"-21.566667","long":"-57.966667"}},{"country":"py","city":"Estancia Curupayty","coordinates":{"lat":"-20.233333","long":"-58.283333"}},{"country":"py","city":"Estancia Curuzu","coordinates":{"lat":"-24.366667","long":"-56.183333"}},{"country":"py","city":"Estancia del Carmen","coordinates":{"lat":"-23.033333","long":"-58.933333"}},{"country":"py","city":"Estancia Delfín","coordinates":{"lat":"-23.25","long":"-57.466667"}},{"country":"py","city":"Estancia Delia Clara","coordinates":{"lat":"-25.7","long":"-57.166667"}},{"country":"py","city":"Estancia del Medio","coordinates":{"lat":"-24.033333","long":"-57.5"}},{"country":"py","city":"Estancia del Socorro","coordinates":{"lat":"-21.329444","long":"-61.226389"}},{"country":"py","city":"Estancia Deolinda","coordinates":{"lat":"-23.433333","long":"-58.366667"}},{"country":"py","city":"Estancia Diana","coordinates":{"lat":"-23.711111","long":"-57.894444"}},{"country":"py","city":"Estancia Dojavina","coordinates":{"lat":"-21.516667","long":"-61.183333"}},{"country":"py","city":"Estancia Doldán","coordinates":{"lat":"-26.733333","long":"-56.433333"}},{"country":"py","city":"Estancia Don Felipe Feltes","coordinates":{"lat":"-21.166667","long":"-58.766667"}},{"country":"py","city":"Estancia Dos Banderas","coordinates":{"lat":"-22.45","long":"-60.35"}},{"country":"py","city":"Estancia Douglas","coordinates":{"lat":"-23.383333","long":"-59.533333"}},{"country":"py","city":"Estancia Duarte Cué","coordinates":{"lat":"-22.433333","long":"-56.583333"}},{"country":"py","city":"Estancia El Buen Amigo","coordinates":{"lat":"-23.55","long":"-58.783333"}},{"country":"py","city":"Estancia El Dorado","coordinates":{"lat":"-21.316667","long":"-61.583333"}},{"country":"py","city":"Estancia Eleonora","coordinates":{"lat":"-22.083333","long":"-61.6"}},{"country":"py","city":"Estancia El Pampero","coordinates":{"lat":"-21.003889","long":"-61.772222"}},{"country":"py","city":"Estancia El Pinar","coordinates":{"lat":"-24.433333","long":"-55.466667"}},{"country":"py","city":"Estancia Elvira","coordinates":{"lat":"-23.933333","long":"-57.75"}},{"country":"py","city":"Estancia Eriana","coordinates":{"lat":"-21.433056","long":"-61.384444"}},{"country":"py","city":"Estancia Escobar","coordinates":{"lat":"-21.583333","long":"-60.216667"}},{"country":"py","city":"Estancia Esperanza","coordinates":{"lat":"-23.416667","long":"-57.983333"}},{"country":"py","city":"Estancia Esperanza","coordinates":{"lat":"-21.216667","long":"-58.233333"}},{"country":"py","city":"Estancia Espinillo","coordinates":{"lat":"-23.984167","long":"-57.939167"}},{"country":"py","city":"Estancia Esteche","coordinates":{"lat":"-25.25","long":"-57.7"}},{"country":"py","city":"Estancia Esther","coordinates":{"lat":"-24.7","long":"-57.683333"}},{"country":"py","city":"Estancia Estrella","coordinates":{"lat":"-24.85","long":"-58.3"}},{"country":"py","city":"Estancia Estrellas","coordinates":{"lat":"-22.166667","long":"-57.7"}},{"country":"py","city":"Estancia Felicidad","coordinates":{"lat":"-24.4","long":"-58.133333"}},{"country":"py","city":"Estancia Felicita","coordinates":{"lat":"-24.4","long":"-58.133333"}},{"country":"py","city":"Estancia Ferko","coordinates":{"lat":"-20.9","long":"-60.266667"}},{"country":"py","city":"Estancia Fernando Silva","coordinates":{"lat":"-22.783333","long":"-59.316667"}},{"country":"py","city":"Estancia Florida","coordinates":{"lat":"-25.133333","long":"-57.016667"}},{"country":"py","city":"Estancia Florida","coordinates":{"lat":"-23.4","long":"-59.233333"}},{"country":"py","city":"Estancia Fontana","coordinates":{"lat":"-24.716667","long":"-58.55"}},{"country":"py","city":"Estancia Fortuna","coordinates":{"lat":"-24.733333","long":"-58.183333"}},{"country":"py","city":"Estancia F. Paredez","coordinates":{"lat":"-24.383333","long":"-58.616667"}},{"country":"py","city":"Estancia Gadea","coordinates":{"lat":"-27.016667","long":"-57.666667"}},{"country":"py","city":"Estancia Galileo","coordinates":{"lat":"-25.066667","long":"-57.85"}},{"country":"py","city":"Estancia Gaona","coordinates":{"lat":"-27.033333","long":"-56.283333"}},{"country":"py","city":"Estancia Garay Cué","coordinates":{"lat":"-22.716667","long":"-57.366667"}},{"country":"py","city":"Estancia Gasory","coordinates":{"lat":"-25.1","long":"-56.833333"}},{"country":"py","city":"Estancia Gauna Cué","coordinates":{"lat":"-22.966667","long":"-57.1"}},{"country":"py","city":"Estancia Gauto-cué","coordinates":{"lat":"-27.233333","long":"-56.766667"}},{"country":"py","city":"Estancia Gavallo","coordinates":{"lat":"-24.116667","long":"-58.8"}},{"country":"py","city":"Estancia Gavilán","coordinates":{"lat":"-22.683333","long":"-56.883333"}},{"country":"py","city":"Estancia General Díaz","coordinates":{"lat":"-24.166667","long":"-57.183333"}},{"country":"py","city":"Estancia General Díaz","coordinates":{"lat":"-21.133333","long":"-58.5"}},{"country":"py","city":"Estancia Golondrina","coordinates":{"lat":"-24.633333","long":"-55.35"}},{"country":"py","city":"Estancia Gómez","coordinates":{"lat":"-20.55","long":"-58.783333"}},{"country":"py","city":"Estancia Gonzalez","coordinates":{"lat":"-23.85","long":"-59.533333"}},{"country":"py","city":"Estancia Graciela","coordinates":{"lat":"-26.933333","long":"-57.316667"}},{"country":"py","city":"Estancia Gran Siete","coordinates":{"lat":"-22.516667","long":"-60.616667"}},{"country":"py","city":"Estancia Guajhó","coordinates":{"lat":"-22.35","long":"-58.2"}},{"country":"py","city":"Estancia Guanes","coordinates":{"lat":"-24.933333","long":"-57.566667"}},{"country":"py","city":"Estancia Guaviray","coordinates":{"lat":"-27.116667","long":"-56.816667"}},{"country":"py","city":"Estancia Guavjray","coordinates":{"lat":"-27.116667","long":"-56.816667"}},{"country":"py","city":"Estancia Guayacán","coordinates":{"lat":"-22","long":"-60.25"}},{"country":"py","city":"Estancia Guayaki","coordinates":{"lat":"-24.4","long":"-58.933333"}},{"country":"py","city":"Estancia Guazu Pyta","coordinates":{"lat":"-24.883333","long":"-57.016667"}},{"country":"py","city":"Estancia Hermosa","coordinates":{"lat":"-22.516667","long":"-56.866667"}},{"country":"py","city":"Estancia Hernandarías","coordinates":{"lat":"-21.898611","long":"-61.421111"}},{"country":"py","city":"Estancia Herradura","coordinates":{"lat":"-26.533333","long":"-58.15"}},{"country":"py","city":"Estancia Inmakata","coordinates":{"lat":"-21.1","long":"-58.7"}},{"country":"py","city":"Estancia Irala","coordinates":{"lat":"-26.1","long":"-57.833333"}},{"country":"py","city":"Estancia Isla Alta","coordinates":{"lat":"-26.883333","long":"-57.716667"}},{"country":"py","city":"Estancia Isla Alta","coordinates":{"lat":"-23.683333","long":"-59.466667"}},{"country":"py","city":"Estancia Isla Corazón","coordinates":{"lat":"-21.066667","long":"-58.4"}},{"country":"py","city":"Estancia Isla Saca","coordinates":{"lat":"-20.783333","long":"-59.05"}},{"country":"py","city":"Estancia Isla Sola","coordinates":{"lat":"-22.2","long":"-57.8"}},{"country":"py","city":"Estancia Isla Sombrero","coordinates":{"lat":"-26.483333","long":"-56.633333"}},{"country":"py","city":"Estancia Isla Yovai","coordinates":{"lat":"-22.65","long":"-56.966667"}},{"country":"py","city":"Estancia Itacarú","coordinates":{"lat":"-23.6","long":"-57.116667"}},{"country":"py","city":"Estancia Ita-cuá","coordinates":{"lat":"-26.383333","long":"-57.75"}},{"country":"py","city":"Estancia Ita-cué","coordinates":{"lat":"-26.383333","long":"-57.75"}},{"country":"py","city":"Estancia Itacurubí","coordinates":{"lat":"-23.946944","long":"-57.157778"}},{"country":"py","city":"Estancia Ita Reta","coordinates":{"lat":"-21.283333","long":"-61.566667"}},{"country":"py","city":"Estancia Itati","coordinates":{"lat":"-23.7","long":"-59.85"}},{"country":"py","city":"Estancia Jara-cué","coordinates":{"lat":"-26.466667","long":"-56.8"}},{"country":"py","city":"Estancia José Dolores Genes","coordinates":{"lat":"-25.233333","long":"-57.633333"}},{"country":"py","city":"Estancia Josefina","coordinates":{"lat":"-23.583333","long":"-60.183333"}},{"country":"py","city":"Estancia Kennedy","coordinates":{"lat":"-25.3","long":"-56.716667"}},{"country":"py","city":"Estancia Kilómetro 115","coordinates":{"lat":"-22.716667","long":"-58.733333"}},{"country":"py","city":"Estancia La Abelenda","coordinates":{"lat":"-25.683333","long":"-57.066667"}},{"country":"py","city":"Estancia La Aguada","coordinates":{"lat":"-21.483333","long":"-61.316667"}},{"country":"py","city":"Estancia La Americana","coordinates":{"lat":"-21.05","long":"-58.916667"}},{"country":"py","city":"Estancia La Angelica","coordinates":{"lat":"-24.45","long":"-59.366667"}},{"country":"py","city":"Estancia La Bonita","coordinates":{"lat":"-23.683333","long":"-58.8"}},{"country":"py","city":"Estancia La Chaquena","coordinates":{"lat":"-23.416667","long":"-60.983333"}},{"country":"py","city":"Estancia La Clementina","coordinates":{"lat":"-25.15","long":"-57.166667"}},{"country":"py","city":"Estancia La Concepción","coordinates":{"lat":"-24.433333","long":"-58.066667"}},{"country":"py","city":"Estancia La Cuca","coordinates":{"lat":"-24.133333","long":"-59.15"}},{"country":"py","city":"Estancia La Delicia","coordinates":{"lat":"-23.55","long":"-58.95"}},{"country":"py","city":"Estancia La Esmeralda","coordinates":{"lat":"-21.799722","long":"-61.395556"}},{"country":"py","city":"Estancia La Esperanza","coordinates":{"lat":"-24.533333","long":"-59.016667"}},{"country":"py","city":"Estancia La Esperanza","coordinates":{"lat":"-21.535278","long":"-61.274444"}},{"country":"py","city":"Estancia La Flecha","coordinates":{"lat":"-24.666667","long":"-58.65"}},{"country":"py","city":"Estancia La Golondrina","coordinates":{"lat":"-24.516667","long":"-58.666667"}},{"country":"py","city":"Estancia Laguna Bella","coordinates":{"lat":"-24.383333","long":"-59.183333"}},{"country":"py","city":"Estancia Laguna Chancho","coordinates":{"lat":"-24.783333","long":"-58.533333"}},{"country":"py","city":"Estancia Laguna","coordinates":{"lat":"-23.483333","long":"-61.316667"}},{"country":"py","city":"Estancia Laguna León","coordinates":{"lat":"-21.416667","long":"-58.75"}},{"country":"py","city":"Estancia Laguna Negra","coordinates":{"lat":"-23.066667","long":"-57.116667"}},{"country":"py","city":"Estancia Laguna Porá","coordinates":{"lat":"-22.333333","long":"-59.433333"}},{"country":"py","city":"Estancia Laguna Rey","coordinates":{"lat":"-22.883333","long":"-58.716667"}},{"country":"py","city":"Estancia Laguna Sola","coordinates":{"lat":"-23.366667","long":"-58.483333"}},{"country":"py","city":"Estancia Laguna Verde","coordinates":{"lat":"-23.95","long":"-59.816667"}},{"country":"py","city":"Estancia Lagunita","coordinates":{"lat":"-25.266667","long":"-55.933333"}},{"country":"py","city":"Estancia La Lechiguana","coordinates":{"lat":"-23.416667","long":"-60.933333"}},{"country":"py","city":"Estancia La Madelón","coordinates":{"lat":"-21.267778","long":"-61.611944"}},{"country":"py","city":"Estancia La Mariposa","coordinates":{"lat":"-21.721944","long":"-61.346944"}},{"country":"py","city":"Estancia Lamber","coordinates":{"lat":"-24.683333","long":"-58.016667"}},{"country":"py","city":"Estancia La Mocha","coordinates":{"lat":"-23.973333","long":"-57.6775"}},{"country":"py","city":"Estancia La Nena","coordinates":{"lat":"-23.933333","long":"-58.883333"}},{"country":"py","city":"Estancia La Novia","coordinates":{"lat":"-22.983333","long":"-57.733333"}},{"country":"py","city":"Estancia La Patria","coordinates":{"lat":"-21.417778","long":"-61.433611"}},{"country":"py","city":"Estancia La Patricia","coordinates":{"lat":"-21.278056","long":"-61.033889"}},{"country":"py","city":"Estancia La Querencia","coordinates":{"lat":"-24.566667","long":"-58.816667"}},{"country":"py","city":"Estancia Las Casnarinas","coordinates":{"lat":"-27.083333","long":"-56.8"}},{"country":"py","city":"Estancia La Selva","coordinates":{"lat":"-22.916667","long":"-59.133333"}},{"country":"py","city":"Estancia Las Isidoras","coordinates":{"lat":"-24.1","long":"-59.65"}},{"country":"py","city":"Estancia Las Mellizas","coordinates":{"lat":"-23.433333","long":"-55.883333"}},{"country":"py","city":"Estancia Las Mellizas","coordinates":{"lat":"-22.716667","long":"-58.966667"}},{"country":"py","city":"Estancia Las Palmas","coordinates":{"lat":"-25.9","long":"-57.716667"}},{"country":"py","city":"Estancia Las Palmas","coordinates":{"lat":"-26.3","long":"-56.866667"}},{"country":"py","city":"Estancia Las Palmas","coordinates":{"lat":"-24","long":"-59.15"}},{"country":"py","city":"Estancia Las Perlas","coordinates":{"lat":"-23.833333","long":"-59.15"}},{"country":"py","city":"Estancia Las Rosas","coordinates":{"lat":"-25.733333","long":"-57.2"}},{"country":"py","city":"Estancia La Susana","coordinates":{"lat":"-25.133333","long":"-57.2"}},{"country":"py","city":"Estancia La Unión","coordinates":{"lat":"-23.65","long":"-58.366667"}},{"country":"py","city":"Estancia Laurel","coordinates":{"lat":"-27.183333","long":"-56.566667"}},{"country":"py","city":"Estancia La Ventura","coordinates":{"lat":"-21.933333","long":"-60.716667"}},{"country":"py","city":"Estancia La Victoria","coordinates":{"lat":"-22.9","long":"-56.266667"}},{"country":"py","city":"Estancia La Victoria","coordinates":{"lat":"-22.983333","long":"-59.15"}},{"country":"py","city":"Estancia La Victoria","coordinates":{"lat":"-22.65","long":"-61.4"}},{"country":"py","city":"Estancia Lavista","coordinates":{"lat":"-27.233333","long":"-56.233333"}},{"country":"py","city":"Estancia Ledesma","coordinates":{"lat":"-23.623333","long":"-57.955833"}},{"country":"py","city":"Estancia Locatti","coordinates":{"lat":"-24.3","long":"-59.116667"}},{"country":"py","city":"Estancia Loma","coordinates":{"lat":"-25.583333","long":"-56.516667"}},{"country":"py","city":"Estancia Loma","coordinates":{"lat":"-26.816667","long":"-56.466667"}},{"country":"py","city":"Estancia Loma","coordinates":{"lat":"-26.55","long":"-57.783333"}},{"country":"py","city":"Estancia Loma Porá","coordinates":{"lat":"-22.55","long":"-57.383333"}},{"country":"py","city":"Estancia Loma Pora","coordinates":{"lat":"-23.516667","long":"-57.516667"}},{"country":"py","city":"Estancia Loma Pytá","coordinates":{"lat":"-23.566667","long":"-59.566667"}},{"country":"py","city":"Estancia Lomas","coordinates":{"lat":"-24.266667","long":"-58"}},{"country":"py","city":"Estancia Lomas","coordinates":{"lat":"-24.616667","long":"-57.116667"}},{"country":"py","city":"Estancia Loma Verde","coordinates":{"lat":"-23.783333","long":"-56.95"}},{"country":"py","city":"Estancia Lomita","coordinates":{"lat":"-26.533333","long":"-57.9"}},{"country":"py","city":"Estancia Lomita","coordinates":{"lat":"-24.6","long":"-58.366667"}},{"country":"py","city":"Estancia López Cué","coordinates":{"lat":"-25.033333","long":"-57.2"}},{"country":"py","city":"Estancia Lorena","coordinates":{"lat":"-21.379722","long":"-61.260833"}},{"country":"py","city":"Estancia Los Caminantes","coordinates":{"lat":"-22.566667","long":"-60.683333"}},{"country":"py","city":"Estancia Los Cedros","coordinates":{"lat":"-27.15","long":"-56.783333"}},{"country":"py","city":"Estancia Los Gemelos","coordinates":{"lat":"-24.25","long":"-59.533333"}},{"country":"py","city":"Estancia Los Hijos","coordinates":{"lat":"-21.600278","long":"-61.181944"}},{"country":"py","city":"Estancia Los Lapachos","coordinates":{"lat":"-23.3","long":"-58.383333"}},{"country":"py","city":"Estancia Los Laureles","coordinates":{"lat":"-20","long":"-60.666667"}},{"country":"py","city":"Estancia Los Milagros","coordinates":{"lat":"-23.7","long":"-59.7"}},{"country":"py","city":"Estancia Los Sauces","coordinates":{"lat":"-23.25","long":"-61.666667"}},{"country":"py","city":"Estancia Los Tamarindos","coordinates":{"lat":"-23.3025","long":"-57.707778"}},{"country":"py","city":"Estancia Lucipar","coordinates":{"lat":"-23.466667","long":"-56.3"}},{"country":"py","city":"Estancia Lugo Cué","coordinates":{"lat":"-25.083333","long":"-57.216667"}},{"country":"py","city":"Estancia Luis","coordinates":{"lat":"-24.416667","long":"-58.283333"}},{"country":"py","city":"Estancia Machuca-cué","coordinates":{"lat":"-22.716667","long":"-57.083333"}},{"country":"py","city":"Estancia Magallanes","coordinates":{"lat":"-22.783333","long":"-59.15"}},{"country":"py","city":"Estancia Malberti","coordinates":{"lat":"-25.683333","long":"-56.65"}},{"country":"py","city":"Estancia Maldonado","coordinates":{"lat":"-22.716667","long":"-56.816667"}},{"country":"py","city":"Estancia Maldonado","coordinates":{"lat":"-20.4","long":"-58.533333"}},{"country":"py","city":"Estancia Mamo Reí","coordinates":{"lat":"-25.116667","long":"-57.783333"}},{"country":"py","city":"Estancia Mancuello","coordinates":{"lat":"-22.933333","long":"-57.016667"}},{"country":"py","city":"Estancia Margarita","coordinates":{"lat":"-25.133333","long":"-57.233333"}},{"country":"py","city":"Estancia María Auxiliadora","coordinates":{"lat":"-21.294167","long":"-61.165556"}},{"country":"py","city":"Estancia Maria Ester","coordinates":{"lat":"-26.833333","long":"-56.616667"}},{"country":"py","city":"Estancia María Luisa","coordinates":{"lat":"-21.616667","long":"-61.916667"}},{"country":"py","city":"Estancia Maria Stella","coordinates":{"lat":"-26.316667","long":"-56.516667"}},{"country":"py","city":"Estancia María Vicenta","coordinates":{"lat":"-20.983333","long":"-61.433333"}},{"country":"py","city":"Estancia Mari Christie","coordinates":{"lat":"-21.381667","long":"-61.257222"}},{"country":"py","city":"Estancia Marín-Cuú","coordinates":{"lat":"-25.083333","long":"-55.6"}},{"country":"py","city":"Estancia Marlene","coordinates":{"lat":"-23.516667","long":"-58.366667"}},{"country":"py","city":"Estancia Maroma","coordinates":{"lat":"-23.55","long":"-57.9"}},{"country":"py","city":"Estancia Marona","coordinates":{"lat":"-23.55","long":"-57.9"}},{"country":"py","city":"Estancia Marta Ester","coordinates":{"lat":"-26.833333","long":"-56.616667"}},{"country":"py","city":"Estancia Marta Lidia","coordinates":{"lat":"-23.366667","long":"-60.266667"}},{"country":"py","city":"Estancia Martinez","coordinates":{"lat":"-25.133333","long":"-56.366667"}},{"country":"py","city":"Estancia Mary","coordinates":{"lat":"-22.016667","long":"-60.216667"}},{"country":"py","city":"Estancia Mbigua","coordinates":{"lat":"-21.483333","long":"-59.983333"}},{"country":"py","city":"Estancia Mbutu Reta","coordinates":{"lat":"-22.3","long":"-61.3"}},{"country":"py","city":"Estancia Medina-cué","coordinates":{"lat":"-22.733333","long":"-57.016667"}},{"country":"py","city":"Estancia Medina","coordinates":{"lat":"-22.733333","long":"-57.016667"}},{"country":"py","city":"Estancia Millón","coordinates":{"lat":"-22.916667","long":"-59.5"}},{"country":"py","city":"Estancia Mistroll Marcado","coordinates":{"lat":"-23.066667","long":"-61.9"}},{"country":"py","city":"Estancia Molina Cué","coordinates":{"lat":"-25.066667","long":"-56.6"}},{"country":"py","city":"Estancia Montelindo","coordinates":{"lat":"-23.95","long":"-57.2"}},{"country":"py","city":"Estancia Montiel","coordinates":{"lat":"-22.833333","long":"-59.683333"}},{"country":"py","city":"Estancia Morales","coordinates":{"lat":"-25.266667","long":"-56.383333"}},{"country":"py","city":"Estancia Moreno","coordinates":{"lat":"-26.366667","long":"-56.85"}},{"country":"py","city":"Estancia Nanawa","coordinates":{"lat":"-23.466667","long":"-59.733333"}},{"country":"py","city":"Estancia Ñandú","coordinates":{"lat":"-22.55","long":"-60.766667"}},{"country":"py","city":"Estancia Nandypay","coordinates":{"lat":"-25.083333","long":"-56.8"}},{"country":"py","city":"Estancia Napegue","coordinates":{"lat":"-22.916667","long":"-57.5"}},{"country":"py","city":"Estancia Naranjito","coordinates":{"lat":"-23.713611","long":"-57.935"}},{"country":"py","city":"Estancia Navidad","coordinates":{"lat":"-23.833333","long":"-58.75"}},{"country":"py","city":"Estancia Nelly Victoria","coordinates":{"lat":"-22.7","long":"-56.133333"}},{"country":"py","city":"Estancia Ninfa","coordinates":{"lat":"-24.783333","long":"-58.333333"}},{"country":"py","city":"Estancia Notice","coordinates":{"lat":"-21.683333","long":"-58.466667"}},{"country":"py","city":"Estancia Nú Apu-á","coordinates":{"lat":"-22.916667","long":"-56.9"}},{"country":"py","city":"Estancia Nueva Alegría","coordinates":{"lat":"-23.55","long":"-59.466667"}},{"country":"py","city":"Estancia Nueva Esperanza","coordinates":{"lat":"-27.083333","long":"-56.983333"}},{"country":"py","city":"Estancia Nuñez","coordinates":{"lat":"-24.8","long":"-55.566667"}},{"country":"py","city":"Estancia Núñez","coordinates":{"lat":"-24.55","long":"-58.416667"}},{"country":"py","city":"Estancia Nú Porá","coordinates":{"lat":"-23.15","long":"-56.316667"}},{"country":"py","city":"Estancia Nú Porá","coordinates":{"lat":"-24.25","long":"-59.6"}},{"country":"py","city":"Estancia Nú Puajhú","coordinates":{"lat":"-23.583333","long":"-59.966667"}},{"country":"py","city":"Estancia Obraje","coordinates":{"lat":"-22.416667","long":"-58.5"}},{"country":"py","city":"Estancia Ocampo-cué","coordinates":{"lat":"-23.933333","long":"-56.966667"}},{"country":"py","city":"Estancia Once de Junio","coordinates":{"lat":"-24.55","long":"-59.016667"}},{"country":"py","city":"Estancia Orihuela","coordinates":{"lat":"-23.416667","long":"-58.666667"}},{"country":"py","city":"Estancia Pablo Rene Mora","coordinates":{"lat":"-27.266667","long":"-56.666667"}},{"country":"py","city":"Estancia Palermo","coordinates":{"lat":"-23.583333","long":"-58.216667"}},{"country":"py","city":"Estancia Palmares","coordinates":{"lat":"-21.916667","long":"-60.75"}},{"country":"py","city":"Estancia Palma Sola","coordinates":{"lat":"-26.133333","long":"-57.066667"}},{"country":"py","city":"Estancia Palo Blanco","coordinates":{"lat":"-24.133333","long":"-58.75"}},{"country":"py","city":"Estancia Palo Santo","coordinates":{"lat":"-22.166667","long":"-59.283333"}},{"country":"py","city":"Estancia Pampero","coordinates":{"lat":"-21.003889","long":"-61.772222"}},{"country":"py","city":"Estancia Paraíso","coordinates":{"lat":"-25.7","long":"-57.1"}},{"country":"py","city":"Estancia Paredes","coordinates":{"lat":"-24.216667","long":"-59.183333"}},{"country":"py","city":"Estancia Paredez","coordinates":{"lat":"-24.383333","long":"-58.616667"}},{"country":"py","city":"Estancia Parirí","coordinates":{"lat":"-25.166667","long":"-57.716667"}},{"country":"py","city":"Estancia Pastora","coordinates":{"lat":"-25.25","long":"-56.616667"}},{"country":"py","city":"Estancia Patria","coordinates":{"lat":"-19.983333","long":"-58.2"}},{"country":"py","city":"Estancia Pedernal","coordinates":{"lat":"-23.783333","long":"-57.166667"}},{"country":"py","city":"Estancia Pilaga","coordinates":{"lat":"-24.5","long":"-58.116667"}},{"country":"py","city":"Estancia Pilagas","coordinates":{"lat":"-24.5","long":"-58.116667"}},{"country":"py","city":"Estancia Pindoty","coordinates":{"lat":"-23.716667","long":"-55.716667"}},{"country":"py","city":"Estancia Pindura-cué","coordinates":{"lat":"-22.85","long":"-56.666667"}},{"country":"py","city":"Estancia Pindura","coordinates":{"lat":"-27.033333","long":"-56.916667"}},{"country":"py","city":"Estancia Pirity","coordinates":{"lat":"-26.933333","long":"-56.333333"}},{"country":"py","city":"Estancia Pirizal","coordinates":{"lat":"-23.366667","long":"-59.766667"}},{"country":"py","city":"Estancia Piroy","coordinates":{"lat":"-21.475556","long":"-61.305"}},{"country":"py","city":"Estancia Pocito","coordinates":{"lat":"-24.266667","long":"-58.616667"}},{"country":"py","city":"Estancia Polvorín","coordinates":{"lat":"-24.7","long":"-58.266667"}},{"country":"py","city":"Estancia Ponderosa","coordinates":{"lat":"-23.95","long":"-59.5"}},{"country":"py","city":"Estancia Porfiria","coordinates":{"lat":"-20.05","long":"-58.15"}},