[{"country":"gr","city":"Aätlí","coordinates":{"lat":"41.2777778","long":"22.7861111"}},{"country":"gr","city":"Abár Kóï","coordinates":{"lat":"40.8680556","long":"22.9047222"}},{"country":"gr","city":"Abdulár","coordinates":{"lat":"39.4833333","long":"22.6"}},{"country":"gr","city":"Acharnae","coordinates":{"lat":"38.0833333","long":"23.7333333"}},{"country":"gr","city":"Acharne","coordinates":{"lat":"38.0833333","long":"23.7333333"}},{"country":"gr","city":"Achatariés","coordinates":{"lat":"39.4577778","long":"21.3194444"}},{"country":"gr","city":"Achelináda","coordinates":{"lat":"39.825","long":"21.8711111"}},{"country":"gr","city":"Acherousía","coordinates":{"lat":"39.2577778","long":"20.5958333"}},{"country":"gr","city":"Achílleion","coordinates":{"lat":"39.5644444","long":"19.905"}},{"country":"gr","city":"Achladéa","coordinates":{"lat":"39.8358333","long":"21.6091667"}},{"country":"gr","city":"Achladéai","coordinates":{"lat":"39.4522222","long":"20.7727778"}},{"country":"gr","city":"Achladiá","coordinates":{"lat":"39.8358333","long":"21.6091667"}},{"country":"gr","city":"Achladiés","coordinates":{"lat":"39.4522222","long":"20.7727778"}},{"country":"gr","city":"Achladochório","coordinates":{"lat":"40.8352778","long":"22.3358333"}},{"country":"gr","city":"Achladochórion","coordinates":{"lat":"40.8352778","long":"22.3358333"}},{"country":"gr","city":"Adalí","coordinates":{"lat":"40.4333333","long":"23.0333333"}},{"country":"gr","city":"Adámas","coordinates":{"lat":"38.5","long":"22.9833333"}},{"country":"gr","city":"Adámas","coordinates":{"lat":"36.7333333","long":"24.4333333"}},{"country":"gr","city":"Adás","coordinates":{"lat":"41.1333333","long":"24.7"}},{"country":"gr","city":"Ádendro","coordinates":{"lat":"40.6716667","long":"22.6044444"}},{"country":"gr","city":"Ádendron","coordinates":{"lat":"40.6716667","long":"22.6044444"}},{"country":"gr","city":"Adhám","coordinates":{"lat":"40.55","long":"23.3"}},{"country":"gr","city":"Adhámas","coordinates":{"lat":"38.5","long":"22.9833333"}},{"country":"gr","city":"Adhámas","coordinates":{"lat":"36.7333333","long":"24.4333333"}},{"country":"gr","city":"Adhámi","coordinates":{"lat":"37.5666667","long":"23.0666667"}},{"country":"gr","city":"Adhámioi","coordinates":{"lat":"37.5666667","long":"23.0666667"}},{"country":"gr","city":"Adhámion","coordinates":{"lat":"37.5666667","long":"23.0666667"}},{"country":"gr","city":"Ádhele","coordinates":{"lat":"35.3666667","long":"24.5666667"}},{"country":"gr","city":"Adhelfikón","coordinates":{"lat":"41.0166667","long":"23.4666667"}},{"country":"gr","city":"Ádhendhron","coordinates":{"lat":"40.6716667","long":"22.6044444"}},{"country":"gr","city":"Ádhendron","coordinates":{"lat":"40.6716667","long":"22.6044444"}},{"country":"gr","city":"Adhiákopos","coordinates":{"lat":"36.5666667","long":"23.05"}},{"country":"gr","city":"Adhráktia","coordinates":{"lat":"35.15","long":"25.0333333"}},{"country":"gr","city":"Adhrámilos","coordinates":{"lat":"35.0833333","long":"26.0333333"}},{"country":"gr","city":"Adhravástoi","coordinates":{"lat":"35.1333333","long":"26.2166667"}},{"country":"gr","city":"Adhravástos","coordinates":{"lat":"35.3166667","long":"25.6166667"}},{"country":"gr","city":"Adhrayástos","coordinates":{"lat":"35.3166667","long":"25.6166667"}},{"country":"gr","city":"Adhrianí","coordinates":{"lat":"41.0166667","long":"25.3666667"}},{"country":"gr","city":"Adhrianí","coordinates":{"lat":"41.1333333","long":"24.2666667"}},{"country":"gr","city":"Adhrianí","coordinates":{"lat":"36.8666667","long":"21.8666667"}},{"country":"gr","city":"Adhrianós","coordinates":{"lat":"35.2","long":"25.6166667"}},{"country":"gr","city":"Adhrianoú","coordinates":{"lat":"35.2","long":"25.6166667"}},{"country":"gr","city":"Aedipsos","coordinates":{"lat":"38.8833333","long":"23.05"}},{"country":"gr","city":"Aegae","coordinates":{"lat":"38.7666667","long":"23.3166667"}},{"country":"gr","city":"Aegaleo","coordinates":{"lat":"37.9833333","long":"23.6833333"}},{"country":"gr","city":"Aegina","coordinates":{"lat":"37.7466667","long":"23.4275"}},{"country":"gr","city":"Aegion","coordinates":{"lat":"38.2486111","long":"22.0819444"}},{"country":"gr","city":"Aegium","coordinates":{"lat":"38.2486111","long":"22.0819444"}},{"country":"gr","city":"Aërinón","coordinates":{"lat":"39.3333333","long":"22.7666667"}},{"country":"gr","city":"Aërinós","coordinates":{"lat":"35.3666667","long":"23.6"}},{"country":"gr","city":"Aërokhóri","coordinates":{"lat":"37.1333333","long":"22.0333333"}},{"country":"gr","city":"Aetochóri","coordinates":{"lat":"41.0952778","long":"22.1725"}},{"country":"gr","city":"Aetochóri","coordinates":{"lat":"39.2858333","long":"21.4669444"}},{"country":"gr","city":"Aetochórion","coordinates":{"lat":"41.0952778","long":"22.1725"}},{"country":"gr","city":"Aetochórion","coordinates":{"lat":"39.2858333","long":"21.4669444"}},{"country":"gr","city":"Aëtofoléa","coordinates":{"lat":"37.6166667","long":"25.1166667"}},{"country":"gr","city":"Aëtofoliá","coordinates":{"lat":"37.1","long":"21.85"}},{"country":"gr","city":"Aetofoliá","coordinates":{"lat":"37.6166667","long":"25.1166667"}},{"country":"gr","city":"Aëtokhóri","coordinates":{"lat":"40.9","long":"26.0"}},{"country":"gr","city":"Aëtokhóri","coordinates":{"lat":"41.0952778","long":"22.1725"}},{"country":"gr","city":"Aëtokhórion","coordinates":{"lat":"40.9","long":"26.0"}},{"country":"gr","city":"Aëtokhórion","coordinates":{"lat":"41.0952778","long":"22.1725"}},{"country":"gr","city":"Aëtokhórion","coordinates":{"lat":"37.4","long":"22.6"}},{"country":"gr","city":"Aëtokorifí","coordinates":{"lat":"40.9833333","long":"25.6166667"}},{"country":"gr","city":"Aëtólfos","coordinates":{"lat":"39.6833333","long":"22.7333333"}},{"country":"gr","city":"Aetoliko","coordinates":{"lat":"38.4333333","long":"21.35"}},{"country":"gr","city":"Aëtólofos","coordinates":{"lat":"41.0166667","long":"25.6"}},{"country":"gr","city":"Aëtólofos","coordinates":{"lat":"39.6833333","long":"22.7333333"}},{"country":"gr","city":"Aëtomilítsa","coordinates":{"lat":"40.3069444","long":"20.8538889"}},{"country":"gr","city":"Aëtópetra","coordinates":{"lat":"39.7672222","long":"20.5416667"}},{"country":"gr","city":"Aëtópetra","coordinates":{"lat":"38.6166667","long":"21.6833333"}},{"country":"gr","city":"Aëtorráchi","coordinates":{"lat":"39.52","long":"20.9408333"}},{"country":"gr","city":"Aëtorrákhi","coordinates":{"lat":"39.52","long":"20.9408333"}},{"country":"gr","city":"Aëtorrákhi","coordinates":{"lat":"39.8333333","long":"22.2"}},{"country":"gr","city":"Aëtorrákhi","coordinates":{"lat":"37.6666667","long":"21.9166667"}},{"country":"gr","city":"Aëtós","coordinates":{"lat":"40.6666667","long":"21.55"}},{"country":"gr","city":"Aëtós","coordinates":{"lat":"39.58","long":"20.3966667"}},{"country":"gr","city":"Aëtós","coordinates":{"lat":"39.4622222","long":"21.2833333"}},{"country":"gr","city":"Aëtós","coordinates":{"lat":"38.7166667","long":"21.0833333"}},{"country":"gr","city":"Aëtós","coordinates":{"lat":"38.0166667","long":"24.45"}},{"country":"gr","city":"Aëtós","coordinates":{"lat":"37.25","long":"21.8333333"}},{"country":"gr","city":"Aetovoúni","coordinates":{"lat":"41.2833333","long":"23.25"}},{"country":"gr","city":"Aëtovoúnion","coordinates":{"lat":"41.2833333","long":"23.25"}},{"country":"gr","city":"Afálonas","coordinates":{"lat":"39.1480556","long":"26.5144444"}},{"country":"gr","city":"Afalotí","coordinates":{"lat":"36.5833333","long":"22.4"}},{"country":"gr","city":"Afándou","coordinates":{"lat":"36.3","long":"28.15"}},{"country":"gr","city":"Afántou","coordinates":{"lat":"36.3","long":"28.15"}},{"country":"gr","city":"Afétai","coordinates":{"lat":"39.2833333","long":"23.1833333"}},{"country":"gr","city":"Afídhnai","coordinates":{"lat":"38.2166667","long":"23.8333333"}},{"country":"gr","city":"Afini","coordinates":{"lat":"37.9833333","long":"23.7333333"}},{"country":"gr","city":"Afión","coordinates":{"lat":"39.7208333","long":"19.6594444"}},{"country":"gr","city":"Afiónas","coordinates":{"lat":"39.7208333","long":"19.6594444"}},{"country":"gr","city":"Afisión","coordinates":{"lat":"37.1","long":"22.45"}},{"country":"gr","city":"Áfissos","coordinates":{"lat":"39.2666667","long":"23.1666667"}},{"country":"gr","city":"Afissós","coordinates":{"lat":"37.1","long":"22.45"}},{"country":"gr","city":"Áfitos","coordinates":{"lat":"40.1","long":"23.4333333"}},{"country":"gr","city":"Aflákion","coordinates":{"lat":"36.5586111","long":"27.1755556"}},{"country":"gr","city":"Áfra","coordinates":{"lat":"39.6197222","long":"19.8577778"}},{"country":"gr","city":"Afráta","coordinates":{"lat":"35.5666667","long":"23.7666667"}},{"country":"gr","city":"Afráti","coordinates":{"lat":"38.45","long":"23.6833333"}},{"country":"gr","city":"Afratí","coordinates":{"lat":"35.1","long":"25.35"}},{"country":"gr","city":"Afrátion","coordinates":{"lat":"38.45","long":"23.6833333"}},{"country":"gr","city":"Afrátion","coordinates":{"lat":"35.1","long":"25.35"}},{"country":"gr","city":"Afráton","coordinates":{"lat":"38.6166667","long":"21.5333333"}},{"country":"gr","city":"Afrayiá","coordinates":{"lat":"38.15","long":"20.75"}},{"country":"gr","city":"Afrayiás","coordinates":{"lat":"38.15","long":"20.75"}},{"country":"gr","city":"Afrodhíti","coordinates":{"lat":"38.4","long":"21.8"}},{"country":"gr","city":"Afrodísia","coordinates":{"lat":"38.5544444","long":"25.925"}},{"country":"gr","city":"Afrotí","coordinates":{"lat":"35.1","long":"25.35"}},{"country":"gr","city":"Afroxiliá","coordinates":{"lat":"39.2194444","long":"21.3080556"}},{"country":"gr","city":"Afroxyliá","coordinates":{"lat":"39.2194444","long":"21.3080556"}},{"country":"gr","city":"Agadhaíika","coordinates":{"lat":"36.7333333","long":"22.55"}},{"country":"gr","city":"Agadhéïka","coordinates":{"lat":"36.7333333","long":"22.55"}},{"country":"gr","city":"Agajíki","coordinates":{"lat":"36.8166667","long":"21.75"}},{"country":"gr","city":"Agakianá","coordinates":{"lat":"35.3333333","long":"23.7333333"}},{"country":"gr","city":"Agalaí","coordinates":{"lat":"40.0333333","long":"21.6166667"}},{"country":"gr","city":"Agalaíoi","coordinates":{"lat":"40.0333333","long":"21.6166667"}},{"country":"gr","city":"Agalár","coordinates":{"lat":"41.0666667","long":"24.75"}},{"country":"gr","city":"Agalás","coordinates":{"lat":"37.7166667","long":"20.7833333"}},{"country":"gr","city":"Agalianí","coordinates":{"lat":"37.35","long":"21.7333333"}},{"country":"gr","city":"Agalianós","coordinates":{"lat":"38.8666667","long":"21.6166667"}},{"country":"gr","city":"Agalianós","coordinates":{"lat":"35.1666667","long":"24.5333333"}},{"country":"gr","city":"Agalianoú","coordinates":{"lat":"35.1666667","long":"24.5333333"}},{"country":"gr","city":"Agállo","coordinates":{"lat":"37.5833333","long":"21.95"}},{"country":"gr","city":"Agálo","coordinates":{"lat":"37.5833333","long":"21.95"}},{"country":"gr","city":"Agamandia","coordinates":{"lat":"35.6833333","long":"27.15"}},{"country":"gr","city":"Aganotaíika","coordinates":{"lat":"37.4333333","long":"23.4"}},{"country":"gr","city":"Agantzíki","coordinates":{"lat":"36.8166667","long":"21.75"}},{"country":"gr","city":"Agápi","coordinates":{"lat":"40.0666667","long":"21.5666667"}},{"country":"gr","city":"Agápi","coordinates":{"lat":"41.1","long":"24.3"}},{"country":"gr","city":"Agápi","coordinates":{"lat":"37.6","long":"25.1666667"}},{"country":"gr","city":"Agáthi","coordinates":{"lat":"41.0091667","long":"22.0588889"}},{"country":"gr","city":"Agathó","coordinates":{"lat":"38.1166667","long":"24.5"}},{"country":"gr","city":"Agathón","coordinates":{"lat":"38.1166667","long":"24.5"}},{"country":"gr","city":"Agathós","coordinates":{"lat":"38.1166667","long":"24.5"}},{"country":"gr","city":"Agdhínai","coordinates":{"lat":"38.9666667","long":"23.3"}},{"country":"gr","city":"Agdhínes","coordinates":{"lat":"38.9666667","long":"23.3"}},{"country":"gr","city":"Agelopó","coordinates":{"lat":"38.5822222","long":"25.97"}},{"country":"gr","city":"Aggeies","coordinates":{"lat":"39.1","long":"22.2"}},{"country":"gr","city":"Aghia Eirene","coordinates":{"lat":"37.9666667","long":"24.4833333"}},{"country":"gr","city":"Agía Agáthi","coordinates":{"lat":"39.185","long":"21.7663889"}},{"country":"gr","city":"Agiá","coordinates":{"lat":"39.3130556","long":"20.3552778"}},{"country":"gr","city":"Agiá","coordinates":{"lat":"39.7177778","long":"22.7636111"}},{"country":"gr","city":"(( Agía Aikateríni ))","coordinates":{"lat":"39.8172222","long":"19.845"}},{"country":"gr","city":"Agía Anastasía","coordinates":{"lat":"39.5630556","long":"20.7383333"}},{"country":"gr","city":"Agía Ánna","coordinates":{"lat":"40.4375","long":"21.0813889"}},{"country":"gr","city":"Agía Eleoúsa","coordinates":{"lat":"39.2458333","long":"20.8344444"}},{"country":"gr","city":"(( Agía Eleoúsa ))","coordinates":{"lat":"39.6","long":"19.9"}},{"country":"gr","city":"Agía Ermióni","coordinates":{"lat":"38.3019444","long":"26.1472222"}},{"country":"gr","city":"Agía Faneroméni","coordinates":{"lat":"39.3169444","long":"20.8619444"}},{"country":"gr","city":"Agía Foteiní","coordinates":{"lat":"40.7133333","long":"22.0008333"}},{"country":"gr","city":"Agía Kyriakí","coordinates":{"lat":"41.1175","long":"22.8272222"}},{"country":"gr","city":"Agía Kyriakí","coordinates":{"lat":"40.5263889","long":"21.1216667"}},{"country":"gr","city":"Agía Kyriakí","coordinates":{"lat":"40.2780556","long":"22.1097222"}},{"country":"gr","city":"Agía Kyriakí","coordinates":{"lat":"39.4877778","long":"20.57"}},{"country":"gr","city":"Agía Kyriakí","coordinates":{"lat":"39.2827778","long":"20.4452778"}},{"country":"gr","city":"Agía Kyriakí","coordinates":{"lat":"39.5161111","long":"21.8025"}},{"country":"gr","city":"Agía Kyriakí","coordinates":{"lat":"37.6983333","long":"26.6186111"}},{"country":"gr","city":"Agía Marína","coordinates":{"lat":"40.5977778","long":"22.2152778"}},{"country":"gr","city":"Ágia Marína","coordinates":{"lat":"39.7294444","long":"20.8175"}},{"country":"gr","city":"Agía Marína","coordinates":{"lat":"39.4669444","long":"20.3147222"}},{"country":"gr","city":"Agía Marína","coordinates":{"lat":"35.4","long":"26.9166667"}},{"country":"gr","city":"Agía Marína","coordinates":{"lat":"39.0666667","long":"26.5833333"}},{"country":"gr","city":"Agía Mávra","coordinates":{"lat":"39.4861111","long":"20.4683333"}},{"country":"gr","city":"Agía Paraskeví","coordinates":{"lat":"41.2661111","long":"22.8488889"}},{"country":"gr","city":"Agía Paraskeví","coordinates":{"lat":"40.1425","long":"20.8894444"}},{"country":"gr","city":"(( Agía Paraskeví ))","coordinates":{"lat":"39.7333333","long":"20.5833333"}},{"country":"gr","city":"(( Agía Paraskeví ))","coordinates":{"lat":"39.5166667","long":"20.5666667"}},{"country":"gr","city":"Agía Paraskeví","coordinates":{"lat":"39.3027778","long":"20.8905556"}},{"country":"gr","city":"(( Agía Paraskeví ))","coordinates":{"lat":"39.2833333","long":"20.7"}},{"country":"gr","city":"Agía Paraskeví","coordinates":{"lat":"39.0997222","long":"20.9908333"}},{"country":"gr","city":"Agía Paraskeví","coordinates":{"lat":"39.5683333","long":"21.2577778"}},{"country":"gr","city":"Agía Paraskeví","coordinates":{"lat":"39.0066667","long":"21.9938889"}},{"country":"gr","city":"Agía Paraskeví","coordinates":{"lat":"39.0044444","long":"21.7952778"}},{"country":"gr","city":"Agía Paraskeví","coordinates":{"lat":"37.7791667","long":"26.9933333"}},{"country":"gr","city":"Agía Paraskeví","coordinates":{"lat":"39.2480556","long":"26.2716667"}},{"country":"gr","city":"Agía Pelagía","coordinates":{"lat":"36.3333333","long":"22.9833333"}},{"country":"gr","city":"Agíasma","coordinates":{"lat":"40.9088889","long":"24.6572222"}},{"country":"gr","city":"Agiásmata","coordinates":{"lat":"38.5858333","long":"25.9377778"}},{"country":"gr","city":"Agiásos","coordinates":{"lat":"39.085","long":"26.37"}},{"country":"gr","city":"Agía Sotíra","coordinates":{"lat":"39.0519444","long":"21.1663889"}},{"country":"gr","city":"Agía Thékla","coordinates":{"lat":"38.25","long":"20.3833333"}},{"country":"gr","city":"Agía Thékli","coordinates":{"lat":"38.25","long":"20.3833333"}},{"country":"gr","city":"Agía Triáda","coordinates":{"lat":"40.4994444","long":"22.8761111"}},{"country":"gr","city":"Agía Triáda","coordinates":{"lat":"39.1380556","long":"20.9813889"}},{"country":"gr","city":"Agía Triáda","coordinates":{"lat":"39.4633333","long":"21.8986111"}},{"country":"gr","city":"Agía Triáda","coordinates":{"lat":"39.1205556","long":"21.1905556"}},{"country":"gr","city":"Agía Triás","coordinates":{"lat":"40.5483333","long":"22.4213889"}},{"country":"gr","city":"Agía Triás","coordinates":{"lat":"40.4994444","long":"22.8761111"}},{"country":"gr","city":"Agía Triás","coordinates":{"lat":"39.4361111","long":"20.8869444"}},{"country":"gr","city":"Agía Triás","coordinates":{"lat":"39.1380556","long":"20.9813889"}},{"country":"gr","city":"Agía Triás","coordinates":{"lat":"39.8180556","long":"21.7222222"}},{"country":"gr","city":"Agía Triás","coordinates":{"lat":"39.4633333","long":"21.8986111"}},{"country":"gr","city":"Agía Triás","coordinates":{"lat":"39.0188889","long":"21.1988889"}},{"country":"gr","city":"Agía Varvára","coordinates":{"lat":"40.4927778","long":"22.2433333"}},{"country":"gr","city":"Agía Varvára","coordinates":{"lat":"39.7372222","long":"21.0352778"}},{"country":"gr","city":"Agía Zóni","coordinates":{"lat":"37.7511111","long":"27.0055556"}},{"country":"gr","city":"Agiófyllo","coordinates":{"lat":"39.8613889","long":"21.5536111"}},{"country":"gr","city":"Agiófyllon","coordinates":{"lat":"39.8613889","long":"21.5536111"}},{"country":"gr","city":"Ágioi","coordinates":{"lat":"37.7694444","long":"23.5091667"}},{"country":"gr","city":"Ágioi Anárgyroi","coordinates":{"lat":"39.1397222","long":"21.0258333"}},{"country":"gr","city":"Ágioi Anárgyroi","coordinates":{"lat":"39.4352778","long":"21.8338889"}},{"country":"gr","city":"Ágioi Apóstoloi","coordinates":{"lat":"39.7494444","long":"20.7930556"}},{"country":"gr","city":"Ágioi Apóstoloi","coordinates":{"lat":"39.3047222","long":"20.8002778"}},{"country":"gr","city":"Ágioi Apóstoloi","coordinates":{"lat":"39.2244444","long":"21.4463889"}},{"country":"gr","city":"Ágioi Apóstoloi","coordinates":{"lat":"39.0919444","long":"21.8519444"}},{"country":"gr","city":"Ágioi Déka","coordinates":{"lat":"39.5558333","long":"19.8847222"}},{"country":"gr","city":"Ágioi Doúloi","coordinates":{"lat":"39.745","long":"19.7572222"}},{"country":"gr","city":"(( Ágioi Pántes ))","coordinates":{"lat":"39.5666667","long":"21.0516667"}},{"country":"gr","city":"Ágioi Pántes","coordinates":{"lat":"39.7197222","long":"20.3491667"}},{"country":"gr","city":"Ágioi Theódori","coordinates":{"lat":"37.7472222","long":"26.7286111"}},{"country":"gr","city":"Ágioi Theódoroi","coordinates":{"lat":"39.9777778","long":"21.4994444"}},{"country":"gr","city":"Ágioi Theódoroi","coordinates":{"lat":"40.3708333","long":"22.0205556"}},{"country":"gr","city":"(( Ágioi Theódoroi ))","coordinates":{"lat":"39.4333333","long":"20.95"}},{"country":"gr","city":"Ágioi Theódoroi","coordinates":{"lat":"39.6594444","long":"21.6908333"}},{"country":"gr","city":"Ágioi Theódoroi","coordinates":{"lat":"39.4233333","long":"20.0688889"}},{"country":"gr","city":"Ágioi Theódoroi","coordinates":{"lat":"39.1494444","long":"21.6147222"}},{"country":"gr","city":"Agionéri","coordinates":{"lat":"39.3225","long":"20.7916667"}},{"country":"gr","city":"Ágion Gála","coordinates":{"lat":"38.565","long":"25.8583333"}},{"country":"gr","city":"Agiopigí","coordinates":{"lat":"39.3183333","long":"21.9197222"}},{"country":"gr","city":"Ágios Achílleios","coordinates":{"lat":"40.7841667","long":"21.0808333"}},{"country":"gr","city":"Agios Ahileos","coordinates":{"lat":"40.7841667","long":"21.0808333"}},{"country":"gr","city":"Ágios Aimilianós","coordinates":{"lat":"39.1530556","long":"20.2236111"}},{"country":"gr","city":"Ágios Aimilianós","coordinates":{"lat":"38.2802778","long":"26.11"}},{"country":"gr","city":"Ágios Akákios","coordinates":{"lat":"39.3816667","long":"21.7719444"}},{"country":"gr","city":"Ágios Andréas","coordinates":{"lat":"39.4708333","long":"20.7086111"}},{"country":"gr","city":"Ágios Antónios","coordinates":{"lat":"39.1947222","long":"21.62"}},{"country":"gr","city":"Ágios Antónios","coordinates":{"lat":"36.4586111","long":"27.3186111"}},{"country":"gr","city":"Ágios Arsénios","coordinates":{"lat":"39.5375","long":"20.3994444"}},{"country":"gr","city":"Ágios Athanásios","coordinates":{"lat":"40.7172222","long":"22.7280556"}},{"country":"gr","city":"Ágios Athanásios","coordinates":{"lat":"39.2430556","long":"21.1394444"}},{"country":"gr","city":"Ágios Athanásios","coordinates":{"lat":"39.2813889","long":"21.7802778"}},{"country":"gr","city":"Ágios Athanásios","coordinates":{"lat":"39.7338889","long":"19.7161111"}},{"country":"gr","city":"Ágios Charálampos","coordinates":{"lat":"41.2027778","long":"22.8133333"}},{"country":"gr","city":"Ágios Charálampos","coordinates":{"lat":"39.2897222","long":"21.1286111"}},{"country":"gr","city":"Ágios Christófos","coordinates":{"lat":"39.4141667","long":"20.9191667"}},{"country":"gr","city":"Ágios Dimítrios","coordinates":{"lat":"40.5861111","long":"21.0630556"}},{"country":"gr","city":"Ágios Dimítrios","coordinates":{"lat":"40.1527778","long":"22.2266667"}},{"country":"gr","city":"(( Ágios Dimítrios ))","coordinates":{"lat":"39.5172222","long":"20.675"}},{"country":"gr","city":"(( Ágios Dimítrios ))","coordinates":{"lat":"39.5333333","long":"20.55"}},{"country":"gr","city":"Ágios Dimítrios","coordinates":{"lat":"39.1594444","long":"21.0152778"}},{"country":"gr","city":"(( Ágios Dimítrios ))","coordinates":{"lat":"39.4","long":"21.0833333"}},{"country":"gr","city":"Ágios Dimítrios","coordinates":{"lat":"39.7725","long":"21.5402778"}},{"country":"gr","city":"Ágios Dimítrios","coordinates":{"lat":"39.4605556","long":"19.9491667"}},{"country":"gr","city":"Ágios Dimítrios","coordinates":{"lat":"39.0575","long":"21.6783333"}},{"country":"gr","city":"Ágios Dimítrios","coordinates":{"lat":"36.8536111","long":"27.2238889"}},{"country":"gr","city":"Ágios Dimítrios","coordinates":{"lat":"37.8086111","long":"26.7388889"}},{"country":"gr","city":"Ágios Donátos","coordinates":{"lat":"39.4775","long":"20.5066667"}},{"country":"gr","city":"Ágios Fokás","coordinates":{"lat":"36.8616667","long":"27.3383333"}},{"country":"gr","city":"Ágios Geórgios","coordinates":{"lat":"40.7622222","long":"22.2463889"}},{"country":"gr","city":"Ágios Geórgios","coordinates":{"lat":"39.8680556","long":"21.7572222"}},{"country":"gr","city":"Ágios Geórgios","coordinates":{"lat":"40.6011111","long":"22.1941667"}},{"country":"gr","city":"Ágios Geórgios","coordinates":{"lat":"39.4219444","long":"20.9483333"}},{"country":"gr","city":"(( Ágios Geórgios ))","coordinates":{"lat":"40.1269444","long":"20.7516667"}},{"country":"gr","city":"Ágios Geórgios","coordinates":{"lat":"39.4555556","long":"20.5138889"}},{"country":"gr","city":"Ágios Geórgios","coordinates":{"lat":"39.2669444","long":"20.8533333"}},{"country":"gr","city":"Ágios Geórgios","coordinates":{"lat":"39.3841667","long":"21.1255556"}},{"country":"gr","city":"(( Ágios Geórgios ))","coordinates":{"lat":"39.3666667","long":"21.2166667"}},{"country":"gr","city":"Ágios Geórgios","coordinates":{"lat":"39.4875","long":"21.5427778"}},{"country":"gr","city":"Ágios Geórgios","coordinates":{"lat":"39.2961111","long":"21.8361111"}},{"country":"gr","city":"Ágios Geórgios","coordinates":{"lat":"39.0477778","long":"21.1444444"}},{"country":"gr","city":"Ágios Geórgios","coordinates":{"lat":"36.8494444","long":"27.165"}},{"country":"gr","city":"Ágios Geórgios","coordinates":{"lat":"38.4997222","long":"25.9863889"}},{"country":"gr","city":"Ágios Geórgios Glykorrízou","coordinates":{"lat":"39.1","long":"21.0261111"}},{"country":"gr","city":"Ágios Geórgios Sykoúsis","coordinates":{"lat":"38.3188889","long":"26.0552778"}},{"country":"gr","city":"Ágios Ilías","coordinates":{"lat":"39.7986111","long":"19.8686111"}},{"country":"gr","city":"Ágios Ilías","coordinates":{"lat":"37.8066667","long":"26.7322222"}},{"country":"gr","city":"Agios Ioanis Gigenon","coordinates":{"lat":"40.3263889","long":"22.5258333"}},{"country":"gr","city":"Agios Ioanis Ofis","coordinates":{"lat":"40.3347222","long":"22.5255556"}},{"country":"gr","city":"Ágios Ioánnis","coordinates":{"lat":"40.3263889","long":"22.5258333"}},{"country":"gr","city":"Ágios Ioánnis","coordinates":{"lat":"39.7013889","long":"20.8072222"}},{"country":"gr","city":"Ágios Ioánnis","coordinates":{"lat":"39.2563889","long":"21.1977778"}},{"country":"gr","city":"Ágios Ioánnis","coordinates":{"lat":"39.4383333","long":"21.5647222"}},{"country":"gr","city":"Ágios Ioánnis","coordinates":{"lat":"39.6158333","long":"19.85"}},{"country":"gr","city":"Ágios Ioánnis","coordinates":{"lat":"39.0005556","long":"21.2022222"}},{"country":"gr","city":"Ágios Ioánnis","coordinates":{"lat":"38.2066667","long":"26.0702778"}},{"country":"gr","city":"Ágios Ioánnis Pródromos","coordinates":{"lat":"39.1836111","long":"21.4680556"}},{"country":"gr","city":"Ágios Isídoros","coordinates":{"lat":"38.4611111","long":"26.0269444"}},{"country":"gr","city":"Ágios Kírykos","coordinates":{"lat":"37.6147222","long":"26.2944444"}},{"country":"gr","city":"Ágios Konstantínos","coordinates":{"lat":"37.8058333","long":"26.8152778"}},{"country":"gr","city":"Ágios Kosmás","coordinates":{"lat":"39.67","long":"20.5897222"}},{"country":"gr","city":"Ágios Loukás","coordinates":{"lat":"40.7194444","long":"22.295"}},{"country":"gr","city":"Ágios Márkos","coordinates":{"lat":"39.7075","long":"19.8202778"}},{"country":"gr","city":"Ágios Matthaíos","coordinates":{"lat":"39.4958333","long":"19.8730556"}},{"country":"gr","city":"Ágios Merkoúrios","coordinates":{"lat":"40.2766667","long":"22.0852778"}},{"country":"gr","city":"Ágios Minás","coordinates":{"lat":"39.6955556","long":"21.0233333"}},{"country":"gr","city":"Ágios Nikólaos","coordinates":{"lat":"39.4463889","long":"20.8402778"}},{"country":"gr","city":"Ágios Nikólaos","coordinates":{"lat":"39.7030556","long":"20.3258333"}},{"country":"gr","city":"Ágios Nikólaos","coordinates":{"lat":"39.0394444","long":"20.7602778"}},{"country":"gr","city":"(( Ágios Nikólaos ))","coordinates":{"lat":"39.3333333","long":"20.9"}},{"country":"gr","city":"Ágios Nikólaos","coordinates":{"lat":"39.2811111","long":"21.3905556"}},{"country":"gr","city":"Ágios Nikólaos","coordinates":{"lat":"39.5491667","long":"21.3605556"}},{"country":"gr","city":"Ágios Nikólaos","coordinates":{"lat":"39.4427778","long":"19.9955556"}},{"country":"gr","city":"Ágios Nikólaos","coordinates":{"lat":"37.75","long":"20.7833333"}},{"country":"gr","city":"Ágios Nikólaos","coordinates":{"lat":"39.0555556","long":"21.5838889"}},{"country":"gr","city":"Ágios Nikólaos","coordinates":{"lat":"38.8666667","long":"20.8"}},{"country":"gr","city":"Ágios Nikólaos","coordinates":{"lat":"35.1913889","long":"25.7133333"}},{"country":"gr","city":"Agios Panteleimon","coordinates":{"lat":"39.7752778","long":"19.8213889"}},{"country":"gr","city":"Agios Panteleimon","coordinates":{"lat":"37.7780556","long":"26.6733333"}},{"country":"gr","city":"Ágios Panteleímonas","coordinates":{"lat":"39.4377778","long":"20.3986111"}},{"country":"gr","city":"Ágios Pávlos","coordinates":{"lat":"40.6405556","long":"22.9594444"}},{"country":"gr","city":"Ágios Pétros","coordinates":{"lat":"40.8647222","long":"22.5763889"}},{"country":"gr","city":"Ágios Pétros","coordinates":{"lat":"38.6666667","long":"20.6"}},{"country":"gr","city":"Ágios Prokópios","coordinates":{"lat":"39.4711111","long":"21.5355556"}},{"country":"gr","city":"Ágios Prokópios","coordinates":{"lat":"39.5733333","long":"19.8766667"}},{"country":"gr","city":"Ágios Prokópios","coordinates":{"lat":"39.0180556","long":"21.555"}},{"country":"gr","city":"Ágios Rókkos","coordinates":{"lat":"39.6216667","long":"19.9186111"}},{"country":"gr","city":"Ágios Spyrídon","coordinates":{"lat":"40.2066667","long":"22.4402778"}},{"country":"gr","city":"Ágios Spyrídon","coordinates":{"lat":"39.1444444","long":"20.8630556"}},{"country":"gr","city":"Ágios Spyrídon","coordinates":{"lat":"39.6216667","long":"19.9186111"}},{"country":"gr","city":"(( Ágios Stéfanos ))","coordinates":{"lat":"39.55","long":"20.55"}},{"country":"gr","city":"Ágios Stéfanos","coordinates":{"lat":"39.3363889","long":"21.1605556"}},{"country":"gr","city":"Ágios Stéfanos","coordinates":{"lat":"39.7666667","long":"19.9463889"}},{"country":"gr","city":"Ágios Stéfanos","coordinates":{"lat":"36.7608333","long":"26.9961111"}},{"country":"gr","city":"Ágios Vasíleios","coordinates":{"lat":"39.2830556","long":"21.4208333"}},{"country":"gr","city":"Ágios Vissaríon","coordinates":{"lat":"39.4702778","long":"21.6180556"}},{"country":"gr","city":"Ágios Vlásios","coordinates":{"lat":"39.5569444","long":"20.2838889"}},{"country":"gr","city":"Ágios Vlásios","coordinates":{"lat":"39.2911111","long":"21.2505556"}},{"country":"gr","city":"Ágios Vlásios","coordinates":{"lat":"39.1202778","long":"21.4744444"}},{"country":"gr","city":"Agíou Georgíou","coordinates":{"lat":"39.2669444","long":"20.8533333"}},{"country":"gr","city":"Agíou Niloláou","coordinates":{"lat":"38.8666667","long":"20.8"}},{"country":"gr","city":"Agkathiá","coordinates":{"lat":"40.5558333","long":"22.4708333"}},{"country":"gr","city":"Aglavísta","coordinates":{"lat":"38.5333333","long":"22.1"}},{"country":"gr","city":"Aglavítsa","coordinates":{"lat":"38.5333333","long":"22.1"}},{"country":"gr","city":"Agloudhísta","coordinates":{"lat":"38.5333333","long":"22.1"}},{"country":"gr","city":"Ágnanda","coordinates":{"lat":"39.4741667","long":"21.0783333"}},{"country":"gr","city":"Ágnanda","coordinates":{"lat":"37.8166667","long":"21.6166667"}},{"country":"gr","city":"Agnanderí","coordinates":{"lat":"39.4166667","long":"22.6166667"}},{"country":"gr","city":"Agnanderón","coordinates":{"lat":"39.4872222","long":"21.8455556"}},{"country":"gr","city":"Agnándia","coordinates":{"lat":"40.8833333","long":"25.9833333"}},{"country":"gr","city":"Agnandiá","coordinates":{"lat":"39.8675","long":"21.4655556"}},{"country":"gr","city":"Ágnandi","coordinates":{"lat":"38.7166667","long":"22.8833333"}},{"country":"gr","city":"Agnándion","coordinates":{"lat":"36.9","long":"21.8666667"}},{"country":"gr","city":"Ágnanta","coordinates":{"lat":"39.4741667","long":"21.0783333"}},{"country":"gr","city":"Agnanteró","coordinates":{"lat":"39.4872222","long":"21.8455556"}},{"country":"gr","city":"Agnanterón","coordinates":{"lat":"39.4872222","long":"21.8455556"}},{"country":"gr","city":"Agnantiá","coordinates":{"lat":"39.8675","long":"21.4655556"}},{"country":"gr","city":"Agnantió","coordinates":{"lat":"36.9","long":"21.8666667"}},{"country":"gr","city":"Agnata","coordinates":{"lat":"37.8166667","long":"21.6166667"}},{"country":"gr","city":"Agní","coordinates":{"lat":"39.7361111","long":"19.9280556"}},{"country":"gr","city":"Agnítsasi","coordinates":{"lat":"39.7566667","long":"19.9302778"}},{"country":"gr","city":"Agnítsini","coordinates":{"lat":"39.7566667","long":"19.9302778"}},{"country":"gr","city":"Agnó","coordinates":{"lat":"35.25","long":"25.35"}},{"country":"gr","city":"Agorá","coordinates":{"lat":"41.1333333","long":"24.3166667"}},{"country":"gr","city":"Agorá","coordinates":{"lat":"39.3838889","long":"20.5675"}},{"country":"gr","city":"Agorélitsa","coordinates":{"lat":"37.05","long":"21.7"}},{"country":"gr","city":"Agóriani","coordinates":{"lat":"38.8833333","long":"22.1166667"}},{"country":"gr","city":"Agóriani","coordinates":{"lat":"38.4","long":"22.9833333"}},{"country":"gr","city":"Agóriani","coordinates":{"lat":"37.2","long":"22.2666667"}},{"country":"gr","city":"Agóryiani","coordinates":{"lat":"38.8833333","long":"22.1166667"}},{"country":"gr","city":"Agoryiani","coordinates":{"lat":"37.2","long":"22.2666667"}},{"country":"gr","city":"Agoulinítsa","coordinates":{"lat":"37.6333333","long":"21.5"}},{"country":"gr","city":"Agourélitsa","coordinates":{"lat":"37.05","long":"21.7"}},{"country":"gr","city":"Ágova","coordinates":{"lat":"37.6333333","long":"22.6833333"}},{"country":"gr","city":"Agóyia","coordinates":{"lat":"35.3333333","long":"25.6166667"}},{"country":"gr","city":"Ágra","coordinates":{"lat":"40.805","long":"22.0005556"}},{"country":"gr","city":"Ágra","coordinates":{"lat":"39.1666667","long":"26.0666667"}},{"country":"gr","city":"Ágrafa","coordinates":{"lat":"39.1372222","long":"21.65"}},{"country":"gr","city":"Agrafoí","coordinates":{"lat":"39.7633333","long":"19.7386111"}},{"country":"gr","city":"(( Agrámbela ))","coordinates":{"lat":"39.2166667","long":"21.35"}},{"country":"gr","city":"Agrámbela","coordinates":{"lat":"38.5833333","long":"21.1666667"}},{"country":"gr","city":"Agrámbela","coordinates":{"lat":"37.9333333","long":"21.85"}},{"country":"gr","city":"Agrapha","coordinates":{"lat":"39.1372222","long":"21.65"}},{"country":"gr","city":"Agrapidhiá","coordinates":{"lat":"39.2","long":"22.3333333"}},{"country":"gr","city":"Agrapidhókambos","coordinates":{"lat":"38.4","long":"21.7333333"}},{"country":"gr","city":"Agrapidhokhóri","coordinates":{"lat":"37.9","long":"21.5333333"}},{"country":"gr","city":"Agrapidhokhórion","coordinates":{"lat":"37.9","long":"21.5333333"}},{"country":"gr","city":"Agrapidhoúla","coordinates":{"lat":"37.1166667","long":"22.3833333"}},{"country":"gr","city":"Agrapidoúla","coordinates":{"lat":"37.1166667","long":"22.3833333"}},{"country":"gr","city":"Ágras","coordinates":{"lat":"40.805","long":"22.0005556"}},{"country":"gr","city":"Agreliá","coordinates":{"lat":"39.7191667","long":"21.9316667"}},{"country":"gr","city":"Agrelopón","coordinates":{"lat":"38.5822222","long":"25.97"}},{"country":"gr","city":"Agrelopós","coordinates":{"lat":"38.4747222","long":"26.1125"}},{"country":"gr","city":"Agriá","coordinates":{"lat":"39.3333333","long":"23.0166667"}},{"country":"gr","city":"Agriakambos","coordinates":{"lat":"36.45","long":"22.4666667"}},{"country":"gr","city":"Agriakóna","coordinates":{"lat":"37.3166667","long":"22.2833333"}},{"country":"gr","city":"Agrianá","coordinates":{"lat":"35.3166667","long":"25.3666667"}},{"country":"gr","city":"Agriáni","coordinates":{"lat":"41.2833333","long":"26.2833333"}},{"country":"gr","city":"Agrianí","coordinates":{"lat":"41.0833333","long":"23.8333333"}},{"country":"gr","city":"Agriánoi","coordinates":{"lat":"37.1333333","long":"22.5833333"}},{"country":"gr","city":"Agridhaíika","coordinates":{"lat":"38.2666667","long":"22.05"}},{"country":"gr","city":"Agridháki","coordinates":{"lat":"37.7166667","long":"22.15"}},{"country":"gr","city":"Agridhákion","coordinates":{"lat":"37.7166667","long":"22.15"}},{"country":"gr","city":"Agridhéïka","coordinates":{"lat":"38.2666667","long":"22.05"}},{"country":"gr","city":"Agrídhia","coordinates":{"lat":"35.3333333","long":"24.85"}},{"country":"gr","city":"Agrídhi","coordinates":{"lat":"39.0405556","long":"21.2663889"}},{"country":"gr","city":"Agrídhi","coordinates":{"lat":"38.0333333","long":"22.25"}},{"country":"gr","city":"Agrídhion","coordinates":{"lat":"39.0405556","long":"21.2663889"}},{"country":"gr","city":"Agrídhion","coordinates":{"lat":"37.9","long":"22.0"}},{"country":"gr","city":"Agrídhion","coordinates":{"lat":"37.6166667","long":"21.5166667"}},{"country":"gr","city":"Agrídhion","coordinates":{"lat":"37.7166667","long":"22.15"}},{"country":"gr","city":"Agrídi","coordinates":{"lat":"39.0405556","long":"21.2663889"}},{"country":"gr","city":"Agrídion","coordinates":{"lat":"39.0405556","long":"21.2663889"}},{"country":"gr","city":"Agriléa","coordinates":{"lat":"36.65","long":"22.4166667"}},{"country":"gr","city":"Agrilés","coordinates":{"lat":"35.3","long":"23.7833333"}},{"country":"gr","city":"Agriliá","coordinates":{"lat":"39.7191667","long":"21.9316667"}},{"country":"gr","city":"Agriliá","coordinates":{"lat":"38.9333333","long":"22.4"}},{"country":"gr","city":"Agriliá","coordinates":{"lat":"38.4","long":"21.4333333"}},{"country":"gr","city":"Agriliá","coordinates":{"lat":"37.1","long":"21.9666667"}},{"country":"gr","city":"Agriliá","coordinates":{"lat":"36.5833333","long":"22.4666667"}},{"country":"gr","city":"Agríli","coordinates":{"lat":"37.2166667","long":"21.6"}},{"country":"gr","city":"Agriliás","coordinates":{"lat":"38.45","long":"20.55"}},{"country":"gr","city":"Agrilídhi","coordinates":{"lat":"37.6","long":"21.9"}},{"country":"gr","city":"Agrilídhion","coordinates":{"lat":"37.6","long":"21.9"}},{"country":"gr","city":"Agriliós","coordinates":{"lat":"38.45","long":"20.55"}},{"country":"gr","city":"Agrillokhóri","coordinates":{"lat":"39.2166667","long":"22.6166667"}},{"country":"gr","city":"Ágrilos","coordinates":{"lat":"39.0691667","long":"21.0516667"}},{"country":"gr","city":"Ágrilos","coordinates":{"lat":"37.1333333","long":"22.0666667"}},{"country":"gr","city":"Agrilóvounon","coordinates":{"lat":"37.3","long":"21.95"}},{"country":"gr","city":"Agrínio","coordinates":{"lat":"38.6213889","long":"21.4077778"}},{"country":"gr","city":"Agrínion","coordinates":{"lat":"38.6213889","long":"21.4077778"}},{"country":"gr","city":"Agriólevka","coordinates":{"lat":"41.25","long":"23.2833333"}},{"country":"gr","city":"Agriolévki","coordinates":{"lat":"41.25","long":"23.2833333"}},{"country":"gr","city":"Agriosikaí","coordinates":{"lat":"39.4166667","long":"22.4333333"}},{"country":"gr","city":"Agriosikéa","coordinates":{"lat":"38.6666667","long":"23.7833333"}},{"country":"gr","city":"Agriosikiá","coordinates":{"lat":"40.8413889","long":"22.4975"}},{"country":"gr","city":"Agriosikiá","coordinates":{"lat":"38.6666667","long":"23.7833333"}},{"country":"gr","city":"Agriosikiés","coordinates":{"lat":"39.4166667","long":"22.4333333"}},{"country":"gr","city":"Agriosykéa","coordinates":{"lat":"40.8413889","long":"22.4975"}},{"country":"gr","city":"Agriovótanon","coordinates":{"lat":"39.0166667","long":"23.3"}},{"country":"gr","city":"Agroiliá","coordinates":{"lat":"37.1333333","long":"22.0666667"}},{"country":"gr","city":"Agrós","coordinates":{"lat":"39.7233333","long":"19.7213889"}},{"country":"gr","city":"Agrós","coordinates":{"lat":"37.4166667","long":"24.9"}},{"country":"gr","city":"Agrosikéa","coordinates":{"lat":"40.8413889","long":"22.4975"}},{"country":"gr","city":"Agrosikéa","coordinates":{"lat":"38.6666667","long":"23.7833333"}},{"country":"gr","city":"Agrosikéai","coordinates":{"lat":"39.4166667","long":"22.4333333"}},{"country":"gr","city":"Agrosikiá","coordinates":{"lat":"38.6666667","long":"23.7833333"}},{"country":"gr","city":"Agrosykéa","coordinates":{"lat":"40.8413889","long":"22.4975"}},{"country":"gr","city":"Agrosykiá","coordinates":{"lat":"40.8413889","long":"22.4975"}},{"country":"gr","city":"Agrotikaí Filakaí Stavronikíta","coordinates":{"lat":"40.1166667","long":"23.3333333"}},{"country":"gr","city":"Agulinitza","coordinates":{"lat":"37.6333333","long":"21.5"}},{"country":"gr","city":"Agyia","coordinates":{"lat":"39.7177778","long":"22.7636111"}},{"country":"gr","city":"Ahil","coordinates":{"lat":"40.7841667","long":"21.0808333"}},{"country":"gr","city":"Ahill","coordinates":{"lat":"40.7841667","long":"21.0808333"}},{"country":"gr","city":"Ahlajíkoï","coordinates":{"lat":"41.2333333","long":"25.9333333"}},{"country":"gr","city":"Ahmetagá","coordinates":{"lat":"37.45","long":"22.45"}},{"country":"gr","city":"Aiándion","coordinates":{"lat":"37.9166667","long":"23.4666667"}},{"country":"gr","city":"Aianí","coordinates":{"lat":"40.1666667","long":"21.8166667"}},{"country":"gr","city":"Aiántion","coordinates":{"lat":"37.9166667","long":"23.4666667"}},{"country":"gr","city":"Aïdhínion","coordinates":{"lat":"39.25","long":"22.75"}},{"country":"gr","city":"Aïdhínion","coordinates":{"lat":"37.1","long":"21.9666667"}},{"country":"gr","city":"Aidhipsós","coordinates":{"lat":"38.8833333","long":"23.05"}},{"country":"gr","city":"Aidhipsoú","coordinates":{"lat":"38.8833333","long":"23.05"}},{"country":"gr","city":"Aïdhón","coordinates":{"lat":"39.605","long":"21.4675"}},{"country":"gr","city":"Aïdhónia","coordinates":{"lat":"40.2","long":"21.3166667"}},{"country":"gr","city":"Aïdhoniá","coordinates":{"lat":"39.2030556","long":"20.6130556"}},{"country":"gr","city":"Aïdhónia","coordinates":{"lat":"37.8333333","long":"22.5833333"}},{"country":"gr","city":"Aïdhónia","coordinates":{"lat":"37.75","long":"24.95"}},{"country":"gr","city":"Aidhónion","coordinates":{"lat":"39.2636111","long":"20.6038889"}},{"country":"gr","city":"Aidhonoí","coordinates":{"lat":"35.2833333","long":"23.7666667"}},{"country":"gr","city":"Aïdhonókastron","coordinates":{"lat":"41.2666667","long":"24.4833333"}},{"country":"gr","city":"Aïdhonokhóri","coordinates":{"lat":"40.0522222","long":"20.6019444"}},{"country":"gr","city":"Aïdhonokhóri","coordinates":{"lat":"39.0944444","long":"21.97"}},{"country":"gr","city":"Aïdhonokhórion","coordinates":{"lat":"40.85","long":"23.7333333"}},{"country":"gr","city":"Aïdhonokhórion","coordinates":{"lat":"40.0522222","long":"20.6019444"}},{"country":"gr","city":"Aïdhonokhórion","coordinates":{"lat":"39.0944444","long":"21.97"}},{"country":"gr","city":"Aïdhonokhórion","coordinates":{"lat":"35.3166667","long":"24.9166667"}},{"country":"gr","city":"Aïdón","coordinates":{"lat":"39.605","long":"21.4675"}},{"country":"gr","city":"Aidoniá","coordinates":{"lat":"39.2030556","long":"20.6130556"}},{"country":"gr","city":"Aidoniá","coordinates":{"lat":"39.2927778","long":"21.4169444"}},{"country":"gr","city":"Aidóni","coordinates":{"lat":"39.2636111","long":"20.6038889"}},{"country":"gr","city":"Aidónion","coordinates":{"lat":"39.2636111","long":"20.6038889"}},{"country":"gr","city":"Aïdonochóri","coordinates":{"lat":"40.0522222","long":"20.6019444"}},{"country":"gr","city":"Aïdonochóri","coordinates":{"lat":"39.0944444","long":"21.97"}},{"country":"gr","city":"Aïdonochórion","coordinates":{"lat":"40.0522222","long":"20.6019444"}},{"country":"gr","city":"Aïdonochórion","coordinates":{"lat":"39.0944444","long":"21.97"}},{"country":"gr","city":"Aigáleo","coordinates":{"lat":"37.9833333","long":"23.6833333"}},{"country":"gr","city":"Aigáni","coordinates":{"lat":"39.9533333","long":"22.6108333"}},{"country":"gr","city":"Aighion","coordinates":{"lat":"38.2486111","long":"22.0819444"}},{"country":"gr","city":"Aigialós","coordinates":{"lat":"38.2541667","long":"20.6513889"}},{"country":"gr","city":"Aígina","coordinates":{"lat":"37.7466667","long":"23.4275"}},{"country":"gr","city":"Aigínio","coordinates":{"lat":"40.5013889","long":"22.54"}},{"country":"gr","city":"Aigínion","coordinates":{"lat":"40.5013889","long":"22.54"}},{"country":"gr","city":"Aígio","coordinates":{"lat":"38.2486111","long":"22.0819444"}},{"country":"gr","city":"Aígion","coordinates":{"lat":"38.2486111","long":"22.0819444"}},{"country":"gr","city":"Aigósthaina","coordinates":{"lat":"38.15","long":"23.2333333"}},{"country":"gr","city":"Aigósthena","coordinates":{"lat":"38.15","long":"23.2333333"}},{"country":"gr","city":"Aikateríni","coordinates":{"lat":"40.2719444","long":"22.5025"}},{"country":"gr","city":"Aikiríkos","coordinates":{"lat":"35.25","long":"23.7833333"}},{"country":"gr","city":"Aïkiryiánnis","coordinates":{"lat":"35.4333333","long":"23.7"}},{"country":"gr","city":"Ail","coordinates":{"lat":"40.7841667","long":"21.0808333"}},{"country":"gr","city":"Aïliás","coordinates":{"lat":"40.3666667","long":"21.1833333"}},{"country":"gr","city":"Aimilianós","coordinates":{"lat":"39.9616667","long":"21.4394444"}},{"country":"gr","city":"Aimonas","coordinates":{"lat":"35.3333333","long":"24.8666667"}},{"country":"gr","city":"Aímonos","coordinates":{"lat":"35.3333333","long":"24.8666667"}},{"country":"gr","city":"Aïpátia","coordinates":{"lat":"37.75","long":"24.9333333"}},{"country":"gr","city":"Aípia","coordinates":{"lat":"37.1","long":"22.0333333"}},{"country":"gr","city":"Aira","coordinates":{"lat":"39.3833333","long":"22.3333333"}},{"country":"gr","city":"Áï Seris","coordinates":{"lat":"37.3166667","long":"21.7333333"}},{"country":"gr","city":"Aisími","coordinates":{"lat":"41.0166667","long":"25.95"}},{"country":"gr","city":"Aïtánia","coordinates":{"lat":"35.2666667","long":"25.2166667"}},{"country":"gr","city":"Aíthaia","coordinates":{"lat":"37.1","long":"22.05"}},{"country":"gr","city":"Aitolikón","coordinates":{"lat":"38.4333333","long":"21.35"}},{"country":"gr","city":"Aïvajík","coordinates":{"lat":"41.2166667","long":"24.95"}},{"country":"gr","city":"Aïvalí","coordinates":{"lat":"39.35","long":"22.6166667"}},{"country":"gr","city":"Aïvátion","coordinates":{"lat":"40.7452778","long":"22.9786111"}},{"country":"gr","city":"Aívira","coordinates":{"lat":"38.15","long":"22.35"}},{"country":"gr","city":"Aiyaí","coordinates":{"lat":"38.1","long":"22.3666667"}},{"country":"gr","city":"Aiyiáli","coordinates":{"lat":"36.9","long":"25.9833333"}},{"country":"gr","city":"Aiyialós","coordinates":{"lat":"38.2541667","long":"20.6513889"}},{"country":"gr","city":"Aíyina","coordinates":{"lat":"37.7466667","long":"23.4275"}},{"country":"gr","city":"Aiyínion","coordinates":{"lat":"40.5013889","long":"22.54"}},{"country":"gr","city":"Aíyion","coordinates":{"lat":"38.2486111","long":"22.0819444"}},{"country":"gr","city":"Aíyira","coordinates":{"lat":"38.15","long":"22.35"}},{"country":"gr","city":"Aíyiros","coordinates":{"lat":"41.1166667","long":"24.35"}},{"country":"gr","city":"Aiyítion","coordinates":{"lat":"38.4833333","long":"22.1666667"}},{"country":"gr","city":"Aiylnion","coordinates":{"lat":"40.5013889","long":"22.54"}},{"country":"gr","city":"Ajios Ahilios","coordinates":{"lat":"40.7841667","long":"21.0808333"}},{"country":"gr","city":"Ajios Athanasios","coordinates":{"lat":"39.7338889","long":"19.7161111"}},{"country":"gr","city":"Ajios Paraskevis","coordinates":{"lat":"41.2661111","long":"22.8488889"}},{"country":"gr","city":"Akadhími","coordinates":{"lat":"37.0666667","long":"25.5"}},{"country":"gr","city":"Akádhimoi","coordinates":{"lat":"37.0666667","long":"25.5"}},{"country":"gr","city":"Akakíai","coordinates":{"lat":"41.2472222","long":"22.8072222"}},{"country":"gr","city":"Akakíes","coordinates":{"lat":"41.2472222","long":"22.8072222"}},{"country":"gr","city":"Ákarpon","coordinates":{"lat":"41.1333333","long":"24.9833333"}},{"country":"gr","city":"Ak-Bunár","coordinates":{"lat":"40.3666667","long":"23.2833333"}},{"country":"gr","city":"Akhadhókastron","coordinates":{"lat":"38.5833333","long":"21.75"}},{"country":"gr","city":"Akhaïkón","coordinates":{"lat":"38.1333333","long":"21.6"}},{"country":"gr","city":"Akhápsi","coordinates":{"lat":"37.1166667","long":"25.4166667"}},{"country":"gr","city":"Akharnaí","coordinates":{"lat":"38.0833333","long":"23.7333333"}},{"country":"gr","city":"Akhatzikiá","coordinates":{"lat":"35.35","long":"24.1666667"}},{"country":"gr","city":"Akhelinádha","coordinates":{"lat":"39.825","long":"21.8711111"}},{"country":"gr","city":"Akhendriá","coordinates":{"lat":"34.9833333","long":"25.2166667"}},{"country":"gr","city":"Akhendriás","coordinates":{"lat":"34.9833333","long":"25.2166667"}},{"country":"gr","city":"Akherousía","coordinates":{"lat":"39.2577778","long":"20.5958333"}},{"country":"gr","city":"Akhíl","coordinates":{"lat":"40.7841667","long":"21.0808333"}},{"country":"gr","city":"Akhíllio","coordinates":{"lat":"39.0333333","long":"22.9666667"}},{"country":"gr","city":"Akhíllion","coordinates":{"lat":"39.2666667","long":"22.4166667"}},{"country":"gr","city":"Akhíllion","coordinates":{"lat":"39.0333333","long":"22.9666667"}},{"country":"gr","city":"Akhíllion","coordinates":{"lat":"39.5644444","long":"19.905"}},{"country":"gr","city":"Akhíllion","coordinates":{"lat":"36.4333333","long":"22.4833333"}},{"country":"gr","city":"Akhíllion Palace","coordinates":{"lat":"39.5644444","long":"19.905"}},{"country":"gr","city":"Akhinós","coordinates":{"lat":"40.9166667","long":"23.65"}},{"country":"gr","city":"Akhinós","coordinates":{"lat":"38.9","long":"22.7333333"}},{"country":"gr","city":"Akhirá","coordinates":{"lat":"38.7833333","long":"21.0333333"}},{"country":"gr","city":"Akhirokhórion","coordinates":{"lat":"41.5833333","long":"26.5333333"}},{"country":"gr","city":"Akhirón","coordinates":{"lat":"39.2327778","long":"26.2080556"}},{"country":"gr","city":"Akhirónes","coordinates":{"lat":"38.9166667","long":"22.65"}},{"country":"gr","city":"Akhladeri","coordinates":{"lat":"38.4833333","long":"24.1666667"}},{"country":"gr","city":"Akhládha","coordinates":{"lat":"40.8666667","long":"21.6166667"}},{"country":"gr","city":"Akhládha","coordinates":{"lat":"35.4","long":"24.9833333"}},{"country":"gr","city":"Akhládhai","coordinates":{"lat":"35.45","long":"24.0333333"}},{"country":"gr","city":"Akhladháki","coordinates":{"lat":"35.3166667","long":"25.65"}},{"country":"gr","city":"Akhladhéa","coordinates":{"lat":"41.4","long":"24.0166667"}},{"country":"gr","city":"Akhladhéa","coordinates":{"lat":"40.2833333","long":"21.2"}},{"country":"gr","city":"Akhladhéa","coordinates":{"lat":"39.8358333","long":"21.6091667"}},{"country":"gr","city":"Akhladhéa","coordinates":{"lat":"39.2","long":"22.1"}},{"country":"gr","city":"Akhladhéa","coordinates":{"lat":"39.1666667","long":"22.4166667"}},{"country":"gr","city":"Akhladhéa","coordinates":{"lat":"38.2","long":"22.0833333"}},{"country":"gr","city":"Akhladhéai","coordinates":{"lat":"39.4522222","long":"20.7727778"}},{"country":"gr","city":"Akhladhé","coordinates":{"lat":"35.4","long":"24.7166667"}},{"country":"gr","city":"Akhladherí","coordinates":{"lat":"38.4833333","long":"24.1666667"}},{"country":"gr","city":"Akhladhés","coordinates":{"lat":"35.4","long":"24.7166667"}},{"country":"gr","city":"Akhladhiá","coordinates":{"lat":"41.4","long":"24.0166667"}},{"country":"gr","city":"Akhládhia","coordinates":{"lat":"39.2","long":"22.1"}},{"country":"gr","city":"Akhladhiá","coordinates":{"lat":"39.1666667","long":"22.4166667"}},{"country":"gr","city":"Akhladhiá","coordinates":{"lat":"38.2","long":"22.0833333"}},{"country":"gr","city":"Akhládhia","coordinates":{"lat":"35.1666667","long":"26.05"}},{"country":"gr","city":"Akhládhi","coordinates":{"lat":"40.2833333","long":"21.2"}},{"country":"gr","city":"Akhládhi","coordinates":{"lat":"38.8833333","long":"22.8166667"}},{"country":"gr","city":"Akhládhi","coordinates":{"lat":"38.9","long":"23.4"}},{"country":"gr","city":"Akhládhi","coordinates":{"lat":"35.0333333","long":"26.15"}},{"country":"gr","city":"Akhladhiákies","coordinates":{"lat":"35.2833333","long":"23.7333333"}},{"country":"gr","city":"Akhladhiás","coordinates":{"lat":"41.4","long":"24.0166667"}},{"country":"gr","city":"Akhladhiní","coordinates":{"lat":"37.7333333","long":"21.7833333"}},{"country":"gr","city":"Akhládhion","coordinates":{"lat":"38.8833333","long":"22.8166667"}},{"country":"gr","city":"Akhládhion","coordinates":{"lat":"38.9","long":"23.4"}},{"country":"gr","city":"Akhladhókambos","coordinates":{"lat":"37.5166667","long":"22.5833333"}},{"country":"gr","city":"Akhladhókambos","coordinates":{"lat":"36.8833333","long":"22.9833333"}},{"country":"gr","city":"Akhladhókastron","coordinates":{"lat":"38.5833333","long":"21.75"}},{"country":"gr","city":"Akhladhokhóri","coordinates":{"lat":"36.9166667","long":"21.9"}},{"country":"gr","city":"Akhladhokhórion","coordinates":{"lat":"41.3166667","long":"23.55"}},{"country":"gr","city":"Akhladhokhórion","coordinates":{"lat":"40.8352778","long":"22.3358333"}},{"country":"gr","city":"Akhladhokhórion","coordinates":{"lat":"39.6333333","long":"22.0166667"}},{"country":"gr","city":"Akhladhokhórion","coordinates":{"lat":"36.9166667","long":"21.9"}},{"country":"gr","city":"Akhladhomiléa","coordinates":{"lat":"41.4166667","long":"24.0"}},{"country":"gr","city":"Akhladhomiliá","coordinates":{"lat":"41.4166667","long":"24.0"}},{"country":"gr","city":"Akhladhomiliés","coordinates":{"lat":"41.4166667","long":"24.0"}},{"country":"gr","city":"Akhladokampo","coordinates":{"lat":"37.5166667","long":"22.5833333"}},{"country":"gr","city":"Akhómavron","coordinates":{"lat":"38.65","long":"21.55"}},{"country":"gr","city":"Akhómavros","coordinates":{"lat":"38.65","long":"21.55"}},{"country":"gr","city":"Akhoumátou","coordinates":{"lat":"36.8","long":"22.4833333"}},{"country":"gr","city":"Akhoúria","coordinates":{"lat":"38.7166667","long":"20.7333333"}},{"country":"gr","city":"Akhoúria","coordinates":{"lat":"38.2","long":"22.0833333"}},{"country":"gr","city":"Akhoúria","coordinates":{"lat":"37.4666667","long":"22.4333333"}},{"country":"gr","city":"Akhoúria","coordinates":{"lat":"37.25","long":"22.3333333"}},{"country":"gr","city":"Akhoúria Ayíou Nikoláou","coordinates":{"lat":"39.7030556","long":"20.3258333"}},{"country":"gr","city":"Ákia","coordinates":{"lat":"36.5833333","long":"22.4166667"}},{"country":"gr","city":"Akinjalí","coordinates":{"lat":"41.2494444","long":"22.7905556"}},{"country":"gr","city":"Ákitsi","coordinates":{"lat":"39.2666667","long":"22.75"}},{"country":"gr","city":"Akmanjalí","coordinates":{"lat":"40.3833333","long":"23.05"}},{"country":"gr","city":"Ákoli","coordinates":{"lat":"38.1833333","long":"21.95"}},{"country":"gr","city":"Akóndion","coordinates":{"lat":"40.4919444","long":"21.0411111"}},{"country":"gr","city":"Akóndion","coordinates":{"lat":"38.5","long":"22.8833333"}},{"country":"gr","city":"Akóntio","coordinates":{"lat":"40.4919444","long":"21.0411111"}},{"country":"gr","city":"Akóntion","coordinates":{"lat":"40.4919444","long":"21.0411111"}},{"country":"gr","city":"Akoúmia","coordinates":{"lat":"35.1666667","long":"24.5833333"}},{"country":"gr","city":"Ákova","coordinates":{"lat":"37.6333333","long":"22.6833333"}},{"country":"gr","city":"Akovítika","coordinates":{"lat":"37.0333333","long":"22.0833333"}},{"country":"gr","city":"Ákovo","coordinates":{"lat":"37.6333333","long":"22.6833333"}},{"country":"gr","city":"Ákovos","coordinates":{"lat":"37.2","long":"22.1666667"}},{"country":"gr","city":"Ákra","coordinates":{"lat":"37.4833333","long":"22.4333333"}},{"country":"gr","city":"Ákrai","coordinates":{"lat":"38.65","long":"23.5833333"}},{"country":"gr","city":"Akraífnion","coordinates":{"lat":"38.45","long":"23.2166667"}},{"country":"gr","city":"Akranéa","coordinates":{"lat":"40.8966667","long":"22.1494444"}},{"country":"gr","city":"Akrásion","coordinates":{"lat":"39.0263889","long":"26.3077778"}},{"country":"gr","city":"Akráta","coordinates":{"lat":"38.15","long":"22.3166667"}},{"country":"gr","city":"Ákres","coordinates":{"lat":"38.65","long":"23.5833333"}},{"country":"gr","city":"Ákria","coordinates":{"lat":"35.0833333","long":"25.0833333"}},{"country":"gr","city":"Ákri","coordinates":{"lat":"39.9941667","long":"21.9619444"}},{"country":"gr","city":"Akriní","coordinates":{"lat":"40.4333333","long":"21.9"}},{"country":"gr","city":"Akrinó","coordinates":{"lat":"39.7744444","long":"22.5119444"}},{"country":"gr","city":"Akrinón","coordinates":{"lat":"39.7744444","long":"22.5119444"}},{"country":"gr","city":"Akrítas","coordinates":{"lat":"41.1469444","long":"22.7444444"}},{"country":"gr","city":"Akrítas","coordinates":{"lat":"40.8166667","long":"21.3"}},{"country":"gr","city":"Akritokhóri","coordinates":{"lat":"41.2666667","long":"23.1833333"}},{"country":"gr","city":"Akritokhóri","coordinates":{"lat":"36.8","long":"21.8333333"}},{"country":"gr","city":"Akritokhórion","coordinates":{"lat":"41.2666667","long":"23.1833333"}},{"country":"gr","city":"Akritokhórion","coordinates":{"lat":"36.8","long":"21.8333333"}},{"country":"gr","city":"Akrolímni","coordinates":{"lat":"40.6791667","long":"22.2638889"}},{"country":"gr","city":"Akrolímnion","coordinates":{"lat":"41.2275","long":"22.79"}},{"country":"gr","city":"Akropotamiá","coordinates":{"lat":"40.9275","long":"22.9697222"}},{"country":"gr","city":"Akropotamiá","coordinates":{"lat":"40.8388889","long":"22.6461111"}},{"country":"gr","city":"Akropotamiá","coordinates":{"lat":"39.0925","long":"21.02"}},{"country":"gr","city":"Akropótamos","coordinates":{"lat":"40.8388889","long":"22.6461111"}},{"country":"gr","city":"Akropótamos","coordinates":{"lat":"40.7833333","long":"24.0333333"}},{"country":"gr","city":"Akropotámou","coordinates":{"lat":"40.7833333","long":"24.0333333"}},{"country":"gr","city":"Akrosouvála","coordinates":{"lat":"38.6833333","long":"23.7666667"}},{"country":"gr","city":"Akrotíri","coordinates":{"lat":"36.35","long":"25.4"}},{"country":"gr","city":"Akrotírion","coordinates":{"lat":"36.35","long":"25.4"}},{"country":"gr","city":"Akrotírion","coordinates":{"lat":"39.0666667","long":"26.5666667"}},{"country":"gr","city":"Akrovo","coordinates":{"lat":"40.9","long":"24.2166667"}},{"country":"gr","city":"Akrovoúni","coordinates":{"lat":"40.9","long":"24.2166667"}},{"country":"gr","city":"Akrovoúnion","coordinates":{"lat":"40.9","long":"24.2166667"}},{"country":"gr","city":"Akroyiálion","coordinates":{"lat":"36.4833333","long":"22.5"}},{"country":"gr","city":"Ak-Saklí","coordinates":{"lat":"40.2833333","long":"21.9666667"}},{"country":"gr","city":"Aktaíon","coordinates":{"lat":"38.15","long":"24.35"}},{"country":"gr","city":"Aktaíon","coordinates":{"lat":"38.1333333","long":"22.4166667"}},{"country":"gr","city":"Aktoprák","coordinates":{"lat":"40.5833333","long":"23.4333333"}},{"country":"gr","city":"Aktoúnda","coordinates":{"lat":"35.1833333","long":"24.5333333"}},{"country":"gr","city":"Aladhinón","coordinates":{"lat":"37.8166667","long":"24.8833333"}},{"country":"gr","city":"Aladhinoú Vounoú","coordinates":{"lat":"37.8166667","long":"24.8833333"}},{"country":"gr","city":"Aláerma","coordinates":{"lat":"36.15","long":"27.95"}},{"country":"gr","city":"Alágni","coordinates":{"lat":"35.1833333","long":"25.2166667"}},{"country":"gr","city":"Alágnion","coordinates":{"lat":"35.1833333","long":"25.2166667"}},{"country":"gr","city":"Alagonía","coordinates":{"lat":"37.1166667","long":"22.25"}},{"country":"gr","city":"Aláï","coordinates":{"lat":"37.2333333","long":"22.0166667"}},{"country":"gr","city":"Alaibei","coordinates":{"lat":"36.8833333","long":"22.5666667"}},{"country":"gr","city":"Alaimbei","coordinates":{"lat":"36.85","long":"22.6833333"}},{"country":"gr","city":"Alaimbéïs","coordinates":{"lat":"36.8833333","long":"22.5666667"}},{"country":"gr","city":"Alalkomenaí","coordinates":{"lat":"38.4166667","long":"22.9833333"}},{"country":"gr","city":"Alamaniá","coordinates":{"lat":"37.7666667","long":"24.9333333"}},{"country":"gr","city":"Alamáni","coordinates":{"lat":"37.85","long":"22.9166667"}},{"country":"gr","city":"Alamanniá","coordinates":{"lat":"37.7666667","long":"24.9333333"}},{"country":"gr","city":"Alamánnos","coordinates":{"lat":"37.85","long":"22.9166667"}},{"country":"gr","city":"Alamánou","coordinates":{"lat":"37.85","long":"22.9166667"}},{"country":"gr","city":"Alanlí","coordinates":{"lat":"40.6333333","long":"23.35"}},{"country":"gr","city":"Álari","coordinates":{"lat":"40.7891667","long":"22.4583333"}},{"country":"gr","city":"Alatariá","coordinates":{"lat":"39.1983333","long":"21.3341667"}},{"country":"gr","city":"Alatariés","coordinates":{"lat":"39.4577778","long":"21.3194444"}},{"country":"gr","city":"Alatópetra","coordinates":{"lat":"40.0666667","long":"21.2166667"}},{"country":"gr","city":"Alatrá","coordinates":{"lat":"38.6833333","long":"20.6666667"}},{"country":"gr","city":"Álatro","coordinates":{"lat":"38.6833333","long":"20.6666667"}},{"country":"gr","city":"Álatron","coordinates":{"lat":"38.6833333","long":"20.6666667"}},{"country":"gr","city":"Albáni","coordinates":{"lat":"38.3666667","long":"21.6666667"}},{"country":"gr","city":"Alchák","coordinates":{"lat":"41.1011111","long":"22.4755556"}},{"country":"gr","city":"Aléa","coordinates":{"lat":"37.45","long":"22.4166667"}},{"country":"gr","city":"Alefaklár","coordinates":{"lat":"39.5666667","long":"22.75"}},{"country":"gr","city":"Aleimmatádes","coordinates":{"lat":"39.695","long":"19.7263889"}},{"country":"gr","city":"Alepochóri","coordinates":{"lat":"39.3619444","long":"20.7061111"}},{"country":"gr","city":"Alepochórion","coordinates":{"lat":"39.3619444","long":"20.7061111"}},{"country":"gr","city":"Alepochórion","coordinates":{"lat":"39.5566667","long":"19.8713889"}},{"country":"gr","city":"Alepokhóri","coordinates":{"lat":"38.0833333","long":"23.1833333"}},{"country":"gr","city":"Alepokhóri","coordinates":{"lat":"37.35","long":"22.4"}},{"country":"gr","city":"Alepokhóri","coordinates":{"lat":"36.95","long":"22.7666667"}},{"country":"gr","city":"Alepokhórion","coordinates":{"lat":"39.3619444","long":"20.7061111"}},{"country":"gr","city":"Alepokhórion","coordinates":{"lat":"39.5566667","long":"19.8713889"}},{"country":"gr","city":"Alepokhórion","coordinates":{"lat":"38.5666667","long":"22.0166667"}},{"country":"gr","city":"Alepokhórion","coordinates":{"lat":"37.9833333","long":"21.8"}},{"country":"gr","city":"Alepokhórion","coordinates":{"lat":"37.35","long":"22.4"}},{"country":"gr","city":"Alepokhórion","coordinates":{"lat":"36.95","long":"22.7666667"}},{"country":"gr","city":"Alepokhórion Bótsari","coordinates":{"lat":"39.3619444","long":"20.7061111"}},{"country":"gr","city":"Alepóspita","coordinates":{"lat":"38.8333333","long":"22.4166667"}},{"country":"gr","city":"Alepoú","coordinates":{"lat":"39.6102778","long":"19.8888889"}},{"country":"gr","city":"Alesía","coordinates":{"lat":"37.05","long":"22.4333333"}},{"country":"gr","city":"Aléstaina","coordinates":{"lat":"37.8833333","long":"21.9833333"}},{"country":"gr","city":"Aléstia","coordinates":{"lat":"38.8333333","long":"21.5833333"}},{"country":"gr","city":"Aletraíika","coordinates":{"lat":"37.95","long":"21.4166667"}},{"country":"gr","city":"Aletrouvári","coordinates":{"lat":"35.45","long":"24.0333333"}},{"country":"gr","city":"Aletrouvárion","coordinates":{"lat":"35.45","long":"24.0333333"}},{"country":"gr","city":"Alevrádha","coordinates":{"lat":"38.9333333","long":"21.4333333"}},{"country":"gr","city":"Alevriká","coordinates":{"lat":"35.2","long":"25.7"}},{"country":"gr","city":"Alevroú","coordinates":{"lat":"37.1833333","long":"22.3"}},{"country":"gr","city":"Alexándhra","coordinates":{"lat":"41.2491667","long":"22.8177778"}},{"country":"gr","city":"Alexandhrádhes","coordinates":{"lat":"36.2","long":"23.0"}},{"country":"gr","city":"Aléxandhros","coordinates":{"lat":"38.75","long":"20.6833333"}},{"country":"gr","city":"Alexandhroúpolis","coordinates":{"lat":"40.8475","long":"25.8744444"}},{"country":"gr","city":"Alexándra","coordinates":{"lat":"41.2491667","long":"22.8177778"}},{"country":"gr","city":"Alexandrádhes","coordinates":{"lat":"36.2","long":"23.0"}},{"country":"gr","city":"Alexándreia","coordinates":{"lat":"40.6266667","long":"22.4441667"}},{"country":"gr","city":"Alexándria","coordinates":{"lat":"40.6266667","long":"22.4441667"}},{"country":"gr","city":"Aléxandros","coordinates":{"lat":"38.75","long":"20.6833333"}},{"country":"gr","city":"Alexandroúpoli","coordinates":{"lat":"40.8475","long":"25.8744444"}},{"country":"gr","city":"Alexandroúpolis","coordinates":{"lat":"40.8475","long":"25.8744444"}},{"country":"gr","city":"Aléxia","coordinates":{"lat":"41.1141667","long":"22.8938889"}},{"country":"gr","city":"Aléxi","coordinates":{"lat":"38.0833333","long":"24.3333333"}},{"country":"gr","city":"Aléxis","coordinates":{"lat":"38.0833333","long":"24.3333333"}},{"country":"gr","city":"Alfá","coordinates":{"lat":"35.3666667","long":"24.6666667"}},{"country":"gr","city":"Álfas","coordinates":{"lat":"35.3666667","long":"24.6666667"}},{"country":"gr","city":"Alfiós","coordinates":{"lat":"37.65","long":"21.5"}},{"country":"gr","city":"Alfioúsa","coordinates":{"lat":"37.65","long":"21.5333333"}},{"country":"gr","city":"Alía","coordinates":{"lat":"39.15","long":"22.75"}},{"country":"gr","city":"Alíaga","coordinates":{"lat":"37.3666667","long":"22.15"}},{"country":"gr","city":"Alíartos","coordinates":{"lat":"38.3666667","long":"23.1"}},{"country":"gr","city":"Alí Béï","coordinates":{"lat":"39.085","long":"20.9508333"}},{"country":"gr","city":"Alichelepí","coordinates":{"lat":"37.5666667","long":"21.5833333"}},{"country":"gr","city":"Alí-Chelepí","coordinates":{"lat":"38.0833333","long":"21.3833333"}},{"country":"gr","city":"Alichelepí","coordinates":{"lat":"37.25","long":"22.0"}},{"country":"gr","city":"Alífaka","coordinates":{"lat":"39.5666667","long":"22.2166667"}},{"country":"gr","city":"Alífaka","coordinates":{"lat":"39.0833333","long":"22.4166667"}},{"country":"gr","city":"Alifanda","coordinates":{"lat":"39.1","long":"26.5166667"}},{"country":"gr","city":"Alífira","coordinates":{"lat":"37.5333333","long":"21.85"}},{"country":"gr","city":"Alíka","coordinates":{"lat":"37.4","long":"22.25"}},{"country":"gr","city":"Álika","coordinates":{"lat":"36.4666667","long":"22.4333333"}},{"country":"gr","city":"Alíkambos","coordinates":{"lat":"35.35","long":"24.2"}},{"country":"gr","city":"Alikanás","coordinates":{"lat":"37.85","long":"20.7833333"}},{"country":"gr","city":"Alikanitaíika","coordinates":{"lat":"37.9833333","long":"21.2666667"}},{"country":"gr","city":"Alikarnassós","coordinates":{"lat":"35.3333333","long":"25.1666667"}},{"country":"gr","city":"Alí-Khelepí","coordinates":{"lat":"37.1","long":"21.9833333"}},{"country":"gr","city":"Alíki","coordinates":{"lat":"40.9","long":"25.8333333"}},{"country":"gr","city":"Alikí","coordinates":{"lat":"40.6","long":"24.75"}},{"country":"gr","city":"Alikí","coordinates":{"lat":"40.3633333","long":"22.6244444"}},{"country":"gr","city":"Alikí","coordinates":{"lat":"39.0383333","long":"21.0741667"}},{"country":"gr","city":"Alikí","coordinates":{"lat":"38.2","long":"23.05"}},{"country":"gr","city":"Alikianós","coordinates":{"lat":"35.45","long":"23.9166667"}},{"country":"gr","city":"Alikianoú","coordinates":{"lat":"35.45","long":"23.9166667"}},{"country":"gr","city":"Alikí Dhomvraínis","coordinates":{"lat":"38.2","long":"23.05"}},{"country":"gr","city":"Álikon","coordinates":{"lat":"41.2333333","long":"25.9333333"}},{"country":"gr","city":"Alikutúzi","coordinates":{"lat":"37.1166667","long":"21.7666667"}},{"country":"gr","city":"Alimáki","coordinates":{"lat":"37.2666667","long":"21.7666667"}},{"country":"gr","city":"Alimákion","coordinates":{"lat":"37.2666667","long":"21.7666667"}},{"country":"gr","city":"Alimiá","coordinates":{"lat":"36.25","long":"27.7166667"}},{"country":"gr","city":"Alimmatádhes","coordinates":{"lat":"39.695","long":"19.7263889"}},{"country":"gr","city":"Alimniá","coordinates":{"lat":"36.25","long":"27.7166667"}},{"country":"gr","city":"Álinda","coordinates":{"lat":"37.1666667","long":"26.8333333"}},{"country":"gr","city":"Alinna","coordinates":{"lat":"36.25","long":"27.7166667"}},{"country":"gr","city":"Alipayianá","coordinates":{"lat":"35.3833333","long":"24.6833333"}},{"country":"gr","city":"Alipokhóri","coordinates":{"lat":"39.5566667","long":"19.8713889"}},{"country":"gr","city":"Alípos","coordinates":{"lat":"36.6166667","long":"22.4833333"}},{"country":"gr","city":"Alisáfi","coordinates":{"lat":"39.0091667","long":"21.6955556"}},{"country":"gr","city":"Alissós","coordinates":{"lat":"38.1333333","long":"21.5833333"}},{"country":"gr","city":"Alistráti","coordinates":{"lat":"41.0666667","long":"23.95"}},{"country":"gr","city":"Alithiní","coordinates":{"lat":"35.0166667","long":"24.8833333"}},{"country":"gr","city":"Alitselépi","coordinates":{"lat":"37.5666667","long":"21.5833333"}},{"country":"gr","city":"Alí Tselépi","coordinates":{"lat":"38.0833333","long":"21.3833333"}},{"country":"gr","city":"Alí Tselepí","coordinates":{"lat":"37.25","long":"22.0"}},{"country":"gr","city":"Alítsi","coordinates":{"lat":"39.5","long":"22.65"}},{"country":"gr","city":"Alitzaní","coordinates":{"lat":"35.1666667","long":"25.25"}},{"country":"gr","city":"Alivérion","coordinates":{"lat":"38.4166667","long":"24.0333333"}},{"country":"gr","city":"Aliyi","coordinates":{"lat":"35.35","long":"23.6833333"}},{"country":"gr","city":"Aliyoí","coordinates":{"lat":"35.35","long":"23.6833333"}},{"country":"gr","city":"Alkhaní","coordinates":{"lat":"39.3666667","long":"22.5166667"}},{"country":"gr","city":"Alkión","coordinates":{"lat":"37.6666667","long":"21.3166667"}},{"country":"gr","city":"Alkióni","coordinates":{"lat":"41.0666667","long":"24.9166667"}},{"country":"gr","city":"Alkomenaí","coordinates":{"lat":"38.4166667","long":"22.9833333"}},{"country":"gr","city":"Alléxi","coordinates":{"lat":"38.0833333","long":"24.3333333"}},{"country":"gr","city":"Álli Meriá","coordinates":{"lat":"39.3666667","long":"22.9833333"}},{"country":"gr","city":"Allitzáni","coordinates":{"lat":"35.1666667","long":"25.25"}},{"country":"gr","city":"Álma","coordinates":{"lat":"41.2166667","long":"24.8666667"}},{"country":"gr","city":"Almandár","coordinates":{"lat":"39.4166667","long":"22.1666667"}},{"country":"gr","city":"Almandárion","coordinates":{"lat":"39.4166667","long":"22.1666667"}},{"country":"gr","city":"Almbánis","coordinates":{"lat":"38.3666667","long":"21.6666667"}},{"country":"gr","city":"Almirídha","coordinates":{"lat":"35.45","long":"24.2"}},{"country":"gr","city":"Almirón","coordinates":{"lat":"37.0","long":"22.15"}},{"country":"gr","city":"Almiropótamos","coordinates":{"lat":"38.2666667","long":"24.1833333"}},{"country":"gr","city":"Almirós","coordinates":{"lat":"39.1822222","long":"22.7594444"}},{"country":"gr","city":"Almirós","coordinates":{"lat":"37.0","long":"22.15"}},{"country":"gr","city":"Almirós","coordinates":{"lat":"35.45","long":"24.2"}},{"country":"gr","city":"Almyrós","coordinates":{"lat":"39.1822222","long":"22.7594444"}},{"country":"gr","city":"Alóïdhai","coordinates":{"lat":"35.3666667","long":"24.8833333"}},{"country":"gr","city":"Alóïdhes","coordinates":{"lat":"35.3666667","long":"24.8833333"}},{"country":"gr","city":"Aloisiánika","coordinates":{"lat":"36.2666667","long":"22.9666667"}},{"country":"gr","city":"Aloïziánika","coordinates":{"lat":"36.2666667","long":"22.9666667"}},{"country":"gr","city":"Álona","coordinates":{"lat":"40.7833333","long":"21.3"}},{"country":"gr","city":"Alónai","coordinates":{"lat":"35.2333333","long":"24.35"}},{"country":"gr","city":"Alonákia","coordinates":{"lat":"40.3166667","long":"21.6666667"}},{"country":"gr","city":"Alonáki","coordinates":{"lat":"39.2077778","long":"20.5066667"}},{"country":"gr","city":"Alonáki","coordinates":{"lat":"39.1980556","long":"21.3444444"}},{"country":"gr","city":"Alonáki","coordinates":{"lat":"35.4166667","long":"24.0333333"}},{"country":"gr","city":"Alonákion","coordinates":{"lat":"35.4166667","long":"24.0333333"}},{"country":"gr","city":"Álonas","coordinates":{"lat":"40.7833333","long":"21.3"}},{"country":"gr","city":"Álones","coordinates":{"lat":"37.7333333","long":"23.5166667"}},{"country":"gr","city":"Alónes","coordinates":{"lat":"35.2333333","long":"24.35"}},{"country":"gr","city":"Alónia","coordinates":{"lat":"40.4666667","long":"25.5"}},{"country":"gr","city":"Alónia","coordinates":{"lat":"40.3944444","long":"22.5416667"}},{"country":"gr","city":"Alónia","coordinates":{"lat":"39.2561111","long":"21.3219444"}},{"country":"gr","city":"Alónia","coordinates":{"lat":"39.3372222","long":"21.5216667"}},{"country":"gr","city":"Alónia","coordinates":{"lat":"38.4","long":"24.1333333"}},{"country":"gr","city":"Alónia","coordinates":{"lat":"37.1333333","long":"22.0166667"}},{"country":"gr","city":"Alóni","coordinates":{"lat":"39.4383333","long":"21.1261111"}},{"country":"gr","city":"Alónion","coordinates":{"lat":"39.4383333","long":"21.1261111"}},{"country":"gr","city":"Alonístaina","coordinates":{"lat":"37.6166667","long":"22.2166667"}},{"country":"gr","city":"Alónnisos","coordinates":{"lat":"39.15","long":"23.85"}},{"country":"gr","city":"Áloron","coordinates":{"lat":"40.9266667","long":"22.0852778"}},{"country":"gr","city":"Áloros","coordinates":{"lat":"40.9266667","long":"22.0852778"}},{"country":"gr","city":"Áloros","coordinates":{"lat":"40.5886111","long":"22.5958333"}},{"country":"gr","city":"Aloutoyiannaíika","coordinates":{"lat":"37.3833333","long":"22.65"}},{"country":"gr","city":"Alpokhóri","coordinates":{"lat":"39.5377778","long":"20.7786111"}},{"country":"gr","city":"Alpokhóri","coordinates":{"lat":"38.5666667","long":"22.0166667"}},{"country":"gr","city":"Alpokhóri","coordinates":{"lat":"37.9833333","long":"21.8"}},{"country":"gr","city":"Alpokhóri","coordinates":{"lat":"37.7333333","long":"21.3833333"}},{"country":"gr","city":"Alpokhóri-Botsari","coordinates":{"lat":"39.3619444","long":"20.7061111"}},{"country":"gr","city":"Alpokhórion","coordinates":{"lat":"38.5666667","long":"22.0166667"}},{"country":"gr","city":"Alpokhórion","coordinates":{"lat":"37.6166667","long":"21.5166667"}},{"country":"gr","city":"Alpóspita","coordinates":{"lat":"38.8333333","long":"22.4166667"}},{"country":"gr","city":"Álsos","coordinates":{"lat":"38.25","long":"21.9833333"}},{"country":"gr","city":"Altomirá","coordinates":{"lat":"36.9666667","long":"22.2333333"}},{"country":"gr","city":"Alt Phaleron","coordinates":{"lat":"37.9333333","long":"23.7"}},{"country":"gr","city":"Alvánitsa","coordinates":{"lat":"37.7","long":"21.95"}},{"country":"gr","city":"Alvena","coordinates":{"lat":"37.5","long":"21.7666667"}},{"country":"gr","city":"Álvina","coordinates":{"lat":"37.5","long":"21.7666667"}},{"country":"gr","city":"Alyfantá","coordinates":{"lat":"39.1","long":"26.5166667"}},{"country":"gr","city":"Alykí","coordinates":{"lat":"40.3633333","long":"22.6244444"}},{"country":"gr","city":"Alykí","coordinates":{"lat":"39.0383333","long":"21.0741667"}},{"country":"gr","city":"Alykí","coordinates":{"lat":"37.7191667","long":"27.0002778"}},{"country":"gr","city":"Alysáfi","coordinates":{"lat":"39.0091667","long":"21.6955556"}},{"country":"gr","city":"Alyssus","coordinates":{"lat":"38.1333333","long":"21.5833333"}},{"country":"gr","city":"Amádes","coordinates":{"lat":"38.5725","long":"26.0391667"}},{"country":"gr","city":"Amádhes","coordinates":{"lat":"38.5725","long":"26.0391667"}},{"country":"gr","city":"Amaliáda","coordinates":{"lat":"37.8","long":"21.35"}},{"country":"gr","city":"Amaliápoleos","coordinates":{"lat":"39.1666667","long":"22.8833333"}},{"country":"gr","city":"Amaliápoli","coordinates":{"lat":"39.1666667","long":"22.8833333"}},{"country":"gr","city":"Amaliás","coordinates":{"lat":"37.8","long":"21.35"}},{"country":"gr","city":"Amalióta","coordinates":{"lat":"38.8833333","long":"22.2166667"}},{"country":"gr","city":"Amaló","coordinates":{"lat":"37.55","long":"26.0"}},{"country":"gr","city":"Amálon","coordinates":{"lat":"37.55","long":"26.0"}},{"country":"gr","city":"Amalóta","coordinates":{"lat":"38.8833333","long":"22.2166667"}},{"country":"gr","city":"Amanioú","coordinates":{"lat":"36.8452778","long":"27.1719444"}},{"country":"gr","city":"Amáranda","coordinates":{"lat":"41.05","long":"25.5"}},{"country":"gr","city":"Amáranda","coordinates":{"lat":"41.1861111","long":"22.8094444"}},{"country":"gr","city":"Amárandon","coordinates":{"lat":"39.7005556","long":"21.3880556"}},{"country":"gr","city":"Amárandos","coordinates":{"lat":"40.1583333","long":"20.7288889"}},{"country":"gr","city":"Amáranta","coordinates":{"lat":"41.1861111","long":"22.8094444"}},{"country":"gr","city":"Amáranto","coordinates":{"lat":"39.7005556","long":"21.3880556"}},{"country":"gr","city":"Amáranton","coordinates":{"lat":"39.7005556","long":"21.3880556"}},{"country":"gr","city":"Amárantos","coordinates":{"lat":"40.1583333","long":"20.7288889"}},{"country":"gr","city":"Amárantos","coordinates":{"lat":"39.2102778","long":"21.8602778"}},{"country":"gr","city":"Amári","coordinates":{"lat":"35.2211111","long":"24.6430556"}},{"country":"gr","city":"Amarianá","coordinates":{"lat":"35.1833333","long":"25.3666667"}},{"country":"gr","city":"Amarianón","coordinates":{"lat":"35.1833333","long":"25.3666667"}},{"country":"gr","city":"Amariánous","coordinates":{"lat":"38.8666667","long":"21.3666667"}},{"country":"gr","city":"Amárinthos","coordinates":{"lat":"38.4","long":"23.8833333"}},{"country":"gr","city":"Amárion","coordinates":{"lat":"35.2211111","long":"24.6430556"}},{"country":"gr","city":"Amarlár","coordinates":{"lat":"39.5833333","long":"22.3"}},{"country":"gr","city":"Amarlár","coordinates":{"lat":"39.2","long":"22.1"}},{"country":"gr","city":"Amaroúsion","coordinates":{"lat":"38.05","long":"23.8"}},{"country":"gr","city":"Amathes","coordinates":{"lat":"38.5725","long":"26.0391667"}},{"country":"gr","city":"Amátovon","coordinates":{"lat":"40.8991667","long":"22.6222222"}},{"country":"gr","city":"Amaxádhes","coordinates":{"lat":"41.1166667","long":"25.0666667"}},{"country":"gr","city":"Ambália","coordinates":{"lat":"38.6666667","long":"21.7333333"}},{"country":"gr","city":"Ambáres","coordinates":{"lat":"39.0002778","long":"21.5547222"}},{"country":"gr","city":"Ambári","coordinates":{"lat":"37.6833333","long":"21.7833333"}},{"country":"gr","city":"Ambárion","coordinates":{"lat":"37.6833333","long":"21.7833333"}},{"country":"gr","city":"Ambelá","coordinates":{"lat":"38.1166667","long":"20.75"}},{"country":"gr","city":"Ambelákia","coordinates":{"lat":"41.4833333","long":"26.4"}},{"country":"gr","city":"Ambelákia","coordinates":{"lat":"41.1166667","long":"24.1"}},{"country":"gr","city":"Ambelákia","coordinates":{"lat":"39.8538889","long":"22.5561111"}},{"country":"gr","city":"Ambelákia","coordinates":{"lat":"37.9513889","long":"23.5275"}},{"country":"gr","city":"Ambeláki","coordinates":{"lat":"41.1166667","long":"24.1"}},{"country":"gr","city":"Ambeláki","coordinates":{"lat":"38.9166667","long":"21.2166667"}},{"country":"gr","city":"Ambeláki","coordinates":{"lat":"37.9513889","long":"23.5275"}},{"country":"gr","city":"Ambeláki","coordinates":{"lat":"37.3833333","long":"22.3"}},{"country":"gr","city":"Ambeláki","coordinates":{"lat":"35.2833333","long":"24.4833333"}},{"country":"gr","city":"Ambelákion","coordinates":{"lat":"38.9166667","long":"21.2166667"}},{"country":"gr","city":"Ambelákion","coordinates":{"lat":"37.3833333","long":"22.3"}},{"country":"gr","city":"Ambelákion","coordinates":{"lat":"35.2833333","long":"24.4833333"}},{"country":"gr","city":"Ambelakiótissa","coordinates":{"lat":"38.6166667","long":"21.8833333"}},{"country":"gr","city":"Ambelás","coordinates":{"lat":"38.1166667","long":"20.75"}},{"country":"gr","city":"Ambelía","coordinates":{"lat":"39.5655556","long":"20.8336111"}},{"country":"gr","city":"Ambélia","coordinates":{"lat":"39.4266667","long":"20.4325"}},{"country":"gr","city":"Ambélia","coordinates":{"lat":"39.2258333","long":"20.9288889"}},{"country":"gr","city":"Ambelía","coordinates":{"lat":"39.3166667","long":"22.5"}},{"country":"gr","city":"Ambélia","coordinates":{"lat":"39.6938889","long":"21.5183333"}},{"country":"gr","city":"Ambélia","coordinates":{"lat":"39.0119444","long":"21.7830556"}},{"country":"gr","city":"Ambélia","coordinates":{"lat":"38.8166667","long":"21.4666667"}},{"country":"gr","city":"Ambelíai","coordinates":{"lat":"40.8336111","long":"22.3786111"}},{"country":"gr","city":"Ambéli","coordinates":{"lat":"38.9833333","long":"21.4333333"}},{"country":"gr","city":"Ambeliés","coordinates":{"lat":"40.8336111","long":"22.3786111"}},{"country":"gr","city":"Ambelikó","coordinates":{"lat":"39.05","long":"26.3166667"}},{"country":"gr","city":"Ambelikón","coordinates":{"lat":"39.2775","long":"21.8563889"}},{"country":"gr","city":"Ambelikón","coordinates":{"lat":"39.05","long":"26.3166667"}},{"country":"gr","city":"Ambelióna","coordinates":{"lat":"37.4333333","long":"21.95"}},{"country":"gr","city":"Ambélion","coordinates":{"lat":"38.9833333","long":"21.4333333"}},{"country":"gr","city":"Ambelófiton","coordinates":{"lat":"37.05","long":"21.7"}},{"country":"gr","city":"Ámbeloi","coordinates":{"lat":"41.0","long":"23.3666667"}},{"country":"gr","city":"Ambelókambos","coordinates":{"lat":"37.8333333","long":"21.3"}},{"country":"gr","city":"Ambelokhóri","coordinates":{"lat":"39.5280556","long":"21.0294444"}},{"country":"gr","city":"Ambelokhóri","coordinates":{"lat":"39.7566667","long":"21.3336111"}},{"country":"gr","city":"Ambelokhóri","coordinates":{"lat":"38.3","long":"23.2666667"}},{"country":"gr","city":"Ambelokhórion","coordinates":{"lat":"40.4333333","long":"21.2666667"}},{"country":"gr","city":"Ambelokhórion","coordinates":{"lat":"39.5280556","long":"21.0294444"}},{"country":"gr","city":"Ambelokhórion","coordinates":{"lat":"39.7566667","long":"21.3336111"}},{"country":"gr","city":"Ambelokhórion","coordinates":{"lat":"38.3","long":"23.2666667"}},{"country":"gr","city":"Ambelókipoi","coordinates":{"lat":"41.15","long":"24.15"}},{"country":"gr","city":"Ambelókipoi","coordinates":{"lat":"40.4666667","long":"21.3"}},{"country":"gr","city":"Ambelókipoi","coordinates":{"lat":"37.7666667","long":"20.8666667"}},{"country":"gr","city":"Ambelókipoi","coordinates":{"lat":"38.1","long":"22.3166667"}},{"country":"gr","city":"Ambelókipoi","coordinates":{"lat":"36.9166667","long":"21.8333333"}},{"country":"gr","city":"Ambelón","coordinates":{"lat":"39.75","long":"22.3666667"}},{"country":"gr","city":"Ambelón","coordinates":{"lat":"39.4166667","long":"22.1666667"}},{"country":"gr","city":"Ambelón","coordinates":{"lat":"38.1833333","long":"24.0333333"}},{"country":"gr","city":"Ambelosálesi","coordinates":{"lat":"38.3","long":"23.2666667"}},{"country":"gr","city":"Ámbelos","coordinates":{"lat":"39.2833333","long":"22.05"}},{"country":"gr","city":"Ámbelos","coordinates":{"lat":"38.1333333","long":"22.3333333"}},{"country":"gr","city":"Ámbelos","coordinates":{"lat":"34.85","long":"24.05"}},{"country":"gr","city":"Ámbelos","coordinates":{"lat":"37.8011111","long":"26.8033333"}},{"country":"gr","city":"Ambeloúzos","coordinates":{"lat":"35.0666667","long":"24.9333333"}},{"country":"gr","city":"Ámbliani","coordinates":{"lat":"38.8833333","long":"22.4333333"}},{"country":"gr","city":"Ámbliani","coordinates":{"lat":"38.75","long":"21.9166667"}},{"country":"gr","city":"Ambonus","coordinates":{"lat":"36.2166667","long":"27.8666667"}},{"country":"gr","city":"Amélanda","coordinates":{"lat":"38.8666667","long":"23.3666667"}},{"country":"gr","city":"Amélandai","coordinates":{"lat":"38.8666667","long":"23.3666667"}},{"country":"gr","city":"Amélandes","coordinates":{"lat":"38.8666667","long":"23.3666667"}},{"country":"gr","city":"Amfía","coordinates":{"lat":"41.0833333","long":"25.6166667"}},{"country":"gr","city":"Ámfia","coordinates":{"lat":"37.1166667","long":"22.0666667"}},{"country":"gr","city":"Amfíklia","coordinates":{"lat":"38.6333333","long":"22.5833333"}},{"country":"gr","city":"Amfilochía","coordinates":{"lat":"38.8594444","long":"21.1663889"}},{"country":"gr","city":"Amfilokhía","coordinates":{"lat":"38.8594444","long":"21.1663889"}},{"country":"gr","city":"Amfípolis","coordinates":{"lat":"40.8333333","long":"23.85"}},{"country":"gr","city":"Ámfissa","coordinates":{"lat":"38.525","long":"22.3730556"}},{"country":"gr","city":"Amfithéa","coordinates":{"lat":"39.6894444","long":"20.8711111"}},{"country":"gr","city":"Amfithéa","coordinates":{"lat":"39.1325","long":"21.0366667"}},{"country":"gr","city":"Amfithéa","coordinates":{"lat":"38.55","long":"23.7833333"}},{"country":"gr","city":"Amfithéa","coordinates":{"lat":"38.05","long":"22.5333333"}},{"country":"gr","city":"Amfitríti","coordinates":{"lat":"40.9","long":"25.9166667"}},{"country":"gr","city":"Amígdhala","coordinates":{"lat":"40.45","long":"21.8333333"}},{"country":"gr","city":"Amigdhála","coordinates":{"lat":"35.2166667","long":"25.6"}},{"country":"gr","city":"Amigdhaléa","coordinates":{"lat":"40.25","long":"21.9"}},{"country":"gr","city":"Amigdhaléa","coordinates":{"lat":"39.5333333","long":"20.4666667"}},{"country":"gr","city":"Amigdhaléa","coordinates":{"lat":"39.65","long":"22.2666667"}},{"country":"gr","city":"Amigdhaléa","coordinates":{"lat":"38.4166667","long":"22.2166667"}},{"country":"gr","city":"Amigdhaléa","coordinates":{"lat":"38.1166667","long":"24.5833333"}},{"country":"gr","city":"Amigdhaléa","coordinates":{"lat":"37.85","long":"22.3166667"}},{"country":"gr","city":"Amigdhaléa","coordinates":{"lat":"37.0833333","long":"22.9"}},{"country":"gr","city":"Amigdhaléa","coordinates":{"lat":"35.3333333","long":"25.6333333"}},{"country":"gr","city":"Amigdhaléai","coordinates":{"lat":"40.15","long":"21.3666667"}},{"country":"gr","city":"Amigdhaléai","coordinates":{"lat":"37.5","long":"21.85"}},{"country":"gr","city":"Amigdhaleón","coordinates":{"lat":"40.9666667","long":"24.3666667"}},{"country":"gr","city":"Amigdhaleónas","coordinates":{"lat":"40.9666667","long":"24.3666667"}},{"country":"gr","city":"Amigdhaliá","coordinates":{"lat":"40.25","long":"21.9"}},{"country":"gr","city":"Amigdhaliá","coordinates":{"lat":"38.4166667","long":"22.2166667"}},{"country":"gr","city":"Amigdhaliá","coordinates":{"lat":"38.1166667","long":"24.5833333"}},{"country":"gr","city":"Amigdhaliá","coordinates":{"lat":"37.0833333","long":"22.9"}},{"country":"gr","city":"Amigdhaliá","coordinates":{"lat":"35.2166667","long":"25.6"}},{"country":"gr","city":"Amigdhalí","coordinates":{"lat":"39.6","long":"22.7166667"}},{"country":"gr","city":"Amigdhalí","coordinates":{"lat":"39.3869444","long":"21.7075"}},{"country":"gr","city":"Amigdhalí","coordinates":{"lat":"37.8333333","long":"21.7666667"}},{"country":"gr","city":"Amigdhaliás","coordinates":{"lat":"40.25","long":"21.9"}},{"country":"gr","city":"Amigdhaliés","coordinates":{"lat":"40.15","long":"21.3666667"}},{"country":"gr","city":"Amigdhaliés","coordinates":{"lat":"37.5","long":"21.85"}},{"country":"gr","city":"Amigdhalítsa","coordinates":{"lat":"37.6833333","long":"22.8333333"}},{"country":"gr","city":"Amigdháloi","coordinates":{"lat":"35.2166667","long":"25.6"}},{"country":"gr","city":"Amigdhalokefáli","coordinates":{"lat":"35.3666667","long":"23.5666667"}},{"country":"gr","city":"AmigdhalokeFálion","coordinates":{"lat":"35.3666667","long":"23.5666667"}},{"country":"gr","city":"Amígdhalon","coordinates":{"lat":"39.15","long":"22.7166667"}},{"country":"gr","city":"Amigdhálos","coordinates":{"lat":"35.2166667","long":"25.6"}},{"country":"gr","city":"Amíklai","coordinates":{"lat":"37.0333333","long":"22.4333333"}},{"country":"gr","city":"Amíndaion","coordinates":{"lat":"40.6833333","long":"21.6833333"}},{"country":"gr","city":"Amirá","coordinates":{"lat":"35.05","long":"25.45"}},{"country":"gr","city":"Amirás","coordinates":{"lat":"35.05","long":"25.45"}},{"country":"gr","city":"Amisianá","coordinates":{"lat":"40.9333333","long":"24.35"}},{"country":"gr","city":"Amisinón","coordinates":{"lat":"41.3166667","long":"24.5833333"}},{"country":"gr","city":"Ammokhórion","coordinates":{"lat":"40.7833333","long":"21.4833333"}},{"country":"gr","city":"Ammólokhos","coordinates":{"lat":"37.9333333","long":"24.7666667"}},{"country":"gr","city":"Ámmos","coordinates":{"lat":"40.5016667","long":"22.2544444"}},{"country":"gr","city":"Ámmos","coordinates":{"lat":"39.3077778","long":"21.0222222"}},{"country":"gr","city":"Ámmos","coordinates":{"lat":"39.8436111","long":"19.4097222"}},{"country":"gr","city":"Ámmos","coordinates":{"lat":"37.1","long":"22.0"}},{"country":"gr","city":"Ammos Méryion","coordinates":{"lat":"37.3833333","long":"24.4"}},{"country":"gr","city":"Ammótopos","coordinates":{"lat":"39.2711111","long":"20.9422222"}},{"country":"gr","city":"Ammoudári","coordinates":{"lat":"35.2833333","long":"24.1833333"}},{"country":"gr","city":"Ammoudárion","coordinates":{"lat":"35.2833333","long":"24.1833333"}},{"country":"gr","city":"Ammoudhára","coordinates":{"lat":"40.4166667","long":"21.2833333"}},{"country":"gr","city":"Ammoudhárai","coordinates":{"lat":"35.0","long":"25.6333333"}},{"country":"gr","city":"Ammoudháres","coordinates":{"lat":"35.0","long":"25.6333333"}},{"country":"gr","city":"Ammoudhári","coordinates":{"lat":"35.2833333","long":"24.1833333"}},{"country":"gr","city":"Ammoudhárion","coordinates":{"lat":"35.2833333","long":"24.1833333"}},{"country":"gr","city":"Ammoudherón","coordinates":{"lat":"37.1166667","long":"21.8333333"}},{"country":"gr","city":"Ammoudhiá","coordinates":{"lat":"41.15","long":"23.3333333"}},{"country":"gr","city":"Ammoudhiá","coordinates":{"lat":"39.2388889","long":"20.4827778"}},{"country":"gr","city":"Ammoudhiá","coordinates":{"lat":"39.5316667","long":"21.6866667"}},{"country":"gr","city":"Ammoudiá","coordinates":{"lat":"39.2388889","long":"20.4827778"}},{"country":"gr","city":"Ammoudiá","coordinates":{"lat":"39.5316667","long":"21.6866667"}},{"country":"gr","city":"Ammoulianí","coordinates":{"lat":"40.3333333","long":"23.9166667"}},{"country":"gr","city":"Ammóvounon","coordinates":{"lat":"41.5833333","long":"26.2833333"}},{"country":"gr","city":"Amnátos","coordinates":{"lat":"35.3333333","long":"24.6166667"}},{"country":"gr","city":"Amolianí","coordinates":{"lat":"40.3333333","long":"23.9166667"}},{"country":"gr","city":"Amólokhos","coordinates":{"lat":"37.9333333","long":"24.7666667"}},{"country":"gr","city":"Amonakliós","coordinates":{"lat":"37.75","long":"24.95"}},{"country":"gr","city":"Amonaklioú","coordinates":{"lat":"37.75","long":"24.95"}},{"country":"gr","city":"Amórani","coordinates":{"lat":"38.5166667","long":"21.9166667"}},{"country":"gr","city":"Amorgós","coordinates":{"lat":"36.8333333","long":"25.9"}},{"country":"gr","city":"Amórion","coordinates":{"lat":"41.3","long":"26.4333333"}},{"country":"gr","city":"Amoryianoí","coordinates":{"lat":"38.8666667","long":"21.3666667"}},{"country":"gr","city":"Amoudhára","coordinates":{"lat":"40.4166667","long":"21.2833333"}},{"country":"gr","city":"Amoudhári","coordinates":{"lat":"35.2833333","long":"24.1833333"}},{"country":"gr","city":"Amoúri","coordinates":{"lat":"39.7833333","long":"22.0833333"}},{"country":"gr","city":"Amoúri","coordinates":{"lat":"38.9","long":"22.3333333"}},{"country":"gr","city":"Amoúrion","coordinates":{"lat":"39.7833333","long":"22.0833333"}},{"country":"gr","city":"Amoúrion","coordinates":{"lat":"38.9","long":"22.3333333"}},{"country":"gr","city":"Amouryéles","coordinates":{"lat":"35.1333333","long":"25.1833333"}},{"country":"gr","city":"Amouryéllai","coordinates":{"lat":"35.1333333","long":"25.1833333"}},{"country":"gr","city":"Amouryiéles","coordinates":{"lat":"35.1333333","long":"25.1833333"}},{"country":"gr","city":"Amouryiéllai","coordinates":{"lat":"35.1333333","long":"25.1833333"}},{"country":"gr","city":"Ampáres","coordinates":{"lat":"39.0002778","long":"21.5547222"}},{"country":"gr","city":"Ampelákia","coordinates":{"lat":"39.7044444","long":"21.0647222"}},{"country":"gr","city":"Ampelákia","coordinates":{"lat":"39.8538889","long":"22.5561111"}},{"country":"gr","city":"Ampelákia","coordinates":{"lat":"37.9513889","long":"23.5275"}},{"country":"gr","city":"Ampeleía","coordinates":{"lat":"39.5655556","long":"20.8336111"}},{"country":"gr","city":"Ampeleíai","coordinates":{"lat":"40.8336111","long":"22.3786111"}},{"country":"gr","city":"Ampeleíes","coordinates":{"lat":"40.8336111","long":"22.3786111"}},{"country":"gr","city":"Ampélia","coordinates":{"lat":"39.7630556","long":"21.0563889"}},{"country":"gr","city":"Ampélia","coordinates":{"lat":"39.4266667","long":"20.4325"}},{"country":"gr","city":"Ampélia","coordinates":{"lat":"39.2258333","long":"20.9288889"}},{"country":"gr","city":"Ampélia","coordinates":{"lat":"39.6938889","long":"21.5183333"}},{"country":"gr","city":"Ampélia","coordinates":{"lat":"39.0119444","long":"21.7830556"}},{"country":"gr","city":"Ampelikó","coordinates":{"lat":"39.2775","long":"21.8563889"}},{"country":"gr","city":"Ampelikón","coordinates":{"lat":"39.2775","long":"21.8563889"}},{"country":"gr","city":"Ampelikón","coordinates":{"lat":"39.05","long":"26.3166667"}},{"country":"gr","city":"Ampelochóri","coordinates":{"lat":"39.5280556","long":"21.0294444"}},{"country":"gr","city":"Ampelochóri","coordinates":{"lat":"39.7566667","long":"21.3336111"}},{"country":"gr","city":"Ampelochórion","coordinates":{"lat":"39.5280556","long":"21.0294444"}},{"country":"gr","city":"Ampelochórion","coordinates":{"lat":"39.7566667","long":"21.3336111"}},{"country":"gr","city":"Ampelón","coordinates":{"lat":"40.7327778","long":"22.5894444"}},{"country":"gr","city":"Ampelón","coordinates":{"lat":"39.7438889","long":"20.3416667"}},{"country":"gr","city":"Ampelónas","coordinates":{"lat":"39.7438889","long":"20.3416667"}},{"country":"gr","city":"Ámpelos","coordinates":{"lat":"34.85","long":"24.05"}},{"country":"gr","city":"Ámpelos","coordinates":{"lat":"37.8011111","long":"26.8033333"}},{"country":"gr","city":"Amvlóta","coordinates":{"lat":"38.8833333","long":"22.2166667"}},{"country":"gr","city":"Amvrakía","coordinates":{"lat":"38.6666667","long":"21.7166667"}},{"country":"gr","city":"Amvrosía","coordinates":{"lat":"41.0833333","long":"25.2333333"}},{"country":"gr","city":"(( Amygdaléa ))","coordinates":{"lat":"39.5333333","long":"20.4666667"}},{"country":"gr","city":"Amygdalí","coordinates":{"lat":"39.3869444","long":"21.7075"}},{"country":"gr","city":"Anabaklí","coordinates":{"lat":"39.2833333","long":"22.55"}},{"country":"gr","city":"Anáfi","coordinates":{"lat":"36.35","long":"25.7666667"}},{"country":"gr","city":"Anafonítria","coordinates":{"lat":"37.85","long":"20.65"}},{"country":"gr","city":"Anákion","coordinates":{"lat":"40.9833333","long":"25.3"}},{"country":"gr","city":"Análipis","coordinates":{"lat":"35.5","long":"23.7"}},{"country":"gr","city":"Análipsi","coordinates":{"lat":"39.6033333","long":"19.925"}},{"country":"gr","city":"Análipsis","coordinates":{"lat":"39.8333333","long":"22.0333333"}},{"country":"gr","city":"Análipsis","coordinates":{"lat":"39.7011111","long":"19.8222222"}},{"country":"gr","city":"Análipsis","coordinates":{"lat":"38.5","long":"21.7"}},{"country":"gr","city":"Análipsis","coordinates":{"lat":"38.4166667","long":"22.8333333"}},{"country":"gr","city":"Análipsis","coordinates":{"lat":"37.6666667","long":"24.0333333"}},{"country":"gr","city":"Análipsis","coordinates":{"lat":"37.8","long":"21.4333333"}},{"country":"gr","city":"Análipsis","coordinates":{"lat":"37.0166667","long":"21.9666667"}},{"country":"gr","city":"Análipsis","coordinates":{"lat":"35.25","long":"23.6833333"}},{"country":"gr","city":"Análipsis","coordinates":{"lat":"35.3166667","long":"25.5666667"}},{"country":"gr","city":"Anapaftíria","coordinates":{"lat":"39.7833333","long":"19.8825"}},{"country":"gr","city":"Anapavtíria","coordinates":{"lat":"39.7833333","long":"19.8825"}},{"country":"gr","city":"Anaphi","coordinates":{"lat":"36.35","long":"25.7666667"}},{"country":"gr","city":"Anapládes","coordinates":{"lat":"39.4222222","long":"20.0463889"}},{"country":"gr","city":"Anapládhes","coordinates":{"lat":"39.4222222","long":"20.0463889"}},{"country":"gr","city":"Anapolis Riza","coordinates":{"lat":"35.2166667","long":"24.1"}},{"country":"gr","city":"Anárgyroi","coordinates":{"lat":"39.6655556","long":"20.7119444"}},{"country":"gr","city":"Anarrákhi","coordinates":{"lat":"40.4833333","long":"21.5666667"}},{"country":"gr","city":"Anáryiroi","coordinates":{"lat":"40.6","long":"21.6166667"}},{"country":"gr","city":"Anáryiroi","coordinates":{"lat":"39.6655556","long":"20.7119444"}},{"country":"gr","city":"Anaselítsa","coordinates":{"lat":"40.2666667","long":"21.55"}},{"country":"gr","city":"Anastasía","coordinates":{"lat":"41.0666667","long":"23.8166667"}},{"country":"gr","city":"Anástasis","coordinates":{"lat":"37.9","long":"22.0"}},{"country":"gr","city":"Anastasopoulaíika","coordinates":{"lat":"37.65","long":"23.0833333"}},{"country":"gr","city":"Anastasopouléïka","coordinates":{"lat":"37.65","long":"23.0833333"}},{"country":"gr","city":"Anastásova","coordinates":{"lat":"37.9","long":"22.0"}},{"country":"gr","city":"Anastásova Megáli","coordinates":{"lat":"37.15","long":"22.2333333"}},{"country":"gr","city":"Anastásova Mikrá","coordinates":{"lat":"37.1","long":"22.25"}},{"country":"gr","city":"Anatolí","coordinates":{"lat":"41.2583333","long":"22.9266667"}},{"country":"gr","city":"Anatolí","coordinates":{"lat":"40.2333333","long":"21.9"}},{"country":"gr","city":"Anatolí","coordinates":{"lat":"39.6388889","long":"20.8652778"}},{"country":"gr","city":"Anatolí","coordinates":{"lat":"39.4397222","long":"21.0491667"}},{"country":"gr","city":"Anatolí","coordinates":{"lat":"39.75","long":"22.7"}},{"country":"gr","city":"Anatolí","coordinates":{"lat":"38.7666667","long":"22.1333333"}},{"country":"gr","city":"Anatolí","coordinates":{"lat":"35.05","long":"25.6333333"}},{"country":"gr","city":"Anatolikí","coordinates":{"lat":"39.6252778","long":"21.0402778"}},{"country":"gr","city":"Anatolikí Frangísta","coordinates":{"lat":"38.9666667","long":"21.6166667"}},{"country":"gr","city":"Anatolikó","coordinates":{"lat":"40.6630556","long":"22.7113889"}},{"country":"gr","city":"Anatolikón","coordinates":{"lat":"40.55","long":"21.75"}},{"country":"gr","city":"Anatolikón","coordinates":{"lat":"40.6630556","long":"22.7113889"}},{"country":"gr","city":"Anatolikón","coordinates":{"lat":"36.95","long":"22.25"}},{"country":"gr","city":"Anatolikós Frangísta","coordinates":{"lat":"38.9666667","long":"21.6166667"}},{"country":"gr","city":"Anatoloú","coordinates":{"lat":"41.2583333","long":"22.9266667"}},{"country":"gr","city":"Anávatos","coordinates":{"lat":"38.4019444","long":"26.0191667"}},{"country":"gr","city":"Anávissos","coordinates":{"lat":"37.7333333","long":"23.95"}},{"country":"gr","city":"Anávra","coordinates":{"lat":"39.6833333","long":"22.7"}},{"country":"gr","city":"Anávra","coordinates":{"lat":"39.0666667","long":"22.55"}},{"country":"gr","city":"Anávra","coordinates":{"lat":"38.7833333","long":"22.5833333"}},{"country":"gr","city":"Anavritá","coordinates":{"lat":"40.0666667","long":"21.2833333"}},{"country":"gr","city":"Anavrití","coordinates":{"lat":"38.5333333","long":"21.9"}},{"country":"gr","city":"Anavrití","coordinates":{"lat":"37.0333333","long":"22.3666667"}},{"country":"gr","city":"Anavritón","coordinates":{"lat":"41.05","long":"23.05"}},{"country":"gr","city":"Anavritón","coordinates":{"lat":"37.3333333","long":"22.2333333"}},{"country":"gr","city":"Anavryti","coordinates":{"lat":"37.0333333","long":"22.3666667"}},{"country":"gr","city":"Anayénnisis","coordinates":{"lat":"41.1166667","long":"23.3333333"}},{"country":"gr","city":"Anazíri","coordinates":{"lat":"37.6","long":"21.8833333"}},{"country":"gr","city":"Anazíri","coordinates":{"lat":"37.1166667","long":"21.9666667"}},{"country":"gr","city":"Anázogli","coordinates":{"lat":"36.9","long":"21.85"}},{"country":"gr","city":"Anchíalos","coordinates":{"lat":"40.7144444","long":"22.7794444"}},{"country":"gr","city":"Ánda","coordinates":{"lat":"38.05","long":"24.5333333"}},{"country":"gr","city":"Andartikón","coordinates":{"lat":"40.7666667","long":"21.2"}},{"country":"gr","city":"Andás","coordinates":{"lat":"41.1333333","long":"24.7"}},{"country":"gr","city":"Andemaki","coordinates":{"lat":"36.8108333","long":"27.0997222"}},{"country":"gr","city":"Ánderas","coordinates":{"lat":"38.8166667","long":"22.6833333"}},{"country":"gr","city":"Andhanía","coordinates":{"lat":"37.2666667","long":"21.9833333"}},{"country":"gr","city":"Andhravasísa","coordinates":{"lat":"35.3166667","long":"25.6166667"}},{"country":"gr","city":"Andhrioláta","coordinates":{"lat":"38.15","long":"20.7333333"}},{"country":"gr","city":"Andhrítsa","coordinates":{"lat":"37.4666667","long":"22.6166667"}},{"country":"gr","city":"Andhrítsaina","coordinates":{"lat":"37.4827778","long":"21.9077778"}},{"country":"gr","city":"Andhrómiloi","coordinates":{"lat":"35.0833333","long":"26.0333333"}},{"country":"gr","city":"Andhróni","coordinates":{"lat":"37.8","long":"21.7166667"}},{"country":"gr","city":"Andhroniánoi","coordinates":{"lat":"38.6166667","long":"24.05"}},{"country":"gr","city":"Andiá","coordinates":{"lat":"38.05","long":"24.5333333"}},{"country":"gr","city":"Andiás","coordinates":{"lat":"38.05","long":"24.5333333"}},{"country":"gr","city":"Andifílippoi","coordinates":{"lat":"40.95","long":"24.2166667"}},{"country":"gr","city":"Andigónia","coordinates":{"lat":"41.1255556","long":"22.8741667"}},{"country":"gr","city":"Andígonon","coordinates":{"lat":"40.65","long":"21.7666667"}},