[{"country":"ai","city":"Bethel","coordinates":{"lat":"18.2","long":"-63.1"}},{"country":"ai","city":"Betty Hill","coordinates":{"lat":"18.2166667","long":"-63.0"}},{"country":"ai","city":"Blowing Point Village","coordinates":{"lat":"18.1666667","long":"-63.0833333"}},{"country":"ai","city":"Cannifist","coordinates":{"lat":"18.2333333","long":"-63.0166667"}},{"country":"ai","city":"Cauls Bottom","coordinates":{"lat":"18.2166667","long":"-63.0333333"}},{"country":"ai","city":"Chalvilles","coordinates":{"lat":"18.2333333","long":"-63.0"}},{"country":"ai","city":"Crocus Hill","coordinates":{"lat":"18.2166667","long":"-63.0666667"}},{"country":"ai","city":"Deep Waters","coordinates":{"lat":"18.2333333","long":"-63.0166667"}},{"country":"ai","city":"East End","coordinates":{"lat":"18.2333333","long":"-63.0"}},{"country":"ai","city":"East End Village","coordinates":{"lat":"18.2333333","long":"-63.0"}},{"country":"ai","city":"Ebenezer","coordinates":{"lat":"18.2166667","long":"-63.0666667"}},{"country":"ai","city":"George Hill","coordinates":{"lat":"18.2","long":"-63.0666667"}},{"country":"ai","city":"Island Harbour","coordinates":{"lat":"18.25","long":"-63.0"}},{"country":"ai","city":"Junks Hole","coordinates":{"lat":"18.25","long":"-62.9833333"}},{"country":"ai","city":"Little Dicks","coordinates":{"lat":"18.2333333","long":"-63.0333333"}},{"country":"ai","city":"Little Dix","coordinates":{"lat":"18.2333333","long":"-63.0333333"}},{"country":"ai","city":"Long Bay Village","coordinates":{"lat":"18.1833333","long":"-63.1166667"}},{"country":"ai","city":"Long Ground","coordinates":{"lat":"18.2","long":"-63.05"}},{"country":"ai","city":"Long Path","coordinates":{"lat":"18.2166667","long":"-63.0166667"}},{"country":"ai","city":"Lower South Hill","coordinates":{"lat":"18.1833333","long":"-63.1"}},{"country":"ai","city":"Mahogany Tree","coordinates":{"lat":"18.2","long":"-63.0333333"}},{"country":"ai","city":"Mount Fortune","coordinates":{"lat":"18.2333333","long":"-62.9833333"}},{"country":"ai","city":"North Hill Village","coordinates":{"lat":"18.2","long":"-63.0666667"}},{"country":"ai","city":"North Side","coordinates":{"lat":"18.2166667","long":"-63.05"}},{"country":"ai","city":"Rey Hill","coordinates":{"lat":"18.2","long":"-63.0333333"}},{"country":"ai","city":"Saint Mary's","coordinates":{"lat":"18.2166667","long":"-63.0666667"}},{"country":"ai","city":"Sandy Ground Village","coordinates":{"lat":"18.2","long":"-63.0833333"}},{"country":"ai","city":"Shoal Bay Village","coordinates":{"lat":"18.25","long":"-63.0166667"}},{"country":"ai","city":"Shoal Village","coordinates":{"lat":"18.25","long":"-63.0166667"}},{"country":"ai","city":"South Hill Village","coordinates":{"lat":"18.1833333","long":"-63.0833333"}},{"country":"ai","city":"Stoney Ground","coordinates":{"lat":"18.2166667","long":"-63.0333333"}},{"country":"ai","city":"The Copse","coordinates":{"lat":"18.2166667","long":"-62.9833333"}},{"country":"ai","city":"The Farrington","coordinates":{"lat":"18.2","long":"-63.0333333"}},{"country":"ai","city":"The Forest","coordinates":{"lat":"18.2","long":"-63.0333333"}},{"country":"ai","city":"The Quarter","coordinates":{"lat":"18.2","long":"-63.0333333"}},{"country":"ai","city":"The Valley","coordinates":{"lat":"18.2166667","long":"-63.05"}},{"country":"ai","city":"Valley","coordinates":{"lat":"18.2166667","long":"-63.05"}},{"country":"ai","city":"Wattices","coordinates":{"lat":"18.2166667","long":"-63.0333333"}},{"country":"ai","city":"Welches Hill","coordinates":{"lat":"18.2333333","long":"-63.0166667"}},{"country":"ai","city":"Welches","coordinates":{"lat":"18.2333333","long":"-63.0166667"}},{"country":"ai","city":"West End Village","coordinates":{"lat":"18.1666667","long":"-63.15"}},{"country":"ai","city":"White Hill","coordinates":{"lat":"18.25","long":"-63.0"}}]