[{"country":"ao","city":"1.0 de Maio","coordinates":{"lat":"-12.654444","long":"13.478611"}},{"country":"ao","city":"28 de Maio","coordinates":{"lat":"-6.3","long":"15.083333"}},{"country":"ao","city":"28 de Maio","coordinates":{"lat":"-7.95","long":"14.2"}},{"country":"ao","city":"31 de Janeiro","coordinates":{"lat":"-6.898091","long":"15.324011"}},{"country":"ao","city":"5 de Outubro","coordinates":{"lat":"-9.523375","long":"17.808386"}},{"country":"ao","city":"Abacateiro","coordinates":{"lat":"-7.499811","long":"15.104413"}},{"country":"ao","city":"Abel","coordinates":{"lat":"-9.416667","long":"15.483333"}},{"country":"ao","city":"Abel Alexandre","coordinates":{"lat":"-12.419572","long":"15.437862"}},{"country":"ao","city":"Abel Carapuchoso","coordinates":{"lat":"-11.116667","long":"15.133333"}},{"country":"ao","city":"Abilio","coordinates":{"lat":"-12.933333","long":"15.95"}},{"country":"ao","city":"A. Braz","coordinates":{"lat":"-12.133333","long":"15.7"}},{"country":"ao","city":"Abreu","coordinates":{"lat":"-9.183333","long":"14.55"}},{"country":"ao","city":"Abreu","coordinates":{"lat":"-12.666667","long":"15.766667"}},{"country":"ao","city":"A. Carvalho","coordinates":{"lat":"-12.883333","long":"15.483333"}},{"country":"ao","city":"Achipinto","coordinates":{"lat":"-11.354288","long":"14.264638"}},{"country":"ao","city":"Aco","coordinates":{"lat":"-10.174676","long":"15.711512"}},{"country":"ao","city":"Acocoto","coordinates":{"lat":"-11.855574","long":"17.031754"}},{"country":"ao","city":"Açucareira","coordinates":{"lat":"-8.593611","long":"13.605556"}},{"country":"ao","city":"Acuco Cambundo","coordinates":{"lat":"-11.951484","long":"17.223085"}},{"country":"ao","city":"Acumba","coordinates":{"lat":"-12.276944","long":"13.817222"}},{"country":"ao","city":"Acumba","coordinates":{"lat":"-11.747258","long":"14.502129"}},{"country":"ao","city":"Adelina","coordinates":{"lat":"-9.25","long":"14.766667"}},{"country":"ao","city":"A. Diniz","coordinates":{"lat":"-9.033333","long":"15.733333"}},{"country":"ao","city":"Aengue","coordinates":{"lat":"-11.448722","long":"14.460943"}},{"country":"ao","city":"A. Ferreira","coordinates":{"lat":"-12.966667","long":"15.1"}},{"country":"ao","city":"Afonso","coordinates":{"lat":"-12.224975","long":"15.318361"}},{"country":"ao","city":"Afonso Calei","coordinates":{"lat":"-12.233333","long":"15.333333"}},{"country":"ao","city":"Agabia","coordinates":{"lat":"-8.816667","long":"15.5"}},{"country":"ao","city":"Age","coordinates":{"lat":"-11.016667","long":"14.933333"}},{"country":"ao","city":"Agema","coordinates":{"lat":"-12.05","long":"21.816667"}},{"country":"ao","city":"A. G. Garrido","coordinates":{"lat":"-12.716667","long":"15.15"}},{"country":"ao","city":"A. Gonçalves","coordinates":{"lat":"-11.066667","long":"14.916667"}},{"country":"ao","city":"A. Gonçalves Magalhães","coordinates":{"lat":"-11.016667","long":"14.816667"}},{"country":"ao","city":"Agostinho Baltazar","coordinates":{"lat":"-9.251015","long":"15.884536"}},{"country":"ao","city":"Agostinho Neto","coordinates":{"lat":"-14.655194","long":"17.644712"}},{"country":"ao","city":"Agostinho Neto","coordinates":{"lat":"-7.31707","long":"15.36785"}},{"country":"ao","city":"Agostinho Neto","coordinates":{"lat":"-8.77017","long":"18.003877"}},{"country":"ao","city":"Água Clara","coordinates":{"lat":"-12.933333","long":"14.833333"}},{"country":"ao","city":"Aguada","coordinates":{"lat":"-14.811445","long":"13.247441"}},{"country":"ao","city":"Aguema","coordinates":{"lat":"-12.05","long":"21.816667"}},{"country":"ao","city":"Aguepa","coordinates":{"lat":"-11.468993","long":"14.471347"}},{"country":"ao","city":"Aguerguei","coordinates":{"lat":"-12.345556","long":"13.835278"}},{"country":"ao","city":"Ahica","coordinates":{"lat":"-17.1","long":"18.2"}},{"country":"ao","city":"Aianha","coordinates":{"lat":"-10.529011","long":"14.501107"}},{"country":"ao","city":"Aienja","coordinates":{"lat":"-13.030556","long":"15.28"}},{"country":"ao","city":"Ailunga","coordinates":{"lat":"-17.1","long":"21.416667"}},{"country":"ao","city":"Aimbir","coordinates":{"lat":"-17.55","long":"18.533333"}},{"country":"ao","city":"Aiombo","coordinates":{"lat":"-11.746519","long":"14.7082"}},{"country":"ao","city":"A. J. Afonso","coordinates":{"lat":"-12.733333","long":"15.033333"}},{"country":"ao","city":"A. Lage","coordinates":{"lat":"-12.983333","long":"15.233333"}},{"country":"ao","city":"Alanda","coordinates":{"lat":"-11.740858","long":"17.004192"}},{"country":"ao","city":"Alanganga","coordinates":{"lat":"-9.551389","long":"16.100556"}},{"country":"ao","city":"Albano André","coordinates":{"lat":"-14.655734","long":"17.777456"}},{"country":"ao","city":"Albano Vieira","coordinates":{"lat":"-12.183333","long":"15.216667"}},{"country":"ao","city":"Alberto A. Cancela","coordinates":{"lat":"-11.089151","long":"15.421581"}},{"country":"ao","city":"Alberto","coordinates":{"lat":"-11.833333","long":"15.366667"}},{"country":"ao","city":"Alberto","coordinates":{"lat":"-6.833333","long":"14.6"}},{"country":"ao","city":"Alberto","coordinates":{"lat":"-8.761738","long":"18.071517"}},{"country":"ao","city":"Albuquerque","coordinates":{"lat":"-12.054203","long":"15.209178"}},{"country":"ao","city":"Alcacer","coordinates":{"lat":"-14.843145","long":"15.045797"}},{"country":"ao","city":"Alcides Silva","coordinates":{"lat":"-12.166667","long":"15.766667"}},{"country":"ao","city":"Aldeia","coordinates":{"lat":"-8.706631","long":"14.440484"}},{"country":"ao","city":"Aldeia","coordinates":{"lat":"-12.403491","long":"16.004014"}},{"country":"ao","city":"Aldeia","coordinates":{"lat":"-7.772911","long":"15.274083"}},{"country":"ao","city":"Aldeia Campo","coordinates":{"lat":"-11.414905","long":"15.110133"}},{"country":"ao","city":"Aldeia da Matala","coordinates":{"lat":"-14.736889","long":"15.031418"}},{"country":"ao","city":"Aldeia da Missão","coordinates":{"lat":"-7.988115","long":"15.845598"}},{"country":"ao","city":"Aldeia da Missão","coordinates":{"lat":"-8.513128","long":"14.575426"}},{"country":"ao","city":"Aldeia de Freixo","coordinates":{"lat":"-11.383619","long":"15.14598"}},{"country":"ao","city":"Aldeia de Melo","coordinates":{"lat":"-11.260013","long":"15.001945"}},{"country":"ao","city":"Aldeia de Santa Maria","coordinates":{"lat":"-8.95","long":"16.016667"}},{"country":"ao","city":"Aldeia de São José","coordinates":{"lat":"-13.7","long":"15.15"}},{"country":"ao","city":"Aldeia do Biópio","coordinates":{"lat":"-12.4675","long":"13.729167"}},{"country":"ao","city":"Aldeia do Longolo","coordinates":{"lat":"-10.176867","long":"14.952184"}},{"country":"ao","city":"Aldeia Formosa","coordinates":{"lat":"-9.484647","long":"15.989696"}},{"country":"ao","city":"Aldeia Mota","coordinates":{"lat":"-9.263149","long":"15.933743"}},{"country":"ao","city":"Aldeía Nova","coordinates":{"lat":"-8.616811","long":"15.113605"}},{"country":"ao","city":"Aldeia Nova","coordinates":{"lat":"-11.286304","long":"14.1596"}},{"country":"ao","city":"Aldeia Piloto","coordinates":{"lat":"-6.636573","long":"15.058016"}},{"country":"ao","city":"Aldeia São José","coordinates":{"lat":"-13.7","long":"15.15"}},{"country":"ao","city":"Aldeia Viçosa","coordinates":{"lat":"-8.1","long":"14.966667"}},{"country":"ao","city":"Alegria","coordinates":{"lat":"-9.874108","long":"17.297573"}},{"country":"ao","city":"Aleixo","coordinates":{"lat":"-9.383333","long":"15.6"}},{"country":"ao","city":"Alemão","coordinates":{"lat":"-12.633333","long":"15.483333"}},{"country":"ao","city":"Alemba","coordinates":{"lat":"-10.783333","long":"16.516667"}},{"country":"ao","city":"Além Rio","coordinates":{"lat":"-9.35","long":"16.2"}},{"country":"ao","city":"Alepi","coordinates":{"lat":"-12.364148","long":"16.438021"}},{"country":"ao","city":"Aleta","coordinates":{"lat":"-10.183333","long":"14.466667"}},{"country":"ao","city":"Aleva","coordinates":{"lat":"-12.969722","long":"15.664444"}},{"country":"ao","city":"Alfândega","coordinates":{"lat":"-7.537064","long":"15.83843"}},{"country":"ao","city":"Alhoaio do Ngalo","coordinates":{"lat":"-11.373013","long":"14.333044"}},{"country":"ao","city":"Alito","coordinates":{"lat":"-9.277266","long":"17.079553"}},{"country":"ao","city":"Almeida","coordinates":{"lat":"-9.1","long":"14.616667"}},{"country":"ao","city":"Almeida","coordinates":{"lat":"-11.009479","long":"15.078628"}},{"country":"ao","city":"A. Lopes","coordinates":{"lat":"-12.933333","long":"15.1"}},{"country":"ao","city":"Alpoim","coordinates":{"lat":"-11.222402","long":"14.584395"}},{"country":"ao","city":"Alqueidão","coordinates":{"lat":"-11.292082","long":"15.023092"}},{"country":"ao","city":"Alto Camboma","coordinates":{"lat":"-7.539231","long":"15.122128"}},{"country":"ao","city":"Alto Catambegi","coordinates":{"lat":"-8.532429","long":"15.334514"}},{"country":"ao","city":"Alto Catumbela","coordinates":{"lat":"-12.95","long":"14.75"}},{"country":"ao","city":"Alto Cauale","coordinates":{"lat":"-7.683333","long":"16.016667"}},{"country":"ao","city":"Alto Chama","coordinates":{"lat":"-8.487859","long":"15.644433"}},{"country":"ao","city":"Alto Chicapa","coordinates":{"lat":"-10.931643","long":"19.151316"}},{"country":"ao","city":"Alto Chikapa","coordinates":{"lat":"-10.931643","long":"19.151316"}},{"country":"ao","city":"Alto Cuanza","coordinates":{"lat":"-13.233333","long":"17.416667"}},{"country":"ao","city":"Alto Cuilo","coordinates":{"lat":"-13.433333","long":"18.866667"}},{"country":"ao","city":"Alto-Cuilo","coordinates":{"lat":"-10.049015","long":"19.515477"}},{"country":"ao","city":"Alto Cuito","coordinates":{"lat":"-13.433333","long":"18.866667"}},{"country":"ao","city":"Alto Cuso","coordinates":{"lat":"-8.924708","long":"15.353374"}},{"country":"ao","city":"Alto da Xitatamera","coordinates":{"lat":"-12.366667","long":"15.633333"}},{"country":"ao","city":"Alto do Banze","coordinates":{"lat":"-9.458005","long":"14.335204"}},{"country":"ao","city":"Alto Dondo","coordinates":{"lat":"-9.678051","long":"14.471874"}},{"country":"ao","city":"Alto Hama","coordinates":{"lat":"-12.233333","long":"15.55"}},{"country":"ao","city":"Alto Kwilu","coordinates":{"lat":"-10.049015","long":"19.515477"}},{"country":"ao","city":"Alto Kwito","coordinates":{"lat":"-13.433333","long":"18.866667"}},{"country":"ao","city":"Alto Lifune","coordinates":{"lat":"-8.136958","long":"14.295968"}},{"country":"ao","city":"Alto Longa","coordinates":{"lat":"-14.605636","long":"18.478489"}},{"country":"ao","city":"Alto Luegi","coordinates":{"lat":"-9.058133","long":"15.619867"}},{"country":"ao","city":"Alto Quingola","coordinates":{"lat":"-7.42034","long":"15.227954"}},{"country":"ao","city":"Alto Quissembula","coordinates":{"lat":"-7.394635","long":"15.424342"}},{"country":"ao","city":"Alto Shikapa","coordinates":{"lat":"-10.931643","long":"19.151316"}},{"country":"ao","city":"Alto Tchicapa","coordinates":{"lat":"-10.931643","long":"19.151316"}},{"country":"ao","city":"Alto Tchiumbo","coordinates":{"lat":"-12.377798","long":"16.151374"}},{"country":"ao","city":"Alto-Uama","coordinates":{"lat":"-12.233333","long":"15.55"}},{"country":"ao","city":"Alto Zaza","coordinates":{"lat":"-6.616667","long":"16.933333"}},{"country":"ao","city":"Alvarenga","coordinates":{"lat":"-9.05","long":"13.1"}},{"country":"ao","city":"Amaanga","coordinates":{"lat":"-10.3","long":"21.6"}},{"country":"ao","city":"A. Machado","coordinates":{"lat":"-12.85","long":"15.3"}},{"country":"ao","city":"Amaral","coordinates":{"lat":"-9.26785","long":"15.939033"}},{"country":"ao","city":"A. Marques","coordinates":{"lat":"-11.52929","long":"14.733641"}},{"country":"ao","city":"Amatui","coordinates":{"lat":"-16.7","long":"21.316667"}},{"country":"ao","city":"Amba","coordinates":{"lat":"-13.266667","long":"15.05"}},{"country":"ao","city":"Ambaca","coordinates":{"lat":"-8.18812","long":"15.37495"}},{"country":"ao","city":"Ambaeta","coordinates":{"lat":"-11.916667","long":"22.1"}},{"country":"ao","city":"Ambaiela","coordinates":{"lat":"-11.916667","long":"22.1"}},{"country":"ao","city":"Ambala quiá Quiluangi","coordinates":{"lat":"-9.347307","long":"18.25903"}},{"country":"ao","city":"Ambanda","coordinates":{"lat":"-11.82195","long":"14.933211"}},{"country":"ao","city":"Ambande","coordinates":{"lat":"-11.371352","long":"14.252264"}},{"country":"ao","city":"Ambande","coordinates":{"lat":"-12.438227","long":"15.222692"}},{"country":"ao","city":"Ambandi","coordinates":{"lat":"-11.573123","long":"16.549054"}},{"country":"ao","city":"Ambandi","coordinates":{"lat":"-11.371352","long":"14.252264"}},{"country":"ao","city":"Ambiula","coordinates":{"lat":"-7.444879","long":"14.648578"}},{"country":"ao","city":"Ambo do Catucuna","coordinates":{"lat":"-11.497263","long":"14.251207"}},{"country":"ao","city":"Amboica","coordinates":{"lat":"-11.52929","long":"14.733641"}},{"country":"ao","city":"Amboim","coordinates":{"lat":"-10.731415","long":"13.759851"}},{"country":"ao","city":"Amboíva","coordinates":{"lat":"-11.52929","long":"14.733641"}},{"country":"ao","city":"Ambondi do Lengue","coordinates":{"lat":"-11.371352","long":"14.252264"}},{"country":"ao","city":"Ambova","coordinates":{"lat":"-11.52929","long":"14.733641"}},{"country":"ao","city":"Ambovia","coordinates":{"lat":"-11.52929","long":"14.733641"}},{"country":"ao","city":"Ambris","coordinates":{"lat":"-7.844312","long":"13.106493"}},{"country":"ao","city":"Ambrisette","coordinates":{"lat":"-7.231164","long":"12.866602"}},{"country":"ao","city":"Ambriz","coordinates":{"lat":"-7.844312","long":"13.106493"}},{"country":"ao","city":"Ambrizete","coordinates":{"lat":"-7.231164","long":"12.866602"}},{"country":"ao","city":"Ambrizette","coordinates":{"lat":"-7.231164","long":"12.866602"}},{"country":"ao","city":"Ambrósio","coordinates":{"lat":"-7.316667","long":"14.95"}},{"country":"ao","city":"Ambuila","coordinates":{"lat":"-7.444879","long":"14.648578"}},{"country":"ao","city":"Ambulge","coordinates":{"lat":"-8.683747","long":"14.76528"}},{"country":"ao","city":"Ambumba","coordinates":{"lat":"-12.545","long":"15.716389"}},{"country":"ao","city":"Amecanda","coordinates":{"lat":"-17.133333","long":"17.3"}},{"country":"ao","city":"Amegeca","coordinates":{"lat":"-8.95","long":"19.65"}},{"country":"ao","city":"Amela","coordinates":{"lat":"-12.372394","long":"14.500312"}},{"country":"ao","city":"Amélia","coordinates":{"lat":"-12.216667","long":"15.1"}},{"country":"ao","city":"Amelia Beach","coordinates":{"lat":"-15.2","long":"12.1"}},{"country":"ao","city":"Ameliko","coordinates":{"lat":"-17.733333","long":"18.833333"}},{"country":"ao","city":"Amená","coordinates":{"lat":"-12.372394","long":"14.500312"}},{"country":"ao","city":"Amendoa","coordinates":{"lat":"-12.852222","long":"13.013333"}},{"country":"ao","city":"A. Mendonça","coordinates":{"lat":"-15.183333","long":"13.466667"}},{"country":"ao","city":"Amengingo","coordinates":{"lat":"-11.6","long":"19.6"}},{"country":"ao","city":"Amentenha","coordinates":{"lat":"-17.666667","long":"19.166667"}},{"country":"ao","city":"Amera","coordinates":{"lat":"-12.372394","long":"14.500312"}},{"country":"ao","city":"Américo Boavida","coordinates":{"lat":"-7.328986","long":"15.677397"}},{"country":"ao","city":"Américo Boavida","coordinates":{"lat":"-9.167427","long":"17.990165"}},{"country":"ao","city":"Américo Boavida","coordinates":{"lat":"-10.11752","long":"19.353599"}},{"country":"ao","city":"Ametinhe","coordinates":{"lat":"-17.333333","long":"17.15"}},{"country":"ao","city":"Ametinho","coordinates":{"lat":"-17.333333","long":"17.15"}},{"country":"ao","city":"Amigueiu Cambumba","coordinates":{"lat":"-10.701111","long":"14.903427"}},{"country":"ao","city":"A. Morais","coordinates":{"lat":"-9.519444","long":"16.266667"}},{"country":"ao","city":"Ampara","coordinates":{"lat":"-12.787222","long":"13.59"}},{"country":"ao","city":"A. M. Ribeiro","coordinates":{"lat":"-12.816667","long":"15.25"}},{"country":"ao","city":"Amucotocapa","coordinates":{"lat":"-17.4","long":"16.116667"}},{"country":"ao","city":"Amué","coordinates":{"lat":"-16.65","long":"13.95"}},{"country":"ao","city":"Amutenha","coordinates":{"lat":"-17.85","long":"19.4"}},{"country":"ao","city":"Ana","coordinates":{"lat":"-11.983333","long":"15.6"}},{"country":"ao","city":"Ana Bota da Silva","coordinates":{"lat":"-11.118718","long":"15.424172"}},{"country":"ao","city":"Anambua","coordinates":{"lat":"-9.066667","long":"14.583333"}},{"country":"ao","city":"Anapasso","coordinates":{"lat":"-8.316667","long":"13.833333"}},{"country":"ao","city":"Ancaneale","coordinates":{"lat":"-7.85","long":"16.183333"}},{"country":"ao","city":"Anchico","coordinates":{"lat":"-17.8","long":"18.983333"}},{"country":"ao","city":"Anda","coordinates":{"lat":"-11.383333","long":"14.2"}},{"country":"ao","city":"Andala","coordinates":{"lat":"-8.866667","long":"15.766667"}},{"country":"ao","city":"Andala","coordinates":{"lat":"-7.80518","long":"15.378754"}},{"country":"ao","city":"Andanga","coordinates":{"lat":"-11.833333","long":"15.516667"}},{"country":"ao","city":"Andanga Ndumbo","coordinates":{"lat":"-11.36949","long":"15.478072"}},{"country":"ao","city":"Andanja","coordinates":{"lat":"-11.833333","long":"15.516667"}},{"country":"ao","city":"Andengue","coordinates":{"lat":"-8.16738","long":"15.854433"}},{"country":"ao","city":"Ando","coordinates":{"lat":"-7.566667","long":"15.3"}},{"country":"ao","city":"Andongo","coordinates":{"lat":"-12.033333","long":"15.2"}},{"country":"ao","city":"Andrada","coordinates":{"lat":"-7.696484","long":"21.363622"}},{"country":"ao","city":"Andrade","coordinates":{"lat":"-9.074021","long":"16.387334"}},{"country":"ao","city":"Andrade","coordinates":{"lat":"-7.696484","long":"21.363622"}},{"country":"ao","city":"André Cassua","coordinates":{"lat":"-9.382221","long":"16.038501"}},{"country":"ao","city":"André Sotchibale","coordinates":{"lat":"-8.749715","long":"20.701617"}},{"country":"ao","city":"Andulo-Ambile","coordinates":{"lat":"-10.752674","long":"14.55067"}},{"country":"ao","city":"Andulo","coordinates":{"lat":"-11.48184","long":"15.827419"}},{"country":"ao","city":"Andulo","coordinates":{"lat":"-10.749396","long":"14.538024"}},{"country":"ao","city":"Andulo de Quilengo","coordinates":{"lat":"-10.749396","long":"14.538024"}},{"country":"ao","city":"Andunda","coordinates":{"lat":"-12.05","long":"15.25"}},{"country":"ao","city":"Andure","coordinates":{"lat":"-9.21035","long":"14.032891"}},{"country":"ao","city":"Anduri","coordinates":{"lat":"-9.21035","long":"14.032891"}},{"country":"ao","city":"Anga","coordinates":{"lat":"-8.149233","long":"15.838472"}},{"country":"ao","city":"Angando","coordinates":{"lat":"-6.533333","long":"16.533333"}},{"country":"ao","city":"Anganga","coordinates":{"lat":"-12.271944","long":"13.865833"}},{"country":"ao","city":"Angia","coordinates":{"lat":"-11.195794","long":"14.033752"}},{"country":"ao","city":"Angola","coordinates":{"lat":"-14.133333","long":"14.5"}},{"country":"ao","city":"Angola em Luta","coordinates":{"lat":"-7.848937","long":"16.66478"}},{"country":"ao","city":"Angola Nova","coordinates":{"lat":"-7.617082","long":"16.464921"}},{"country":"ao","city":"Angola Nova","coordinates":{"lat":"-6.649342","long":"15.041266"}},{"country":"ao","city":"Angola Nova Segundo","coordinates":{"lat":"-6.664215","long":"15.146623"}},{"country":"ao","city":"Angolo","coordinates":{"lat":"-11.240387","long":"14.205112"}},{"country":"ao","city":"Angoloua","coordinates":{"lat":"-12.378043","long":"15.184337"}},{"country":"ao","city":"Anguemba","coordinates":{"lat":"-7.816667","long":"15.566667"}},{"country":"ao","city":"Anguia","coordinates":{"lat":"-9.366667","long":"15.783333"}},{"country":"ao","city":"Angumbe","coordinates":{"lat":"-8.221935","long":"15.89602"}},{"country":"ao","city":"Angungescapolo","coordinates":{"lat":"-11.206048","long":"13.843713"}},{"country":"ao","city":"Anha","coordinates":{"lat":"-12.245","long":"13.713611"}},{"country":"ao","city":"Anha","coordinates":{"lat":"-11.516667","long":"14.816667"}},{"country":"ao","city":"Anhanca","coordinates":{"lat":"-16.8","long":"15.883333"}},{"country":"ao","city":"Anhanea","coordinates":{"lat":"-16.8","long":"15.883333"}},{"country":"ao","city":"Anhanga","coordinates":{"lat":"-12.066667","long":"14.516667"}},{"country":"ao","city":"Anhanka","coordinates":{"lat":"-16.8","long":"15.883333"}},{"country":"ao","city":"Anhara","coordinates":{"lat":"-13.583333","long":"16.083333"}},{"country":"ao","city":"Anhongo","coordinates":{"lat":"-16.533333","long":"16.183333"}},{"country":"ao","city":"Aníbal","coordinates":{"lat":"-9.7025","long":"16.4075"}},{"country":"ao","city":"Anjambo","coordinates":{"lat":"-11.098918","long":"14.671308"}},{"country":"ao","city":"Anjavelo","coordinates":{"lat":"-16.116667","long":"14.1"}},{"country":"ao","city":"Antigo Duque Braganca","coordinates":{"lat":"-8.95","long":"16.016667"}},{"country":"ao","city":"Antigo Posto do Chissa","coordinates":{"lat":"-9.466667","long":"16.916667"}},{"country":"ao","city":"Antigo Posto do Luia","coordinates":{"lat":"-8.533333","long":"21.783333"}},{"country":"ao","city":"Antigo Posto do Mucari","coordinates":{"lat":"-9.466667","long":"16.916667"}},{"country":"ao","city":"Antigo Posto Lumboma","coordinates":{"lat":"-7.870725","long":"21.41015"}},{"country":"ao","city":"Antigo Posto Quissenzel","coordinates":{"lat":"-7.816667","long":"14.7"}},{"country":"ao","city":"Antigo Povo Ambuila","coordinates":{"lat":"-7.85","long":"14.983333"}},{"country":"ao","city":"Antigos Combatentes","coordinates":{"lat":"-11.34729","long":"20.486946"}},{"country":"ao","city":"António Almeida","coordinates":{"lat":"-12.066667","long":"15.866667"}},{"country":"ao","city":"António","coordinates":{"lat":"-12.15","long":"14.216667"}},{"country":"ao","city":"António","coordinates":{"lat":"-7.941996","long":"21.354713"}},{"country":"ao","city":"António Bastos e Silva","coordinates":{"lat":"-12.116667","long":"15.433333"}},{"country":"ao","city":"António Braz","coordinates":{"lat":"-12.133333","long":"15.7"}},{"country":"ao","city":"António Ferreira","coordinates":{"lat":"-12.016667","long":"15.683333"}},{"country":"ao","city":"António Lontrão","coordinates":{"lat":"-12.016667","long":"15.783333"}},{"country":"ao","city":"António Matos","coordinates":{"lat":"-11.516667","long":"15.533333"}},{"country":"ao","city":"António N. Silva","coordinates":{"lat":"-12.816667","long":"14.666667"}},{"country":"ao","city":"António S. Cunha","coordinates":{"lat":"-11.49556","long":"15.26031"}},{"country":"ao","city":"António Silva","coordinates":{"lat":"-11.093856","long":"15.420667"}},{"country":"ao","city":"Anza","coordinates":{"lat":"-10.400985","long":"14.755754"}},{"country":"ao","city":"Anza","coordinates":{"lat":"-9.383333","long":"13.55"}},{"country":"ao","city":"A. Passos","coordinates":{"lat":"-9.116667","long":"15.75"}},{"country":"ao","city":"A. Pereira","coordinates":{"lat":"-9.066667","long":"15.733333"}},{"country":"ao","city":"Apupo","coordinates":{"lat":"-12.633333","long":"14.066667"}},{"country":"ao","city":"Aquepa","coordinates":{"lat":"-11.468993","long":"14.471347"}},{"country":"ao","city":"Arame","coordinates":{"lat":"-10.271433","long":"14.910542"}},{"country":"ao","city":"Araújo","coordinates":{"lat":"-11.240476","long":"14.513096"}},{"country":"ao","city":"Arcos","coordinates":{"lat":"-9.05","long":"13.65"}},{"country":"ao","city":"Areia","coordinates":{"lat":"-14.696787","long":"16.018217"}},{"country":"ao","city":"Arihua","coordinates":{"lat":"-14.55","long":"13.2"}},{"country":"ao","city":"Aringoma","coordinates":{"lat":"-16.466667","long":"18.2"}},{"country":"ao","city":"Ariomba","coordinates":{"lat":"-14.816667","long":"16.883333"}},{"country":"ao","city":"Aripucula","coordinates":{"lat":"-11.666667","long":"21.75"}},{"country":"ao","city":"Armando","coordinates":{"lat":"-12.183333","long":"14.8"}},{"country":"ao","city":"Armando Coelho","coordinates":{"lat":"-12.5","long":"15.683333"}},{"country":"ao","city":"Armando Ndembo","coordinates":{"lat":"-10.607516","long":"22.204814"}},{"country":"ao","city":"Armando Osório","coordinates":{"lat":"-12.25","long":"15.933333"}},{"country":"ao","city":"Arnaldo","coordinates":{"lat":"-12.259872","long":"15.129512"}},{"country":"ao","city":"Arnaldo Barbedo","coordinates":{"lat":"-12.259872","long":"15.129512"}},{"country":"ao","city":"Arnaldo Barbela","coordinates":{"lat":"-12.259872","long":"15.129512"}},{"country":"ao","city":"Arreeiro","coordinates":{"lat":"-11.1","long":"14.933333"}},{"country":"ao","city":"Artista","coordinates":{"lat":"-6.65961","long":"15.12735"}},{"country":"ao","city":"Artur de Paiva","coordinates":{"lat":"-14.466667","long":"16.3"}},{"country":"ao","city":"A. Santos","coordinates":{"lat":"-12.916667","long":"15.1"}},{"country":"ao","city":"A. Silva","coordinates":{"lat":"-11.093856","long":"15.420667"}},{"country":"ao","city":"A. Soares","coordinates":{"lat":"-11.766667","long":"15.966667"}},{"country":"ao","city":"Assango","coordinates":{"lat":"-10.983906","long":"14.414387"}},{"country":"ao","city":"Assango da Quimanga","coordinates":{"lat":"-11.154327","long":"14.528587"}},{"country":"ao","city":"Assango Primeiro","coordinates":{"lat":"-11.154327","long":"14.528587"}},{"country":"ao","city":"Assango Secundiro","coordinates":{"lat":"-11.293273","long":"14.477952"}},{"country":"ao","city":"Assango Segundo","coordinates":{"lat":"-11.293273","long":"14.477952"}},{"country":"ao","city":"Assangue","coordinates":{"lat":"-11.875212","long":"14.955071"}},{"country":"ao","city":"Assassa","coordinates":{"lat":"-11.508469","long":"16.678738"}},{"country":"ao","city":"Asseiceira","coordinates":{"lat":"-12.431389","long":"13.547222"}},{"country":"ao","city":"Assembleia Chôa","coordinates":{"lat":"-10.969174","long":"14.600001"}},{"country":"ao","city":"Assenge","coordinates":{"lat":"-11.903853","long":"17.15788"}},{"country":"ao","city":"Asseque","coordinates":{"lat":"-12.596389","long":"13.459722"}},{"country":"ao","city":"Assinha","coordinates":{"lat":"-11.566667","long":"16.25"}},{"country":"ao","city":"Assipi","coordinates":{"lat":"-12.1","long":"15.316667"}},{"country":"ao","city":"Associaçâo Capiaco","coordinates":{"lat":"-10.131681","long":"20.273448"}},{"country":"ao","city":"Associação Luavúli","coordinates":{"lat":"-9.749944","long":"20.20369"}},{"country":"ao","city":"Associaçáo Primeiro Maio","coordinates":{"lat":"-9.813062","long":"20.455236"}},{"country":"ao","city":"Associação Sueja","coordinates":{"lat":"-9.526733","long":"20.488153"}},{"country":"ao","city":"Assongo","coordinates":{"lat":"-12.05","long":"15.75"}},{"country":"ao","city":"Assoxa","coordinates":{"lat":"-9.95","long":"14.283333"}},{"country":"ao","city":"Assunção","coordinates":{"lat":"-14.865871","long":"13.100172"}},{"country":"ao","city":"Assuvi","coordinates":{"lat":"-12.7","long":"15.75"}},{"country":"ao","city":"Ataco","coordinates":{"lat":"-9.066667","long":"15.8"}},{"country":"ao","city":"Atango","coordinates":{"lat":"-10.960082","long":"14.116045"}},{"country":"ao","city":"Atende","coordinates":{"lat":"-11.633333","long":"16.45"}},{"country":"ao","city":"Atôme","coordinates":{"lat":"-11.75","long":"14.5"}},{"country":"ao","city":"Atuco","coordinates":{"lat":"-13.167222","long":"15.605"}},{"country":"ao","city":"Atúmboa-Congo","coordinates":{"lat":"-11.158534","long":"14.812749"}},{"country":"ao","city":"Auchico","coordinates":{"lat":"-17.9","long":"20.033333"}},{"country":"ao","city":"Auchinde","coordinates":{"lat":"-9.279376","long":"18.245885"}},{"country":"ao","city":"Aufah","coordinates":{"lat":"-12.65","long":"22.6"}},{"country":"ao","city":"Aufale","coordinates":{"lat":"-12.65","long":"22.6"}},{"country":"ao","city":"Augusto","coordinates":{"lat":"-11.833333","long":"15.433333"}},{"country":"ao","city":"Augusto Ngangula","coordinates":{"lat":"-14.660695","long":"17.769306"}},{"country":"ao","city":"Augusto Ngangula","coordinates":{"lat":"-8.252527","long":"16.102385"}},{"country":"ao","city":"Aúla","coordinates":{"lat":"-12.45","long":"14.183333"}},{"country":"ao","city":"Aula","coordinates":{"lat":"-12.233333","long":"19.5"}},{"country":"ao","city":"Aulico","coordinates":{"lat":"-17.8","long":"18.983333"}},{"country":"ao","city":"Aurélio","coordinates":{"lat":"-11.935057","long":"14.891555"}},{"country":"ao","city":"Auroca","coordinates":{"lat":"-11.966667","long":"15.966667"}},{"country":"ao","city":"Aurora","coordinates":{"lat":"-11.966667","long":"15.966667"}},{"country":"ao","city":"Autifare","coordinates":{"lat":"-8.56622","long":"14.948892"}},{"country":"ao","city":"Avé Maria","coordinates":{"lat":"-6.710654","long":"14.100807"}},{"country":"ao","city":"Ave Moma","coordinates":{"lat":"-11.421716","long":"14.416882"}},{"country":"ao","city":"Aviação","coordinates":{"lat":"-12.785833","long":"15.720833"}},{"country":"ao","city":"Aviár Chingo Alto","coordinates":{"lat":"-11.165736","long":"13.890493"}},{"country":"ao","city":"Aviár da Jimba","coordinates":{"lat":"-11.064683","long":"13.941361"}},{"country":"ao","city":"Avindja","coordinates":{"lat":"-11.467562","long":"15.787612"}},{"country":"ao","city":"Azevedo","coordinates":{"lat":"-9.383333","long":"15.616667"}},{"country":"ao","city":"Azul","coordinates":{"lat":"-9.295627","long":"14.919944"}},{"country":"ao","city":"Baba","coordinates":{"lat":"-9.283333","long":"14.833333"}},{"country":"ao","city":"Baba","coordinates":{"lat":"-14.83523","long":"12.240287"}},{"country":"ao","city":"Babaera","coordinates":{"lat":"-12.9","long":"14.8"}},{"country":"ao","city":"Babaera","coordinates":{"lat":"-11.866667","long":"15.95"}},{"country":"ao","city":"Babi","coordinates":{"lat":"-7.543238","long":"15.084146"}},{"country":"ao","city":"Baca","coordinates":{"lat":"-5.533333","long":"12.366667"}},{"country":"ao","city":"Baca","coordinates":{"lat":"-6.702336","long":"14.596875"}},{"country":"ao","city":"Baca","coordinates":{"lat":"-6.033333","long":"12.8"}},{"country":"ao","city":"Baca Cosse","coordinates":{"lat":"-5.233333","long":"12.516667"}},{"country":"ao","city":"Bacala","coordinates":{"lat":"-7.6","long":"16.433333"}},{"country":"ao","city":"Baca Ncoce","coordinates":{"lat":"-5.233333","long":"12.516667"}},{"country":"ao","city":"Bacca N'Cace","coordinates":{"lat":"-5.233333","long":"12.516667"}},{"country":"ao","city":"Bacula","coordinates":{"lat":"-7.6","long":"16.433333"}},{"country":"ao","city":"Bacuma","coordinates":{"lat":"-12.6","long":"18.4"}},{"country":"ao","city":"Badi","coordinates":{"lat":"-8.36292","long":"15.367677"}},{"country":"ao","city":"Báfua","coordinates":{"lat":"-16.216667","long":"13.533333"}},{"country":"ao","city":"Bagica","coordinates":{"lat":"-8.266667","long":"15.883333"}},{"country":"ao","city":"Bahia Farta","coordinates":{"lat":"-12.599722","long":"13.204722"}},{"country":"ao","city":"Baho","coordinates":{"lat":"-12.066667","long":"15.666667"}},{"country":"ao","city":"Baía Azul","coordinates":{"lat":"-12.628333","long":"13.237222"}},{"country":"ao","city":"Baia","coordinates":{"lat":"-8.427103","long":"15.782268"}},{"country":"ao","city":"Baía","coordinates":{"lat":"-7.98423","long":"15.632009"}},{"country":"ao","city":"Baía","coordinates":{"lat":"-8.966667","long":"13.65"}},{"country":"ao","city":"Baía das Moscas","coordinates":{"lat":"-14.83523","long":"12.240287"}},{"country":"ao","city":"Baía dos Tigres","coordinates":{"lat":"-16.6","long":"11.733333"}},{"country":"ao","city":"Baía Farta","coordinates":{"lat":"-12.599722","long":"13.204722"}},{"country":"ao","city":"Bailundo","coordinates":{"lat":"-12.2","long":"15.866667"}},{"country":"ao","city":"Bailundo","coordinates":{"lat":"-9.57499","long":"15.994423"}},{"country":"ao","city":"Bailundo","coordinates":{"lat":"-12.4","long":"22.566667"}},{"country":"ao","city":"Bailundo Fort","coordinates":{"lat":"-12.2","long":"15.866667"}},{"country":"ao","city":"Bairo Trinta","coordinates":{"lat":"-8.793889","long":"13.475"}},{"country":"ao","city":"Bairro Cavaco","coordinates":{"lat":"-14.660104","long":"17.699997"}},{"country":"ao","city":"Bairro Dangereux","coordinates":{"lat":"-14.199534","long":"21.390508"}},{"country":"ao","city":"Bairro da Vidrul","coordinates":{"lat":"-8.757208","long":"13.404534"}},{"country":"ao","city":"Bairro Jica","coordinates":{"lat":"-14.196012","long":"21.403557"}},{"country":"ao","city":"Bairro Novo","coordinates":{"lat":"-14.672599","long":"17.709529"}},{"country":"ao","city":"Bairro Piloto","coordinates":{"lat":"-10.677212","long":"14.970327"}},{"country":"ao","city":"Bairro Saidi Mingas","coordinates":{"lat":"-14.64526","long":"17.692376"}},{"country":"ao","city":"Bairro Saúde","coordinates":{"lat":"-14.656891","long":"17.676045"}},{"country":"ao","city":"Bairro Victória","coordinates":{"lat":"-14.650869","long":"17.693253"}},{"country":"ao","city":"Baishu Longa","coordinates":{"lat":"-15.683333","long":"18.666667"}},{"country":"ao","city":"Baixo Cahala","coordinates":{"lat":"-9.2","long":"15.85"}},{"country":"ao","city":"Baixo Longa","coordinates":{"lat":"-15.683333","long":"18.666667"}},{"country":"ao","city":"Baizo Longa","coordinates":{"lat":"-15.683333","long":"18.666667"}},{"country":"ao","city":"Baje","coordinates":{"lat":"-8.684173","long":"15.505022"}},{"country":"ao","city":"Balabaia","coordinates":{"lat":"-12.001944","long":"13.993333"}},{"country":"ao","city":"Bala","coordinates":{"lat":"-12.1","long":"15.2"}},{"country":"ao","city":"Bala","coordinates":{"lat":"-7.283333","long":"14.916667"}},{"country":"ao","city":"Balaça","coordinates":{"lat":"-11.308093","long":"14.829636"}},{"country":"ao","city":"Bala Cangamba","coordinates":{"lat":"-13.733333","long":"19.866667"}},{"country":"ao","city":"Bala Cassungo","coordinates":{"lat":"-8.293247","long":"14.567784"}},{"country":"ao","city":"Balaca Torre","coordinates":{"lat":"-12.868611","long":"15.440833"}},{"country":"ao","city":"Balacende","coordinates":{"lat":"-8.266667","long":"13.966667"}},{"country":"ao","city":"Balagando","coordinates":{"lat":"-9.316667","long":"14.716667"}},{"country":"ao","city":"Bala Golungo","coordinates":{"lat":"-11.425262","long":"14.751889"}},{"country":"ao","city":"Balanca do Goma","coordinates":{"lat":"-10.433803","long":"17.108876"}},{"country":"ao","city":"Balanga à Malengue","coordinates":{"lat":"-10.144457","long":"17.340115"}},{"country":"ao","city":"Balanganga","coordinates":{"lat":"-16.95","long":"15.55"}},{"country":"ao","city":"Balavandê","coordinates":{"lat":"-13.161944","long":"15.366667"}},{"country":"ao","city":"Bale","coordinates":{"lat":"-15.166667","long":"16.65"}},{"country":"ao","city":"Bale","coordinates":{"lat":"-15.116667","long":"16.533333"}},{"country":"ao","city":"Balela","coordinates":{"lat":"-11.008195","long":"13.905023"}},{"country":"ao","city":"Baloguinga","coordinates":{"lat":"-8.7","long":"14.8"}},{"country":"ao","city":"Balombo","coordinates":{"lat":"-12.354261","long":"14.772315"}},{"country":"ao","city":"Balombo","coordinates":{"lat":"-12.5","long":"15.116667"}},{"country":"ao","city":"Baluca","coordinates":{"lat":"-8.476915","long":"15.582217"}},{"country":"ao","city":"Baluco","coordinates":{"lat":"-12.7","long":"15.183333"}},{"country":"ao","city":"Baluganga","coordinates":{"lat":"-16.95","long":"15.55"}},{"country":"ao","city":"Balunganga","coordinates":{"lat":"-16.95","long":"15.55"}},{"country":"ao","city":"Balungango","coordinates":{"lat":"-16.95","long":"15.55"}},{"country":"ao","city":"Bamaueca","coordinates":{"lat":"-10.633333","long":"20.55"}},{"country":"ao","city":"Bamba","coordinates":{"lat":"-4.65","long":"12.916667"}},{"country":"ao","city":"Bamba","coordinates":{"lat":"-10.621805","long":"15.298222"}},{"country":"ao","city":"Bamba","coordinates":{"lat":"-6.678684","long":"15.131282"}},{"country":"ao","city":"Bamba","coordinates":{"lat":"-6.033333","long":"14.683333"}},{"country":"ao","city":"Bambaconde","coordinates":{"lat":"-7.566667","long":"15.066667"}},{"country":"ao","city":"Bamba Condo e Bengo","coordinates":{"lat":"-7.566667","long":"15.066667"}},{"country":"ao","city":"Bamba do Bissonde","coordinates":{"lat":"-12.451944","long":"13.647778"}},{"country":"ao","city":"Bambaemo","coordinates":{"lat":"-17.15","long":"13.983333"}},{"country":"ao","city":"Bamba-Gunga","coordinates":{"lat":"-14.7","long":"15.366667"}},{"country":"ao","city":"Bamba Kidongui","coordinates":{"lat":"-4.65","long":"12.916667"}},{"country":"ao","city":"Bambala","coordinates":{"lat":"-10.84729","long":"13.91375"}},{"country":"ao","city":"Bamba Matamba","coordinates":{"lat":"-7.897533","long":"15.282291"}},{"country":"ao","city":"Bambamgandu","coordinates":{"lat":"-17.166667","long":"22.083333"}},{"country":"ao","city":"Bambangando","coordinates":{"lat":"-17.166667","long":"22.083333"}},{"country":"ao","city":"Bamba Quipongui","coordinates":{"lat":"-4.666667","long":"13.033333"}},{"country":"ao","city":"Bambe","coordinates":{"lat":"-16.233333","long":"19.75"}},{"country":"ao","city":"Bambe","coordinates":{"lat":"-9.25","long":"13.433333"}},{"country":"ao","city":"Bambere","coordinates":{"lat":"-14.651696","long":"14.782877"}},{"country":"ao","city":"Bambi","coordinates":{"lat":"-12.481742","long":"15.024985"}},{"country":"ao","city":"Bambi","coordinates":{"lat":"-16.8","long":"19.166667"}},{"country":"ao","city":"Bambi","coordinates":{"lat":"-15.5","long":"16.1"}},{"country":"ao","city":"Bambi","coordinates":{"lat":"-14.05","long":"15.566667"}},{"country":"ao","city":"Bambi","coordinates":{"lat":"-9.511111","long":"16.446389"}},{"country":"ao","city":"Bambi","coordinates":{"lat":"-14.116667","long":"21.583333"}},{"country":"ao","city":"Bambi","coordinates":{"lat":"-6.839142","long":"14.162218"}},{"country":"ao","city":"Bambo","coordinates":{"lat":"-9.093495","long":"16.432288"}},{"country":"ao","city":"Bambo","coordinates":{"lat":"-15.033333","long":"21.433333"}},{"country":"ao","city":"Bambuca","coordinates":{"lat":"-7.85","long":"15.8"}},{"country":"ao","city":"Bambundo","coordinates":{"lat":"-12.516111","long":"15.542222"}},{"country":"ao","city":"Bananal","coordinates":{"lat":"-9.13136","long":"14.49216"}},{"country":"ao","city":"Banatiere","coordinates":{"lat":"-15.183333","long":"21.55"}},{"country":"ao","city":"Banda","coordinates":{"lat":"-11.716667","long":"14.416667"}},{"country":"ao","city":"Banda","coordinates":{"lat":"-12.083333","long":"15.8"}},{"country":"ao","city":"Banda","coordinates":{"lat":"-9.023361","long":"17.058759"}},{"country":"ao","city":"Bande á Hui","coordinates":{"lat":"-8.986238","long":"15.762228"}},{"country":"ao","city":"Bande","coordinates":{"lat":"-8.97832","long":"16.518115"}},{"country":"ao","city":"Bandeira","coordinates":{"lat":"-9.328139","long":"14.767171"}},{"country":"ao","city":"Bandeira","coordinates":{"lat":"-10.453613","long":"15.922791"}},{"country":"ao","city":"Bandeira","coordinates":{"lat":"-14.016667","long":"15.183333"}},{"country":"ao","city":"Bandoa","coordinates":{"lat":"-14.816667","long":"20.666667"}},{"country":"ao","city":"Bando","coordinates":{"lat":"-15","long":"20.5"}},{"country":"ao","city":"Bando","coordinates":{"lat":"-8.333333","long":"15.983333"}},{"country":"ao","city":"Bando","coordinates":{"lat":"-7.186525","long":"13.558455"}},{"country":"ao","city":"Bando","coordinates":{"lat":"-11.189844","long":"19.948974"}},{"country":"ao","city":"Bandoca","coordinates":{"lat":"-12.75","long":"14.45"}},{"country":"ao","city":"Bandola","coordinates":{"lat":"-9.167325","long":"16.274859"}},{"country":"ao","city":"Bandua","coordinates":{"lat":"-12.45","long":"14.8"}},{"country":"ao","city":"Bandua","coordinates":{"lat":"-11.841674","long":"14.929116"}},{"country":"ao","city":"Bandua","coordinates":{"lat":"-15.033333","long":"21.433333"}},{"country":"ao","city":"Bandula","coordinates":{"lat":"-8.75674","long":"15.856926"}},{"country":"ao","city":"Banga","coordinates":{"lat":"-8.683333","long":"15.183333"}},{"country":"ao","city":"Banga","coordinates":{"lat":"-10.283333","long":"14.95"}},{"country":"ao","city":"Banga","coordinates":{"lat":"-12.016667","long":"15.933333"}},{"country":"ao","city":"Bangala","coordinates":{"lat":"-15.216667","long":"13.466667"}},{"country":"ao","city":"Bangalo","coordinates":{"lat":"-8.235772","long":"15.887851"}},{"country":"ao","city":"Banganga","coordinates":{"lat":"-12.416667","long":"15.45"}},{"country":"ao","city":"Bange Angola","coordinates":{"lat":"-8.438099","long":"16.669772"}},{"country":"ao","city":"Bange","coordinates":{"lat":"-8.766311","long":"15.537272"}},{"country":"ao","city":"Bange","coordinates":{"lat":"-14.80981","long":"15.756552"}},{"country":"ao","city":"Bange-ia-Vuluza","coordinates":{"lat":"-8.166667","long":"16.733333"}},{"country":"ao","city":"Bange Vunge","coordinates":{"lat":"-8.166667","long":"16.733333"}},{"country":"ao","city":"Bango-Ango","coordinates":{"lat":"-9.945775","long":"15.337922"}},{"country":"ao","city":"Bango à Nzenza","coordinates":{"lat":"-8.566163","long":"15.896548"}},{"country":"ao","city":"Bango Azongo","coordinates":{"lat":"-9.05","long":"14.533333"}},{"country":"ao","city":"Bango","coordinates":{"lat":"-8.309671","long":"15.27574"}},{"country":"ao","city":"Bango","coordinates":{"lat":"-10.13388","long":"15.558274"}},{"country":"ao","city":"Bango","coordinates":{"lat":"-16.383333","long":"13.616667"}},{"country":"ao","city":"Bango","coordinates":{"lat":"-12.016667","long":"15.933333"}},{"country":"ao","city":"Bango","coordinates":{"lat":"-8.116667","long":"17.2"}},{"country":"ao","city":"Bango","coordinates":{"lat":"-6.016667","long":"14.983333"}},{"country":"ao","city":"Bango","coordinates":{"lat":"-5.9","long":"14.116667"}},{"country":"ao","city":"Bango","coordinates":{"lat":"-7.05","long":"19.866667"}},{"country":"ao","city":"Bango Caputo","coordinates":{"lat":"-8.80333","long":"15.30368"}},{"country":"ao","city":"Bango de Magia","coordinates":{"lat":"-9.810715","long":"14.795358"}},{"country":"ao","city":"Bango de Mussende","coordinates":{"lat":"-9.972514","long":"14.790552"}},{"country":"ao","city":"Bango Ebo","coordinates":{"lat":"-11.098153","long":"14.641826"}},{"country":"ao","city":"Bango iá Cachica","coordinates":{"lat":"-9.863087","long":"14.887269"}},{"country":"ao","city":"Bango-iá-Zenza","coordinates":{"lat":"-8.566163","long":"15.896548"}},{"country":"ao","city":"Bango Tumba","coordinates":{"lat":"-8.929384","long":"14.751576"}},{"country":"ao","city":"Bango-Zenza","coordinates":{"lat":"-8.566163","long":"15.896548"}},{"country":"ao","city":"Banguanga","coordinates":{"lat":"-9.945775","long":"15.337922"}},{"country":"ao","city":"Bangui","coordinates":{"lat":"-7.203439","long":"15.722557"}},{"country":"ao","city":"Banguiteca","coordinates":{"lat":"-6.569369","long":"15.921858"}},{"country":"ao","city":"Bangula Samba","coordinates":{"lat":"-8.901695","long":"15.780276"}},{"country":"ao","city":"Bangulo","coordinates":{"lat":"-8.116667","long":"15.583333"}},{"country":"ao","city":"Banja","coordinates":{"lat":"-12.066667","long":"14.166667"}},{"country":"ao","city":"Banja","coordinates":{"lat":"-11.45","long":"15.7"}},{"country":"ao","city":"Banje-Angola","coordinates":{"lat":"-8.438099","long":"16.669772"}},{"country":"ao","city":"Banje","coordinates":{"lat":"-11.766667","long":"14.766667"}},{"country":"ao","city":"Banje","coordinates":{"lat":"-12.1","long":"15.233333"}},{"country":"ao","city":"Banza","coordinates":{"lat":"-8.75","long":"15.233333"}},{"country":"ao","city":"Banza","coordinates":{"lat":"-10.283333","long":"14.95"}},{"country":"ao","city":"Banza","coordinates":{"lat":"-9.333333","long":"15.233333"}},{"country":"ao","city":"Banza","coordinates":{"lat":"-6.016667","long":"15.166667"}},{"country":"ao","city":"Banza","coordinates":{"lat":"-6.266667","long":"14.283333"}},{"country":"ao","city":"Banza","coordinates":{"lat":"-9.283333","long":"14.066667"}},{"country":"ao","city":"Banza Beú","coordinates":{"lat":"-6.216443","long":"15.444279"}},{"country":"ao","city":"Banza Bongo","coordinates":{"lat":"-6.033333","long":"15.183333"}},{"country":"ao","city":"Banza Bongue","coordinates":{"lat":"-6.346816","long":"15.446078"}},{"country":"ao","city":"Banza Buzo","coordinates":{"lat":"-6.116667","long":"15.15"}},{"country":"ao","city":"Banza Cabouco","coordinates":{"lat":"-6.932233","long":"15.323691"}},{"country":"ao","city":"Banza Cai","coordinates":{"lat":"-6.05","long":"14.666667"}},{"country":"ao","city":"Banza Calulo","coordinates":{"lat":"-10.008161","long":"14.902073"}},{"country":"ao","city":"Banza Candumbo Quiunza","coordinates":{"lat":"-10.232794","long":"15.19873"}},{"country":"ao","city":"Banza Cassa","coordinates":{"lat":"-6.55","long":"15.05"}},{"country":"ao","city":"Banza Cassonge","coordinates":{"lat":"-11.096293","long":"14.898445"}},{"country":"ao","city":"Banza Cateco","coordinates":{"lat":"-8.333333","long":"15.816667"}},{"country":"ao","city":"Banza Catumbi","coordinates":{"lat":"-10.756672","long":"14.96386"}},{"country":"ao","city":"Banza Chôa","coordinates":{"lat":"-10.953374","long":"14.598205"}},{"country":"ao","city":"Banza Coma","coordinates":{"lat":"-6.516667","long":"14.733333"}},{"country":"ao","city":"Banza Comba","coordinates":{"lat":"-6.463295","long":"14.97787"}},{"country":"ao","city":"Banza Condo","coordinates":{"lat":"-6.2","long":"15.066667"}},{"country":"ao","city":"Banza Congo","coordinates":{"lat":"-7.333333","long":"15.366667"}},{"country":"ao","city":"Banza Cuilo","coordinates":{"lat":"-6.45","long":"15.883333"}},{"country":"ao","city":"Banza Cuimba","coordinates":{"lat":"-6.120855","long":"14.620855"}},{"country":"ao","city":"Banza Cunda","coordinates":{"lat":"-11.080534","long":"14.732175"}},{"country":"ao","city":"Banza Cungo","coordinates":{"lat":"-11.482501","long":"15.215381"}},{"country":"ao","city":"Banza Cusso","coordinates":{"lat":"-6.515517","long":"14.909643"}},{"country":"ao","city":"Banza da Cabuta","coordinates":{"lat":"-9.827527","long":"14.827679"}},{"country":"ao","city":"Banza Damba","coordinates":{"lat":"-6.795183","long":"15.19398"}},{"country":"ao","city":"Banza da Munenga","coordinates":{"lat":"-10.023374","long":"14.637056"}},{"country":"ao","city":"Banza da Nhama","coordinates":{"lat":"-10.45943","long":"14.391458"}},{"country":"ao","city":"Banza de Caculo","coordinates":{"lat":"-8.724163","long":"14.686356"}},{"country":"ao","city":"Banza de Caculo Caenda","coordinates":{"lat":"-8.724163","long":"14.686356"}},{"country":"ao","city":"Banza de Capele","coordinates":{"lat":"-8.75","long":"15.233333"}},{"country":"ao","city":"Banza de Cuteca","coordinates":{"lat":"-10.261168","long":"14.601807"}},{"country":"ao","city":"Banza de Dundo","coordinates":{"lat":"-9.778621","long":"14.723898"}},{"country":"ao","city":"Banza de Golungo","coordinates":{"lat":"-10.278071","long":"14.956084"}},{"country":"ao","city":"Banza de Mangumbo","coordinates":{"lat":"-8.671996","long":"14.873501"}},{"country":"ao","city":"Banza de Mucongo","coordinates":{"lat":"-10.090931","long":"14.873885"}},{"country":"ao","city":"Banza de Muongo","coordinates":{"lat":"-10.505497","long":"14.376065"}},{"country":"ao","city":"Banza de Mussende","coordinates":{"lat":"-9.996138","long":"14.759145"}},{"country":"ao","city":"Banza de Quilombo","coordinates":{"lat":"-8.921317","long":"14.734845"}},{"country":"ao","city":"Banza de Quimbamba","coordinates":{"lat":"-8.7","long":"14.966667"}},{"country":"ao","city":"Banza de Quindongo","coordinates":{"lat":"-9.88156","long":"14.541504"}},{"country":"ao","city":"Banza de Quitondo","coordinates":{"lat":"-9.8606","long":"14.857506"}},{"country":"ao","city":"Banza de Songue","coordinates":{"lat":"-9.907976","long":"14.636663"}},{"country":"ao","city":"Banza Domba","coordinates":{"lat":"-6.888308","long":"15.015221"}},{"country":"ao","city":"Banza dos Dambos","coordinates":{"lat":"-9.978015","long":"14.860283"}},{"country":"ao","city":"Banza e Lunda","coordinates":{"lat":"-9.45","long":"18.233333"}},{"country":"ao","city":"Banza Filistrada","coordinates":{"lat":"-6.333333","long":"15.066667"}},{"country":"ao","city":"Banza Gombe","coordinates":{"lat":"-6.12645","long":"15.106854"}},{"country":"ao","city":"Banza Gôme","coordinates":{"lat":"-6.12645","long":"15.106854"}},{"country":"ao","city":"Banza Hunga","coordinates":{"lat":"-9.833333","long":"15.7"}},{"country":"ao","city":"Banza iá Ngungo","coordinates":{"lat":"-10.884752","long":"15.646133"}},{"country":"ao","city":"Banza iá Zulo","coordinates":{"lat":"-10.395991","long":"14.203471"}},{"country":"ao","city":"Banza Lala","coordinates":{"lat":"-6.55777","long":"15.061165"}},{"country":"ao","city":"Banza Landa","coordinates":{"lat":"-6.483333","long":"15.033333"}},{"country":"ao","city":"Banza Lande","coordinates":{"lat":"-6.077813","long":"15.353825"}},{"country":"ao","city":"Banza Loanda","coordinates":{"lat":"-7.645438","long":"15.185487"}},{"country":"ao","city":"Banza Longa","coordinates":{"lat":"-6.391055","long":"15.473134"}},{"country":"ao","city":"Banza Luai","coordinates":{"lat":"-6.306142","long":"15.463594"}},{"country":"ao","city":"Banza Luanda","coordinates":{"lat":"-7.389871","long":"15.321312"}},{"country":"ao","city":"Banza Lucunga","coordinates":{"lat":"-7.568439","long":"15.275393"}},{"country":"ao","city":"Banza Lumbelo","coordinates":{"lat":"-6.316667","long":"15.066667"}},{"country":"ao","city":"Banza Lunda","coordinates":{"lat":"-7.25","long":"15.083333"}},{"country":"ao","city":"Banza Lungui","coordinates":{"lat":"-9.333333","long":"15.233333"}},{"country":"ao","city":"Banza Lussenga","coordinates":{"lat":"-7.25","long":"15.083333"}},{"country":"ao","city":"Banza Lussenguel Maquela","coordinates":{"lat":"-6.15","long":"15.233333"}},{"country":"ao","city":"Banza Malungo","coordinates":{"lat":"-6.483333","long":"15.016667"}},{"country":"ao","city":"Banza Minga","coordinates":{"lat":"-6.183333","long":"14.916667"}},{"country":"ao","city":"Banza Minoa","coordinates":{"lat":"-6.183333","long":"14.916667"}},{"country":"ao","city":"Banza Muanga","coordinates":{"lat":"-6.15","long":"15.25"}},{"country":"ao","city":"Banza Mucongo","coordinates":{"lat":"-10.090931","long":"14.873885"}},{"country":"ao","city":"Banza Mussaulo","coordinates":{"lat":"-10.465274","long":"14.612748"}},{"country":"ao","city":"Banza Mussusso","coordinates":{"lat":"-8.867407","long":"15.100811"}},{"country":"ao","city":"Banza Ndala Cachibo","coordinates":{"lat":"-10.473663","long":"14.650662"}},{"country":"ao","city":"Banza Nlanla","coordinates":{"lat":"-6.55777","long":"15.061165"}},{"country":"ao","city":"Banza Palabala","coordinates":{"lat":"-6.166667","long":"15.05"}},{"country":"ao","city":"Banza Pango","coordinates":{"lat":"-6.083333","long":"14.183333"}},{"country":"ao","city":"Banza Panza","coordinates":{"lat":"-6.1","long":"14.316667"}},{"country":"ao","city":"Banza Peche","coordinates":{"lat":"-6.502961","long":"14.911072"}},{"country":"ao","city":"Banza Peixe","coordinates":{"lat":"-6.502961","long":"14.911072"}},{"country":"ao","city":"Banza Pete","coordinates":{"lat":"-6.364161","long":"15.049429"}},{"country":"ao","city":"Banza Pombo","coordinates":{"lat":"-6.289405","long":"15.476118"}},{"country":"ao","city":"Banza Puto Antiga","coordinates":{"lat":"-6.25","long":"14.3"}},{"country":"ao","city":"Banza Puto","coordinates":{"lat":"-6.266667","long":"14.283333"}},{"country":"ao","city":"Banza Quica","coordinates":{"lat":"-7.146373","long":"15.674986"}},{"country":"ao","city":"Banza Quicocuto","coordinates":{"lat":"-11.209694","long":"15.177884"}},{"country":"ao","city":"Banza Quicunga","coordinates":{"lat":"-6.327267","long":"15.446888"}},{"country":"ao","city":"Banza Quidia","coordinates":{"lat":"-6.033333","long":"15.35"}},{"country":"ao","city":"Banza Quiende","coordinates":{"lat":"-6.410014","long":"14.064403"}},{"country":"ao","city":"Banza Quiendi","coordinates":{"lat":"-6.410014","long":"14.064403"}},{"country":"ao","city":"Banza Quifo","coordinates":{"lat":"-6.433333","long":"15.866667"}},{"country":"ao","city":"Banza Quilombo","coordinates":{"lat":"-8.921317","long":"14.734845"}},{"country":"ao","city":"Banza Quiluango","coordinates":{"lat":"-6.033333","long":"15.25"}},{"country":"ao","city":"Banza Quimbunga","coordinates":{"lat":"-6.728906","long":"15.033449"}},{"country":"ao","city":"Banza Quimocondo","coordinates":{"lat":"-6.070943","long":"15.236182"}},{"country":"ao","city":"Banza Quimuanza","coordinates":{"lat":"-6.717918","long":"15.177888"}},{"country":"ao","city":"Banza Quina","coordinates":{"lat":"-7.483333","long":"14.433333"}},{"country":"ao","city":"Banza Quinguilo","coordinates":{"lat":"-11.130716","long":"14.923038"}},{"country":"ao","city":"Banza Quinzau","coordinates":{"lat":"-6.228917","long":"15.071927"}},{"country":"ao","city":"Banza Quiôa","coordinates":{"lat":"-6.3","long":"14.883333"}},{"country":"ao","city":"Banza Quiondo","coordinates":{"lat":"-7.657419","long":"15.058737"}},{"country":"ao","city":"Banza Quiongo","coordinates":{"lat":"-7.657419","long":"15.058737"}},{"country":"ao","city":"Banza Quiossa","coordinates":{"lat":"-6.033333","long":"15.283333"}},{"country":"ao","city":"Banza Quipemba","coordinates":{"lat":"-6.483333","long":"15.016667"}},{"country":"ao","city":"Banza Quipete","coordinates":{"lat":"-8.727702","long":"15.277805"}},{"country":"ao","city":"Banza Quissobe","coordinates":{"lat":"-11.127002","long":"14.863336"}},{"country":"ao","city":"Banza Quissuca","coordinates":{"lat":"-6.534349","long":"15.041382"}},{"country":"ao","city":"Banza Quitambi","coordinates":{"lat":"-6.4","long":"15.033333"}},{"country":"ao","city":"Banza Quitel","coordinates":{"lat":"-8.966944","long":"13.632778"}},{"country":"ao","city":"Banza Quitele","coordinates":{"lat":"-8.966944","long":"13.632778"}},{"country":"ao","city":"Banza Quituia","coordinates":{"lat":"-7.835163","long":"15.236503"}},{"country":"ao","city":"Banza Quizau","coordinates":{"lat":"-6.626816","long":"15.132956"}},{"country":"ao","city":"Banza Quizingo","coordinates":{"lat":"-7.004627","long":"15.46932"}},{"country":"ao","city":"Banza Quizomba","coordinates":{"lat":"-6.516667","long":"15.016667"}},{"country":"ao","city":"Banza Ruanda","coordinates":{"lat":"-7.4","long":"15.383333"}},{"country":"ao","city":"Banza Samba","coordinates":{"lat":"-6.118612","long":"15.395881"}},{"country":"ao","city":"Banza Sangue","coordinates":{"lat":"-6.666667","long":"14.866667"}},{"country":"ao","city":"Banza Sécula","coordinates":{"lat":"-6.55","long":"15.1"}},{"country":"ao","city":"Banza Soba Iango","coordinates":{"lat":"-8.983333","long":"14.716667"}},{"country":"ao","city":"Banza Sosso","coordinates":{"lat":"-7.081977","long":"15.619543"}},{"country":"ao","city":"Banza Tadi","coordinates":{"lat":"-6.566667","long":"14.65"}},{"country":"ao","city":"Banza-Tamba","coordinates":{"lat":"-10.600557","long":"15.88776"}},{"country":"ao","city":"Banza Tamba","coordinates":{"lat":"-6.433333","long":"15.05"}},{"country":"ao","city":"Banza Tamba","coordinates":{"lat":"-6.168648","long":"14.406507"}},{"country":"ao","city":"Banza Tanda","coordinates":{"lat":"-6.168648","long":"14.406507"}},{"country":"ao","city":"Banza Tange","coordinates":{"lat":"-7.633715","long":"15.069153"}},{"country":"ao","city":"Banza Tári","coordinates":{"lat":"-10.496607","long":"15.063676"}},{"country":"ao","city":"Banza Tava","coordinates":{"lat":"-6.666667","long":"15.116667"}},{"country":"ao","city":"Banza Tende","coordinates":{"lat":"-6.559116","long":"15.050079"}},{"country":"ao","city":"Banza Tumba","coordinates":{"lat":"-6.47454","long":"14.997447"}},{"country":"ao","city":"Banza Uau","coordinates":{"lat":"-6.299114","long":"15.473061"}},{"country":"ao","city":"Banza-Uba","coordinates":{"lat":"-11.094742","long":"14.780649"}},{"country":"ao","city":"Banza Uembo","coordinates":{"lat":"-6.066426","long":"15.206625"}},{"country":"ao","city":"Banza Véléle","coordinates":{"lat":"-6.383333","long":"14.3"}},{"country":"ao","city":"Banza Vinda","coordinates":{"lat":"-6.984512","long":"15.221628"}},{"country":"ao","city":"Banza Vinde","coordinates":{"lat":"-6.984512","long":"15.221628"}},{"country":"ao","city":"Banza Voge","coordinates":{"lat":"-6.156172","long":"15.565761"}},{"country":"ao","city":"Banza Xariaia","coordinates":{"lat":"-10.706883","long":"14.496602"}},{"country":"ao","city":"Banza Zanza","coordinates":{"lat":"-6.507229","long":"15.014943"}},{"country":"ao","city":"Banzazoa","coordinates":{"lat":"-6.283333","long":"14.833333"}},{"country":"ao","city":"Banza Zombo","coordinates":{"lat":"-6.184986","long":"15.058623"}},{"country":"ao","city":"Banze","coordinates":{"lat":"-9.233835","long":"16.291808"}},{"country":"ao","city":"Banzo Ianga","coordinates":{"lat":"-6.2","long":"15.166667"}},{"country":"ao","city":"Banzu","coordinates":{"lat":"-8.05","long":"15.5"}},{"country":"ao","city":"Baquenze","coordinates":{"lat":"-9.9","long":"13.683333"}},{"country":"ao","city":"Barata","coordinates":{"lat":"-12.466667","long":"14.033333"}},{"country":"ao","city":"Barazende","coordinates":{"lat":"-8.266667","long":"13.966667"}},{"country":"ao","city":"Barbante","coordinates":{"lat":"-11.977747","long":"14.818515"}},{"country":"ao","city":"Barqueiro","coordinates":{"lat":"-9.583333","long":"15.416667"}},{"country":"ao","city":"Barraca","coordinates":{"lat":"-7.036665","long":"16.109526"}},{"country":"ao","city":"Barraca","coordinates":{"lat":"-9.183333","long":"13.966667"}},{"country":"ao","city":"Barracao","coordinates":{"lat":"-8.186877","long":"13.369163"}},{"country":"ao","city":"Barra do Bengo","coordinates":{"lat":"-8.749394","long":"13.401179"}},{"country":"ao","city":"Barra do Cuanza","coordinates":{"lat":"-9.3","long":"13.133333"}},{"country":"ao","city":"Barra do Dande","coordinates":{"lat":"-8.471752","long":"13.370111"}},{"country":"ao","city":"Barragem","coordinates":{"lat":"-9.673546","long":"13.254973"}},{"country":"ao","city":"Bassa","coordinates":{"lat":"-7.975817","long":"16.026524"}},{"country":"ao","city":"Bata","coordinates":{"lat":"-8.59914","long":"15.523944"}},{"country":"ao","city":"Bata","coordinates":{"lat":"-8.959762","long":"16.049971"}},{"country":"ao","city":"Bata","coordinates":{"lat":"-6.833333","long":"14.633333"}},{"country":"ao","city":"Bata-Bata","coordinates":{"lat":"-15.25","long":"13.366667"}},{"country":"ao","city":"Bata-Congo","coordinates":{"lat":"-7.329761","long":"16.19088"}},{"country":"ao","city":"Bata Tata","coordinates":{"lat":"-15.25","long":"13.366667"}},{"country":"ao","city":"Batatela","coordinates":{"lat":"-12.39024","long":"14.854961"}},{"country":"ao","city":"Bate","coordinates":{"lat":"-11.395759","long":"14.80899"}},{"country":"ao","city":"Bate Bate","coordinates":{"lat":"-15.25","long":"13.366667"}},{"country":"ao","city":"Bati","coordinates":{"lat":"-11.395759","long":"14.80899"}},{"country":"ao","city":"Batista","coordinates":{"lat":"-11.966667","long":"15.5"}},{"country":"ao","city":"Bato","coordinates":{"lat":"-7.833333","long":"15.95"}},{"country":"ao","city":"Batuquita","coordinates":{"lat":"-9.516667","long":"19.483333"}},{"country":"ao","city":"Baú","coordinates":{"lat":"-12.066667","long":"15.666667"}},{"country":"ao","city":"Bau","coordinates":{"lat":"-7.476451","long":"15.156418"}},{"country":"ao","city":"Bavanganga","coordinates":{"lat":"-12.416667","long":"15.45"}},{"country":"ao","city":"Bazilio","coordinates":{"lat":"-17.133333","long":"22.683333"}},{"country":"ao","city":"Beca","coordinates":{"lat":"-8.5","long":"15.083333"}},{"country":"ao","city":"Beca Monteira","coordinates":{"lat":"-7.156483","long":"13.636889"}},{"country":"ao","city":"Beça Monteiro","coordinates":{"lat":"-7.156483","long":"13.636889"}},{"country":"ao","city":"Bege","coordinates":{"lat":"-8.356773","long":"15.28253"}},{"country":"ao","city":"Bege","coordinates":{"lat":"-8.728623","long":"15.806348"}},{"country":"ao","city":"Beio","coordinates":{"lat":"-12.244343","long":"16.041762"}},{"country":"ao","city":"Beira Alta","coordinates":{"lat":"-11.486475","long":"17.003396"}},{"country":"ao","city":"Beira Alta","coordinates":{"lat":"-8.928937","long":"15.647171"}},{"country":"ao","city":"Beira Alta","coordinates":{"lat":"-8.93547","long":"15.907817"}},{"country":"ao","city":"Beira-a-Nova","coordinates":{"lat":"-5.05","long":"12.483333"}},{"country":"ao","city":"Beira-Baixa","coordinates":{"lat":"-7.084529","long":"16.087264"}},{"country":"ao","city":"Beje","coordinates":{"lat":"-8.356773","long":"15.28253"}},{"country":"ao","city":"Beje","coordinates":{"lat":"-9.183333","long":"21.133333"}},{"country":"ao","city":"Beje-Cangambo","coordinates":{"lat":"-9.783333","long":"16.416667"}},{"country":"ao","city":"Bela","coordinates":{"lat":"-6.046371","long":"14.53491"}},{"country":"ao","city":"Bela","coordinates":{"lat":"-8.909427","long":"13.16047"}},{"country":"ao","city":"Bela-Bela","coordinates":{"lat":"-16.583333","long":"14.766667"}},{"country":"ao","city":"Belania","coordinates":{"lat":"-11.65","long":"15.533333"}},{"country":"ao","city":"Belas","coordinates":{"lat":"-8.917222","long":"13.164167"}},{"country":"ao","city":"Bela Vista","coordinates":{"lat":"-8.957907","long":"15.313479"}},{"country":"ao","city":"Bela Vista","coordinates":{"lat":"-10.872554","long":"14.389114"}},{"country":"ao","city":"Bela Vista","coordinates":{"lat":"-12.566667","long":"16.233333"}},{"country":"ao","city":"Bela Vista","coordinates":{"lat":"-9.423279","long":"15.756106"}},{"country":"ao","city":"Bela Vista","coordinates":{"lat":"-7.016667","long":"14.316667"}},{"country":"ao","city":"Bela Vista","coordinates":{"lat":"-6.238618","long":"14.225638"}},{"country":"ao","city":"Bela Vista","coordinates":{"lat":"-9.299188","long":"19.020303"}},{"country":"ao","city":"Bela Vista","coordinates":{"lat":"-10.278428","long":"14.131062"}},{"country":"ao","city":"Bela Vista e Cossa","coordinates":{"lat":"-11.347483","long":"16.534304"}},{"country":"ao","city":"Belém","coordinates":{"lat":"-11.37375","long":"16.524221"}},{"country":"ao","city":"Belém","coordinates":{"lat":"-8.968375","long":"14.799952"}},{"country":"ao","city":"Belém","coordinates":{"lat":"-11.174462","long":"15.280718"}},{"country":"ao","city":"Belém","coordinates":{"lat":"-11.666667","long":"15.95"}},{"country":"ao","city":"Belém","coordinates":{"lat":"-6.433333","long":"14.316667"}},{"country":"ao","city":"Belém","coordinates":{"lat":"-8.58933","long":"14.951063"}},{"country":"ao","city":"Belém do Ndango","coordinates":{"lat":"-12.805833","long":"15.638056"}},{"country":"ao","city":"Belenge","coordinates":{"lat":"-6.7","long":"14.083333"}},{"country":"ao","city":"Belengue","coordinates":{"lat":"-8.58933","long":"14.951063"}},{"country":"ao","city":"Belize","coordinates":{"lat":"-4.65","long":"12.766667"}},{"country":"ao","city":"Belmonte","coordinates":{"lat":"-11.491911","long":"16.406196"}},{"country":"ao","city":"Belo Horizonte","coordinates":{"lat":"-11.590095","long":"16.54606"}},{"country":"ao","city":"Belo Horizonte","coordinates":{"lat":"-8.811895","long":"16.785569"}},{"country":"ao","city":"Belo Horizonte","coordinates":{"lat":"-7.043129","long":"16.109296"}},{"country":"ao","city":"Belo Horizonte","coordinates":{"lat":"-6.046371","long":"14.53491"}},{"country":"ao","city":"Bem Andar","coordinates":{"lat":"-10.863354","long":"14.422519"}},{"country":"ao","city":"Bemánia","coordinates":{"lat":"-10.647945","long":"15.92362"}},{"country":"ao","city":"Bemba","coordinates":{"lat":"-12.65","long":"15.966667"}},{"country":"ao","city":"Bemba","coordinates":{"lat":"-6.414139","long":"15.502956"}},{"country":"ao","city":"Bemba","coordinates":{"lat":"-8.15","long":"14.15"}},{"country":"ao","city":"Bembangango","coordinates":{"lat":"-7.627715","long":"15.046323"}},{"country":"ao","city":"Bemba Nova","coordinates":{"lat":"-7.305802","long":"15.158986"}},{"country":"ao","city":"Bemba Quituia","coordinates":{"lat":"-6.602791","long":"15.910649"}},{"country":"ao","city":"Bembe","coordinates":{"lat":"-13.966667","long":"17.183333"}},{"country":"ao","city":"Bembe","coordinates":{"lat":"-16.233333","long":"19.75"}},{"country":"ao","city":"Bembe","coordinates":{"lat":"-10.238843","long":"16.908999"}},{"country":"ao","city":"Bembe","coordinates":{"lat":"-12.9","long":"18.383333"}},{"country":"ao","city":"Bembe","coordinates":{"lat":"-6.414139","long":"15.502956"}},{"country":"ao","city":"Bembe","coordinates":{"lat":"-6.805173","long":"13.330167"}},{"country":"ao","city":"Bember","coordinates":{"lat":"-14.651696","long":"14.782877"}},{"country":"ao","city":"Bembere","coordinates":{"lat":"-14.763822","long":"14.824281"}},{"country":"ao","city":"Bember Grande","coordinates":{"lat":"-14.651696","long":"14.782877"}},{"country":"ao","city":"Bemboa","coordinates":{"lat":"-12.267973","long":"15.482362"}},{"country":"ao","city":"Bembo","coordinates":{"lat":"-9.062473","long":"15.400775"}},{"country":"ao","city":"Bembo","coordinates":{"lat":"-10.238843","long":"16.908999"}},{"country":"ao","city":"Bembo","coordinates":{"lat":"-8.405037","long":"17.573481"}},{"country":"ao","city":"Bembua","coordinates":{"lat":"-12.267973","long":"15.482362"}},{"country":"ao","city":"Bemfica","coordinates":{"lat":"-12.883333","long":"15.816667"}},{"country":"ao","city":"Bemfica","coordinates":{"lat":"-8.931389","long":"13.16"}},{"country":"ao","city":"Bemvinda","coordinates":{"lat":"-8.697474","long":"14.457123"}},{"country":"ao","city":"Bem Vindo","coordinates":{"lat":"-7.59739","long":"15.059108"}},{"country":"ao","city":"Bem-Vindo Neto","coordinates":{"lat":"-10.690811","long":"14.540411"}},{"country":"ao","city":"Benda","coordinates":{"lat":"-15.666667","long":"21.566667"}},{"country":"ao","city":"Bende","coordinates":{"lat":"-5.233333","long":"12.433333"}},{"country":"ao","city":"Bende","coordinates":{"lat":"-7","long":"14.35"}},{"country":"ao","city":"Bende","coordinates":{"lat":"-6.633333","long":"14.5"}},{"country":"ao","city":"Benderão","coordinates":{"lat":"-12.362188","long":"16.409887"}},{"country":"ao","city":"Bendo","coordinates":{"lat":"-8.651561","long":"15.520904"}},{"country":"ao","city":"Bendo","coordinates":{"lat":"-15.666667","long":"21.566667"}},{"country":"ao","city":"Bendo","coordinates":{"lat":"-7.708193","long":"15.528348"}},{"country":"ao","city":"Bene","coordinates":{"lat":"-6.233333","long":"13.3"}},{"country":"ao","city":"Benfica","coordinates":{"lat":"-10.847895","long":"15.108882"}},{"country":"ao","city":"Benfica","coordinates":{"lat":"-12.742222","long":"15.746944"}},{"country":"ao","city":"Benfica","coordinates":{"lat":"-7.076423","long":"16.096394"}},{"country":"ao","city":"Benfica","coordinates":{"lat":"-8.931389","long":"13.16"}},{"country":"ao","city":"Benfica Jamba","coordinates":{"lat":"-12.8775","long":"15.314444"}},{"country":"ao","city":"Benga","coordinates":{"lat":"-10.451678","long":"14.273064"}},{"country":"ao","city":"Benga","coordinates":{"lat":"-6.111835","long":"15.680955"}},{"country":"ao","city":"Benga do Pungo","coordinates":{"lat":"-10.451678","long":"14.273064"}},{"country":"ao","city":"Benga Pemba","coordinates":{"lat":"-7.159415","long":"15.685969"}},{"country":"ao","city":"Benge Novo","coordinates":{"lat":"-12.147249","long":"14.961714"}},{"country":"ao","city":"Bengo","coordinates":{"lat":"-17.816667","long":"19.316667"}},{"country":"ao","city":"Bengo","coordinates":{"lat":"-6.116667","long":"15.15"}},{"country":"ao","city":"Bengo","coordinates":{"lat":"-8.779801","long":"13.374783"}},{"country":"ao","city":"Bengolombe","coordinates":{"lat":"-6.866649","long":"14.55764"}},{"country":"ao","city":"Bengo Venzo","coordinates":{"lat":"-4.95","long":"12.183333"}},{"country":"ao","city":"Bengue","coordinates":{"lat":"-8.440232","long":"15.238956"}},{"country":"ao","city":"Bengueje","coordinates":{"lat":"-8.413687","long":"15.33486"}},{"country":"ao","city":"Benguela-a-Velha","coordinates":{"lat":"-10.731415","long":"13.759851"}},{"country":"ao","city":"Benguela","coordinates":{"lat":"-12.578333","long":"13.407222"}},{"country":"ao","city":"Benguela","coordinates":{"lat":"-12.1","long":"15.283333"}},{"country":"ao","city":"Benguela Velha","coordinates":{"lat":"-10.731415","long":"13.759851"}},{"country":"ao","city":"Benguella","coordinates":{"lat":"-12.578333","long":"13.407222"}},{"country":"ao","city":"Benguella Velha","coordinates":{"lat":"-10.731415","long":"13.759851"}},{"country":"ao","city":"Benguilege","coordinates":{"lat":"-6.569369","long":"15.921858"}},{"country":"ao","city":"Benguir","coordinates":{"lat":"-16.033333","long":"14.133333"}},{"country":"ao","city":"Benguiteca","coordinates":{"lat":"-6.569369","long":"15.921858"}},{"country":"ao","city":"Benje","coordinates":{"lat":"-12.045949","long":"14.728837"}},{"country":"ao","city":"Bentiaba","coordinates":{"lat":"-14.266667","long":"12.383333"}},{"country":"ao","city":"Bento","coordinates":{"lat":"-8.651561","long":"15.520904"}},{"country":"ao","city":"Bento","coordinates":{"lat":"-11.85","long":"15.466667"}},{"country":"ao","city":"Bento","coordinates":{"lat":"-7.708193","long":"15.528348"}},{"country":"ao","city":"Bento Cardoso","coordinates":{"lat":"-9.100909","long":"17.056063"}},{"country":"ao","city":"Benza","coordinates":{"lat":"-8.712564","long":"14.433102"}},{"country":"ao","city":"Benza","coordinates":{"lat":"-8.807096","long":"16.448293"}},{"country":"ao","city":"Benza","coordinates":{"lat":"-6.266667","long":"12.95"}},{"country":"ao","city":"Benza Quitel","coordinates":{"lat":"-8.966944","long":"13.632778"}},{"country":"ao","city":"Beque","coordinates":{"lat":"-13.054444","long":"15.7325"}},{"country":"ao","city":"Berengue","coordinates":{"lat":"-8.58933","long":"14.951063"}},{"country":"ao","city":"Besa Monteiro","coordinates":{"lat":"-7.156483","long":"13.636889"}},{"country":"ao","city":"Bessa Monteiro","coordinates":{"lat":"-7.156483","long":"13.636889"}},{"country":"ao","city":"Bessenguele","coordinates":{"lat":"-8.652204","long":"14.977472"}},{"country":"ao","city":"Betânia","coordinates":{"lat":"-11.248306","long":"16.325777"}},{"country":"ao","city":"Betánia","coordinates":{"lat":"-10.576492","long":"15.941637"}},{"country":"ao","city":"Betânia","coordinates":{"lat":"-12.069524","long":"16.210101"}},{"country":"ao","city":"Bete","coordinates":{"lat":"-11.916667","long":"17.7"}},{"country":"ao","city":"Betrame","coordinates":{"lat":"-10.487123","long":"15.992584"}},{"country":"ao","city":"Beú","coordinates":{"lat":"-12.6","long":"16.783333"}},{"country":"ao","city":"Béu","coordinates":{"lat":"-10.885255","long":"14.367147"}},{"country":"ao","city":"Béu","coordinates":{"lat":"-5.874001","long":"15.282674"}},{"country":"ao","city":"Bezengulo","coordinates":{"lat":"-11.049838","long":"13.981198"}},{"country":"ao","city":"Biapio","coordinates":{"lat":"-12.4675","long":"13.729167"}},{"country":"ao","city":"Biavela","coordinates":{"lat":"-14.716667","long":"19.783333"}},{"country":"ao","city":"Bibala","coordinates":{"lat":"-14.759669","long":"13.35568"}},{"country":"ao","city":"Bibi","coordinates":{"lat":"-9.324353","long":"17.291003"}},{"country":"ao","city":"Bicando","coordinates":{"lat":"-12.754722","long":"13.1425"}},{"country":"ao","city":"Bichassanha","coordinates":{"lat":"-5.3","long":"12.233333"}},{"country":"ao","city":"Bickman","coordinates":{"lat":"-12.966667","long":"15.716667"}},{"country":"ao","city":"Bicunga","coordinates":{"lat":"-13.8","long":"16.45"}},{"country":"ao","city":"Bié","coordinates":{"lat":"-12.383333","long":"16.933333"}},{"country":"ao","city":"Bieta","coordinates":{"lat":"-12.216667","long":"15.266667"}},{"country":"ao","city":"Biete","coordinates":{"lat":"-6.335833","long":"16.259949"}},{"country":"ao","city":"Bige","coordinates":{"lat":"-9.183333","long":"21.133333"}},{"country":"ao","city":"Bihé","coordinates":{"lat":"-12.383333","long":"16.933333"}},{"country":"ao","city":"Bihele","coordinates":{"lat":"-12.306365","long":"16.451391"}},{"country":"ao","city":"Bilaiambundo","coordinates":{"lat":"-15.55","long":"14.05"}},{"country":"ao","city":"Bilalambundo","coordinates":{"lat":"-15.55","long":"14.05"}},{"country":"ao","city":"Bilo","coordinates":{"lat":"-7.270895","long":"14.97906"}},{"country":"ao","city":"Bimandi","coordinates":{"lat":"-14.933333","long":"20.65"}},{"country":"ao","city":"Bimba","coordinates":{"lat":"-8.270519","long":"17.491816"}},{"country":"ao","city":"Bimbale","coordinates":{"lat":"-12.15","long":"18.95"}},{"country":"ao","city":"Bimbali","coordinates":{"lat":"-12.15","long":"18.95"}},{"country":"ao","city":"Bimbas","coordinates":{"lat":"-12.65","long":"13.485"}},{"country":"ao","city":"Bimbe","coordinates":{"lat":"-15.066667","long":"16.733333"}},{"country":"ao","city":"Bimbe","coordinates":{"lat":"-10.589315","long":"15.502265"}},{"country":"ao","city":"Bimbe","coordinates":{"lat":"-11.816667","long":"15.833333"}},{"country":"ao","city":"Bimbe","coordinates":{"lat":"-8.33386","long":"15.980729"}},{"country":"ao","city":"Bimbi","coordinates":{"lat":"-8.33386","long":"15.980729"}},{"country":"ao","city":"Bimoe","coordinates":{"lat":"-15.2","long":"17.683333"}},{"country":"ao","city":"Binde","coordinates":{"lat":"-12.379077","long":"15.142893"}},{"country":"ao","city":"Bindo","coordinates":{"lat":"-8.153575","long":"15.212929"}},{"country":"ao","city":"Binga-Abolo","coordinates":{"lat":"-8.720425","long":"16.944011"}},{"country":"ao","city":"Binga","coordinates":{"lat":"-12.843333","long":"13.533611"}},{"country":"ao","city":"Binga","coordinates":{"lat":"-8.924731","long":"14.720965"}},{"country":"ao","city":"Binga","coordinates":{"lat":"-10.399486","long":"14.76953"}},{"country":"ao","city":"Binga","coordinates":{"lat":"-13.933333","long":"13.416667"}},{"country":"ao","city":"Binga","coordinates":{"lat":"-6.033333","long":"14.883333"}},{"country":"ao","city":"Binga","coordinates":{"lat":"-6.266667","long":"12.95"}},{"country":"ao","city":"Binge","coordinates":{"lat":"-9.702667","long":"17.487949"}},{"country":"ao","city":"Binge","coordinates":{"lat":"-6.016667","long":"15.3"}},{"country":"ao","city":"Binge Novo","coordinates":{"lat":"-12.147249","long":"14.961714"}},{"country":"ao","city":"Binge Velho","coordinates":{"lat":"-12.130049","long":"14.967004"}},{"country":"ao","city":"Bingue Aluera","coordinates":{"lat":"-8.936331","long":"16.841584"}},{"country":"ao","city":"Bingue Alueta","coordinates":{"lat":"-8.936331","long":"16.841584"}},{"country":"ao","city":"Bingue Alueto","coordinates":{"lat":"-8.936331","long":"16.841584"}},{"country":"ao","city":"Bingue","coordinates":{"lat":"-8.288504","long":"15.266799"}},{"country":"ao","city":"Bingue","coordinates":{"lat":"-8.720425","long":"16.944011"}},{"country":"ao","city":"Bingue-Iambolo","coordinates":{"lat":"-8.720425","long":"16.944011"}},{"country":"ao","city":"Binguende","coordinates":{"lat":"-10.595702","long":"15.338008"}},{"country":"ao","city":"Biópio","coordinates":{"lat":"-12.4675","long":"13.729167"}},{"country":"ao","city":"Bipaco","coordinates":{"lat":"-12.4","long":"13.966667"}},{"country":"ao","city":"Bir","coordinates":{"lat":"-8.032027","long":"15.54045"}},{"country":"ao","city":"Bire","coordinates":{"lat":"-8.032027","long":"15.54045"}},{"country":"ao","city":"Biri","coordinates":{"lat":"-6.35","long":"15.45"}},{"country":"ao","city":"Bispo","coordinates":{"lat":"-8.590556","long":"13.645556"}},{"country":"ao","city":"Bissadi","coordinates":{"lat":"-6.331073","long":"16.15173"}},{"country":"ao","city":"Bissanzo","coordinates":{"lat":"-10.6863","long":"17.664354"}},{"country":"ao","city":"Bissapa","coordinates":{"lat":"-13.7","long":"14.883333"}},{"country":"ao","city":"Bisseio","coordinates":{"lat":"-10.926257","long":"17.761131"}},{"country":"ao","city":"Bisska","coordinates":{"lat":"-11.933333","long":"21.733333"}},{"country":"ao","city":"Bissongue","coordinates":{"lat":"-12.451944","long":"13.647778"}},{"country":"ao","city":"Bissua","coordinates":{"lat":"-11.933333","long":"21.733333"}},{"country":"ao","city":"Bisua","coordinates":{"lat":"-11.933333","long":"21.733333"}},{"country":"ao","city":"Bita","coordinates":{"lat":"-9.02923","long":"13.296826"}},{"country":"ao","city":"Bitángua","coordinates":{"lat":"-15.466667","long":"17.583333"}},{"country":"ao","city":"Bitania","coordinates":{"lat":"-11.917761","long":"14.866181"}},{"country":"ao","city":"Bitina","coordinates":{"lat":"-4.583333","long":"12.983333"}},{"country":"ao","city":"Bitovo","coordinates":{"lat":"-12.883333","long":"17.4"}},{"country":"ao","city":"Biula","coordinates":{"lat":"-11.183333","long":"20.216667"}},{"country":"ao","city":"Biungalo","coordinates":{"lat":"-13.266667","long":"15.85"}},{"country":"ao","city":"Biungulo","coordinates":{"lat":"-13.266667","long":"15.85"}},{"country":"ao","city":"Boa Entrada","coordinates":{"lat":"-10.865409","long":"14.329637"}},{"country":"ao","city":"Boa Entrada","coordinates":{"lat":"-7.379338","long":"15.947553"}},{"country":"ao","city":"Boa Esperança","coordinates":{"lat":"-11.269302","long":"16.252762"}},{"country":"ao","city":"Boa Esperança","coordinates":{"lat":"-10.624612","long":"14.964572"}},{"country":"ao","city":"Boa Ideia","coordinates":{"lat":"-10.408329","long":"14.860776"}},{"country":"ao","city":"Boa Ideia Ngumba","coordinates":{"lat":"-10.891434","long":"15.027815"}},{"country":"ao","city":"Boanha","coordinates":{"lat":"-9.6","long":"21.566667"}},{"country":"ao","city":"Boanza","coordinates":{"lat":"-5.933333","long":"14.233333"}},{"country":"ao","city":"Boas Águas","coordinates":{"lat":"-12.7","long":"16.033333"}},{"country":"ao","city":"Boa Serra","coordinates":{"lat":"-12.401354","long":"15.435181"}},{"country":"ao","city":"Boato","coordinates":{"lat":"-11.465165","long":"20.557819"}},{"country":"ao","city":"Boa Viagem","coordinates":{"lat":"-10.65","long":"14.3"}},{"country":"ao","city":"Boa Vida","coordinates":{"lat":"-11.460672","long":"14.212589"}},{"country":"ao","city":"Boa Vida","coordinates":{"lat":"-9.37281","long":"20.202188"}},{"country":"ao","city":"Boa Vista","coordinates":{"lat":"-9.05","long":"14.6"}},{"country":"ao","city":"Boa Vista","coordinates":{"lat":"-9.708506","long":"15.373835"}},{"country":"ao","city":"Boavista","coordinates":{"lat":"-7.031534","long":"15.41347"}},{"country":"ao","city":"Boa Vista","coordinates":{"lat":"-8.605833","long":"13.561389"}},{"country":"ao","city":"Boca-Cosse","coordinates":{"lat":"-5.233333","long":"12.516667"}},{"country":"ao","city":"Bocato","coordinates":{"lat":"-11.283333","long":"15.083333"}},{"country":"ao","city":"Boco","coordinates":{"lat":"-6.083333","long":"15.183333"}},{"country":"ao","city":"Bocoio","coordinates":{"lat":"-12.066667","long":"14.483333"}},{"country":"ao","city":"Boeio","coordinates":{"lat":"-11.468512","long":"14.220755"}},{"country":"ao","city":"Boela","coordinates":{"lat":"-5.916667","long":"14.55"}},{"country":"ao","city":"Boenga","coordinates":{"lat":"-6.95","long":"15.866667"}},{"country":"ao","city":"Boenga Sul","coordinates":{"lat":"-6.95","long":"15.866667"}},{"country":"ao","city":"Bohunda","coordinates":{"lat":"-12.75","long":"18.433333"}},{"country":"ao","city":"Boia","coordinates":{"lat":"-8.166667","long":"15.883333"}},{"country":"ao","city":"Bokoio","coordinates":{"lat":"-12.466667","long":"14.133333"}},{"country":"ao","city":"Bolongongo","coordinates":{"lat":"-8.464476","long":"15.248198"}},{"country":"ao","city":"Bolonguera","coordinates":{"lat":"-13.55","long":"13.583333"}},{"country":"ao","city":"Bolunda","coordinates":{"lat":"-10.45","long":"15.25"}},{"country":"ao","city":"Boluré","coordinates":{"lat":"-16.4","long":"14.55"}},{"country":"ao","city":"Boma","coordinates":{"lat":"-5.866667","long":"16.4"}},{"country":"ao","city":"Bomba","coordinates":{"lat":"-4.666667","long":"13.033333"}},{"country":"ao","city":"Bomba","coordinates":{"lat":"-13.983333","long":"14.583333"}},{"country":"ao","city":"Bombi","coordinates":{"lat":"-7.7","long":"13.85"}},{"country":"ao","city":"Bombo","coordinates":{"lat":"-11.144881","long":"15.448687"}},{"country":"ao","city":"Bombo","coordinates":{"lat":"-13.683333","long":"15.3"}},{"country":"ao","city":"Bombo","coordinates":{"lat":"-8.975476","long":"17.367428"}},{"country":"ao","city":"Bombo","coordinates":{"lat":"-6.683333","long":"15.133333"}},{"country":"ao","city":"Bomboco","coordinates":{"lat":"-9.63948","long":"14.207236"}},{"country":"ao","city":"Bombo Quimbire","coordinates":{"lat":"-8.333333","long":"14.783333"}},{"country":"ao","city":"Bombota","coordinates":{"lat":"-10.349134","long":"15.046684"}},{"country":"ao","city":"Bomé","coordinates":{"lat":"-16.4","long":"14.666667"}},{"country":"ao","city":"Bom Jesus","coordinates":{"lat":"-8.016667","long":"14.216667"}},{"country":"ao","city":"Bonda","coordinates":{"lat":"-12.332308","long":"14.917874"}},{"country":"ao","city":"Bonda","coordinates":{"lat":"-7.9","long":"15.533333"}},{"country":"ao","city":"Bonde Antigo","coordinates":{"lat":"-5.233333","long":"12.433333"}},{"country":"ao","city":"Bonde","coordinates":{"lat":"-5.233333","long":"12.433333"}},{"country":"ao","city":"Bonde","coordinates":{"lat":"-7","long":"14.35"}},{"country":"ao","city":"Bonde","coordinates":{"lat":"-5.983333","long":"14.783333"}},{"country":"ao","city":"Bondja","coordinates":{"lat":"-10.747789","long":"21.882197"}},{"country":"ao","city":"Bondje","coordinates":{"lat":"-11.45","long":"14.75"}},{"country":"ao","city":"Bondo","coordinates":{"lat":"-17.033333","long":"18.55"}},{"country":"ao","city":"Bondo","coordinates":{"lat":"-8.853123","long":"15.203391"}},{"country":"ao","city":"Bondo","coordinates":{"lat":"-10.769159","long":"14.825654"}},{"country":"ao","city":"Bondo","coordinates":{"lat":"-8.4","long":"16.816667"}},{"country":"ao","city":"Bondo","coordinates":{"lat":"-8.890938","long":"21.0865"}},{"country":"ao","city":"Bondo Pequeno","coordinates":{"lat":"-10.784531","long":"14.794821"}},{"country":"ao","city":"Bonena","coordinates":{"lat":"-10.642365","long":"14.305268"}},{"country":"ao","city":"Bonga","coordinates":{"lat":"-12.766667","long":"18.133333"}},{"country":"ao","city":"Bonga","coordinates":{"lat":"-10.451678","long":"14.273064"}},{"country":"ao","city":"Bonga","coordinates":{"lat":"-12.016667","long":"15.933333"}},{"country":"ao","city":"Bongo","coordinates":{"lat":"-12.993611","long":"15.344444"}},{"country":"ao","city":"Bongo","coordinates":{"lat":"-8.116667","long":"17.2"}},{"country":"ao","city":"Bongo","coordinates":{"lat":"-8.8","long":"17.816667"}},{"country":"ao","city":"Bongola","coordinates":{"lat":"-5.95","long":"14.933333"}},{"country":"ao","city":"Bongo Mamanha","coordinates":{"lat":"-5.35","long":"12.2"}},{"country":"ao","city":"Bongo Nenzo","coordinates":{"lat":"-4.95","long":"12.183333"}},{"country":"ao","city":"Bongo Venzo","coordinates":{"lat":"-4.95","long":"12.183333"}},{"country":"ao","city":"Bongue","coordinates":{"lat":"-6.346816","long":"15.446078"}},{"country":"ao","city":"Bongue","coordinates":{"lat":"-6.049459","long":"14.672996"}},{"country":"ao","city":"Bongue","coordinates":{"lat":"-10.233333","long":"13.6"}},{"country":"ao","city":"Bongui","coordinates":{"lat":"-6.016667","long":"15.3"}},{"country":"ao","city":"Bongui Finda","coordinates":{"lat":"-7.007472","long":"14.946387"}},{"country":"ao","city":"Bonio","coordinates":{"lat":"-12.733333","long":"15.133333"}},{"country":"ao","city":"Bonje","coordinates":{"lat":"-15.633333","long":"18.783333"}},{"country":"ao","city":"Bonzo","coordinates":{"lat":"-8.569103","long":"15.268745"}},{"country":"ao","city":"Boondangue","coordinates":{"lat":"-12.483333","long":"15.233333"}},{"country":"ao","city":"Borsa","coordinates":{"lat":"-11.35069","long":"15.61958"}},{"country":"ao","city":"Bota","coordinates":{"lat":"-9.101591","long":"15.395064"}},{"country":"ao","city":"Botamona","coordinates":{"lat":"-9.133333","long":"13.8"}},{"country":"ao","city":"Bote","coordinates":{"lat":"-8.6696","long":"16.805075"}},{"country":"ao","city":"Bote","coordinates":{"lat":"-8.608895","long":"17.689943"}},{"country":"ao","city":"Botera","coordinates":{"lat":"-11.616667","long":"14.266667"}},{"country":"ao","city":"Botiqui","coordinates":{"lat":"-14.816667","long":"20.85"}},{"country":"ao","city":"Botomona","coordinates":{"lat":"-9.133333","long":"13.8"}},{"country":"ao","city":"Bounda","coordinates":{"lat":"-12.75","long":"18.433333"}},{"country":"ao","city":"Braga","coordinates":{"lat":"-6.173675","long":"16.150718"}},{"country":"ao","city":"Bragança","coordinates":{"lat":"-8.685082","long":"15.766367"}},{"country":"ao","city":"Branca","coordinates":{"lat":"-12.886389","long":"13.004722"}},{"country":"ao","city":"Branco","coordinates":{"lat":"-12.5","long":"20.533333"}},{"country":"ao","city":"Brancu","coordinates":{"lat":"-12.5","long":"20.533333"}},{"country":"ao","city":"Branku","coordinates":{"lat":"-12.5","long":"20.533333"}},{"country":"ao","city":"Braz","coordinates":{"lat":"-11.9","long":"15.016667"}},{"country":"ao","city":"Brita","coordinates":{"lat":"-9.448782","long":"15.730081"}},{"country":"ao","city":"Brito Gandins","coordinates":{"lat":"-8.94357","long":"16.50708"}},{"country":"ao","city":"Brito Godins","coordinates":{"lat":"-8.94357","long":"16.50708"}},{"country":"ao","city":"Bruco","coordinates":{"lat":"-15.116667","long":"13.183333"}},{"country":"ao","city":"B. Silva","coordinates":{"lat":"-11.118718","long":"15.424172"}},{"country":"ao","city":"Buabo","coordinates":{"lat":"-6.71418","long":"15.870047"}},{"country":"ao","city":"Bua","coordinates":{"lat":"-7.15","long":"13.2"}},{"country":"ao","city":"Buaca Bento iá Lungo","coordinates":{"lat":"-8.589928","long":"16.029633"}},{"country":"ao","city":"Buaca","coordinates":{"lat":"-8.563051","long":"16.035929"}},{"country":"ao","city":"Buaca Cuale","coordinates":{"lat":"-8.579564","long":"16.030419"}},{"country":"ao","city":"Buaca Nzango","coordinates":{"lat":"-8.595247","long":"16.029084"}},{"country":"ao","city":"Buainda","coordinates":{"lat":"-9.966667","long":"14.55"}},{"country":"ao","city":"Buala","coordinates":{"lat":"-8.838905","long":"17.13125"}},{"country":"ao","city":"Buale","coordinates":{"lat":"-8.838905","long":"17.13125"}},{"country":"ao","city":"Bualo","coordinates":{"lat":"-8.838905","long":"17.13125"}},{"country":"ao","city":"Bua Mavolovolo","coordinates":{"lat":"-14.604527","long":"16.045737"}},{"country":"ao","city":"Buambua","coordinates":{"lat":"-8.566667","long":"21.2"}},{"country":"ao","city":"Buandangue","coordinates":{"lat":"-11.372402","long":"15.130812"}},{"country":"ao","city":"Buanga","coordinates":{"lat":"-11.533333","long":"16.45"}},{"country":"ao","city":"Buanga","coordinates":{"lat":"-11.566667","long":"14.2"}},{"country":"ao","city":"Buanganga","coordinates":{"lat":"-11.558168","long":"14.893655"}},{"country":"ao","city":"Buango","coordinates":{"lat":"-10.736955","long":"15.062223"}},{"country":"ao","city":"Buatama","coordinates":{"lat":"-14.583333","long":"20.783333"}},{"country":"ao","city":"Buaza","coordinates":{"lat":"-8.433333","long":"15.3"}},{"country":"ao","city":"Buaza","coordinates":{"lat":"-8.941632","long":"15.825245"}},{"country":"ao","city":"Buca","coordinates":{"lat":"-5.666667","long":"12.25"}},{"country":"ao","city":"Buçaco","coordinates":{"lat":"-11.436103","long":"20.164589"}},{"country":"ao","city":"Buca Coxi","coordinates":{"lat":"-7.708333","long":"17.168378"}},{"country":"ao","city":"Bucco-Lau","coordinates":{"lat":"-4.766667","long":"12.55"}},{"country":"ao","city":"Bucita","coordinates":{"lat":"-10.633333","long":"21.733333"}},{"country":"ao","city":"Bucito","coordinates":{"lat":"-10.633333","long":"21.733333"}},{"country":"ao","city":"Buco","coordinates":{"lat":"-5.45","long":"12.233333"}},{"country":"ao","city":"Buco","coordinates":{"lat":"-9.529167","long":"16.206111"}},{"country":"ao","city":"Buco Longo","coordinates":{"lat":"-4.5","long":"12.766667"}},{"country":"ao","city":"Bucomasi","coordinates":{"lat":"-5.45","long":"12.233333"}},{"country":"ao","city":"Buco Maze","coordinates":{"lat":"-5.45","long":"12.233333"}},{"country":"ao","city":"Bucomazi","coordinates":{"lat":"-5.45","long":"12.233333"}},{"country":"ao","city":"Buco N'vago","coordinates":{"lat":"-4.5","long":"12.766667"}},{"country":"ao","city":"Buco Zau","coordinates":{"lat":"-4.766667","long":"12.55"}},{"country":"ao","city":"Bucula","coordinates":{"lat":"-8.561111","long":"13.645"}},{"country":"ao","city":"Buda","coordinates":{"lat":"-12.583333","long":"15.05"}},{"country":"ao","city":"Bueio","coordinates":{"lat":"-11.797478","long":"14.535783"}},{"country":"ao","city":"Buéla","coordinates":{"lat":"-9.366667","long":"14.783333"}},{"country":"ao","city":"Buela","coordinates":{"lat":"-6.659229","long":"15.077654"}},{"country":"ao","city":"Buela","coordinates":{"lat":"-5.916667","long":"14.55"}},{"country":"ao","city":"Buêmbua","coordinates":{"lat":"-10.996609","long":"14.829231"}},{"country":"ao","city":"Buembua","coordinates":{"lat":"-8.1","long":"21.416667"}},{"country":"ao","city":"Buembue","coordinates":{"lat":"-10.839065","long":"14.364141"}},{"country":"ao","city":"Buembué","coordinates":{"lat":"-8.566667","long":"21.2"}},{"country":"ao","city":"Buenbue","coordinates":{"lat":"-10.905857","long":"14.255926"}},{"country":"ao","city":"Buenga","coordinates":{"lat":"-7.716667","long":"16.033333"}},{"country":"ao","city":"Buenga Norte","coordinates":{"lat":"-6.73303","long":"15.888222"}},{"country":"ao","city":"Buengas","coordinates":{"lat":"-6.73303","long":"15.888222"}},{"country":"ao","city":"Buenga Sul","coordinates":{"lat":"-6.948082","long":"15.862824"}},{"country":"ao","city":"Buengo","coordinates":{"lat":"-12.568889","long":"15.346667"}},{"country":"ao","city":"Bueta","coordinates":{"lat":"-6.659229","long":"15.077654"}},{"country":"ao","city":"Bueti","coordinates":{"lat":"-11.816667","long":"15.7"}},{"country":"ao","city":"Buila","coordinates":{"lat":"-11.183333","long":"20.216667"}},{"country":"ao","city":"Buinda","coordinates":{"lat":"-9.5825","long":"16.4925"}},{"country":"ao","city":"Buiza","coordinates":{"lat":"-10.09217","long":"15.194905"}},{"country":"ao","city":"Bula Atumba","coordinates":{"lat":"-8.115023","long":"14.951019"}},{"country":"ao","city":"Bula Atumba","coordinates":{"lat":"-8.674174","long":"14.797001"}},{"country":"ao","city":"Bulabando","coordinates":{"lat":"-8.676395","long":"14.360847"}},{"country":"ao","city":"Bula","coordinates":{"lat":"-14.724358","long":"17.685403"}},{"country":"ao","city":"Bula","coordinates":{"lat":"-15.533333","long":"15.25"}},{"country":"ao","city":"Bula","coordinates":{"lat":"-7.711713","long":"16.016867"}},{"country":"ao","city":"Bula","coordinates":{"lat":"-7.933333","long":"14.066667"}},{"country":"ao","city":"Bula Malari","coordinates":{"lat":"-8.093041","long":"19.01177"}},{"country":"ao","city":"Bulanganga","coordinates":{"lat":"-16.95","long":"15.55"}},{"country":"ao","city":"Bula Quingai","coordinates":{"lat":"-6.442788","long":"16.212719"}},{"country":"ao","city":"Bula-Samba","coordinates":{"lat":"-9.171627","long":"17.286963"}},{"country":"ao","city":"Bula Tádi","coordinates":{"lat":"-7.819544","long":"16.087462"}},{"country":"ao","city":"Bulatumba","coordinates":{"lat":"-8.96804","long":"15.778587"}},{"country":"ao","city":"Bulo","coordinates":{"lat":"-17.833333","long":"19.7"}},{"country":"ao","city":"Bulo","coordinates":{"lat":"-9.65","long":"14.416667"}},{"country":"ao","city":"Bulo","coordinates":{"lat":"-11.316667","long":"14.2"}},{"country":"ao","city":"Bulo","coordinates":{"lat":"-12.433333","long":"15.816667"}},{"country":"ao","city":"Bulo","coordinates":{"lat":"-8.96804","long":"15.778587"}},{"country":"ao","city":"Bulo-Bulo","coordinates":{"lat":"-12.504167","long":"13.877222"}},{"country":"ao","city":"Bulocochina","coordinates":{"lat":"-12.733333","long":"14.183333"}},{"country":"ao","city":"Bulomatumbi","coordinates":{"lat":"-6.683333","long":"14.85"}},{"country":"ao","city":"Buluca","coordinates":{"lat":"-9.679743","long":"17.013393"}},{"country":"ao","city":"Bulumbo","coordinates":{"lat":"-10.604322","long":"16.00416"}},{"country":"ao","city":"Bulungo","coordinates":{"lat":"-8.577044","long":"16.697787"}},{"country":"ao","city":"Bumba Andala","coordinates":{"lat":"-9.069505","long":"14.786368"}},{"country":"ao","city":"Bumba Andondo","coordinates":{"lat":"-9.123417","long":"14.502592"}},{"country":"ao","city":"Bumba","coordinates":{"lat":"-12.066667","long":"14.266667"}},{"country":"ao","city":"Bumba","coordinates":{"lat":"-8.728149","long":"15.192212"}},{"country":"ao","city":"Bumba","coordinates":{"lat":"-10.406965","long":"15.363625"}},{"country":"ao","city":"Bumba","coordinates":{"lat":"-12.188103","long":"15.07646"}},{"country":"ao","city":"Bumba","coordinates":{"lat":"-8.270519","long":"17.491816"}},{"country":"ao","city":"Bumba","coordinates":{"lat":"-11.983333","long":"23.166667"}},{"country":"ao","city":"Bumba","coordinates":{"lat":"-7.3","long":"21.566667"}},{"country":"ao","city":"Bumba","coordinates":{"lat":"-9.1","long":"21.166667"}},{"country":"ao","city":"Bumba","coordinates":{"lat":"-9.416667","long":"13.9"}},{"country":"ao","city":"Bumba-Calala","coordinates":{"lat":"-8.933333","long":"17.466667"}},{"country":"ao","city":"Bumba Cassambi","coordinates":{"lat":"-9.236344","long":"17.291586"}},{"country":"ao","city":"Bumba-Lussechi","coordinates":{"lat":"-10.152772","long":"16.851575"}},{"country":"ao","city":"Bumba Quissueia","coordinates":{"lat":"-9.217793","long":"18.148331"}},{"country":"ao","city":"Bumbatumba de Baixo","coordinates":{"lat":"-9.559968","long":"17.010816"}},{"country":"ao","city":"Bumbatumba de Cima","coordinates":{"lat":"-9.535826","long":"17.012491"}},{"country":"ao","city":"Bumbe","coordinates":{"lat":"-11.816667","long":"15.833333"}},{"country":"ao","city":"Bumbe","coordinates":{"lat":"-7.404305","long":"15.10804"}},{"country":"ao","city":"Bumbi","coordinates":{"lat":"-8.33386","long":"15.980729"}},{"country":"ao","city":"Bumbo","coordinates":{"lat":"-6.920751","long":"14.48272"}},{"country":"ao","city":"Bumbuge","coordinates":{"lat":"-6.166667","long":"14.383333"}},{"country":"ao","city":"Bumbugi","coordinates":{"lat":"-6.166667","long":"14.383333"}},{"country":"ao","city":"Buna","coordinates":{"lat":"-6.9","long":"14.666667"}},{"country":"ao","city":"Bunda","coordinates":{"lat":"-11.454296","long":"14.928036"}},{"country":"ao","city":"Bunda","coordinates":{"lat":"-6.416667","long":"12.633333"}},{"country":"ao","city":"Bundacane","coordinates":{"lat":"-7.183333","long":"15.7"}},{"country":"ao","city":"Bunde","coordinates":{"lat":"-10.28962","long":"14.185434"}},{"country":"ao","city":"Bundja","coordinates":{"lat":"-13.533333","long":"16.016667"}},{"country":"ao","city":"Bundjei","coordinates":{"lat":"-13.533333","long":"16.016667"}},{"country":"ao","city":"Bundo","coordinates":{"lat":"-12.516111","long":"15.542222"}},{"country":"ao","city":"Bundo","coordinates":{"lat":"-8.926088","long":"15.989841"}},{"country":"ao","city":"Bundo","coordinates":{"lat":"-13.35","long":"18.816667"}},{"country":"ao","city":"Bundo de Baixo","coordinates":{"lat":"-12.516111","long":"15.542222"}},{"country":"ao","city":"Bundo de Cima","coordinates":{"lat":"-12.503056","long":"15.534167"}},{"country":"ao","city":"Bundunga","coordinates":{"lat":"-9.831356","long":"14.90264"}},{"country":"ao","city":"Bunga","coordinates":{"lat":"-6.063616","long":"15.716553"}},{"country":"ao","city":"Bungamuenga","coordinates":{"lat":"-6.439033","long":"15.675697"}},{"country":"ao","city":"Bunga Pemba","coordinates":{"lat":"-7.159415","long":"15.685969"}},{"country":"ao","city":"Bunge","coordinates":{"lat":"-11.65","long":"15.916667"}},{"country":"ao","city":"Bungei","coordinates":{"lat":"-13.533333","long":"16.016667"}},{"country":"ao","city":"Bungo","coordinates":{"lat":"-12.683333","long":"14.15"}},{"country":"ao","city":"Bungo","coordinates":{"lat":"-9.6923","long":"14.667864"}},{"country":"ao","city":"Bungo","coordinates":{"lat":"-8.122924","long":"16.427351"}},{"country":"ao","city":"Bungo","coordinates":{"lat":"-7.439564","long":"15.385238"}},{"country":"ao","city":"Bungo de Angola","coordinates":{"lat":"-8.3","long":"14.8"}},{"country":"ao","city":"Bungo iá Cambingo","coordinates":{"lat":"-9.8217","long":"14.655306"}},{"country":"ao","city":"Bungulo","coordinates":{"lat":"-9.233333","long":"15.983333"}},{"country":"ao","city":"Bungulo","coordinates":{"lat":"-8.057547","long":"16.001735"}},{"country":"ao","city":"Bungulo","coordinates":{"lat":"-8.021612","long":"21.503607"}},{"country":"ao","city":"Bunja","coordinates":{"lat":"-17.816667","long":"19.316667"}},{"country":"ao","city":"Bunje","coordinates":{"lat":"-11.65","long":"15.916667"}},{"country":"ao","city":"Bunjei","coordinates":{"lat":"-13.533333","long":"16.016667"}},{"country":"ao","city":"Búntia","coordinates":{"lat":"-6.776111","long":"16.421992"}},{"country":"ao","city":"Bunya","coordinates":{"lat":"-17.816667","long":"19.316667"}},{"country":"ao","city":"Buque","coordinates":{"lat":"-7.55","long":"21.3"}},{"country":"ao","city":"Buri","coordinates":{"lat":"-9.866667","long":"16.5"}},{"country":"ao","city":"Burica da Nhama","coordinates":{"lat":"-10.479235","long":"14.413481"}},{"country":"ao","city":"Burucuto","coordinates":{"lat":"-7.183333","long":"14.583333"}},{"country":"ao","city":"Busaso","coordinates":{"lat":"-11.436103","long":"20.164589"}},{"country":"ao","city":"Bussaco","coordinates":{"lat":"-11.436103","long":"20.164589"}},{"country":"ao","city":"Buta","coordinates":{"lat":"-12.55","long":"14.183333"}},{"country":"ao","city":"Buta","coordinates":{"lat":"-8.542127","long":"15.277694"}},{"country":"ao","city":"Buta","coordinates":{"lat":"-12.016667","long":"15.616667"}},{"country":"ao","city":"Buta","coordinates":{"lat":"-9.223151","long":"16.049528"}},{"country":"ao","city":"Butifar","coordinates":{"lat":"-8.56622","long":"14.948892"}},{"country":"ao","city":"Butiqui","coordinates":{"lat":"-14.816667","long":"20.85"}},{"country":"ao","city":"Butje","coordinates":{"lat":"-16.683333","long":"13.8"}},{"country":"ao","city":"Buto","coordinates":{"lat":"-15.766667","long":"15.15"}},{"country":"ao","city":"Butramo","coordinates":{"lat":"-11.566667","long":"15.35"}},{"country":"ao","city":"Butungo","coordinates":{"lat":"-9.116667","long":"14.533333"}},{"country":"ao","city":"Buvelai","coordinates":{"lat":"-14.55354","long":"14.777317"}},{"country":"ao","city":"Buzoalongua","coordinates":{"lat":"-6.283333","long":"14.8"}},{"country":"ao","city":"Buzo","coordinates":{"lat":"-6.1","long":"15.166667"}},{"country":"ao","city":"Buzo","coordinates":{"lat":"-6.283333","long":"14.8"}},{"country":"ao","city":"Caacata","coordinates":{"lat":"-11.433333","long":"14.8"}},{"country":"ao","city":"Caala","coordinates":{"lat":"-12.431099","long":"14.784996"}},{"country":"ao","city":"Caála","coordinates":{"lat":"-12.8525","long":"15.560556"}},{"country":"ao","city":"Caala","coordinates":{"lat":"-9.231373","long":"15.757122"}},{"country":"ao","city":"Caama","coordinates":{"lat":"-10.341228","long":"14.074554"}},{"country":"ao","city":"Caambia","coordinates":{"lat":"-11.710355","long":"14.500864"}},{"country":"ao","city":"Caana","coordinates":{"lat":"-10.440256","long":"14.953258"}},{"country":"ao","city":"Caanga","coordinates":{"lat":"-10.440256","long":"14.953258"}},{"country":"ao","city":"Caar","coordinates":{"lat":"-12.05","long":"18.283333"}},{"country":"ao","city":"Caata","coordinates":{"lat":"-12.345434","long":"14.808753"}},{"country":"ao","city":"Cababa","coordinates":{"lat":"-14.766667","long":"19.083333"}},{"country":"ao","city":"Cababa Tumbo","coordinates":{"lat":"-8.763994","long":"14.760068"}},{"country":"ao","city":"Cababola","coordinates":{"lat":"-13.116667","long":"15.166667"}},{"country":"ao","city":"Cabaça","coordinates":{"lat":"-8.805264","long":"15.218717"}},{"country":"ao","city":"Cabaca","coordinates":{"lat":"-10.6","long":"16.25"}},{"country":"ao","city":"Cabaça","coordinates":{"lat":"-8.41288","long":"16.751676"}},{"country":"ao","city":"Cabaca","coordinates":{"lat":"-6.627547","long":"16.531616"}},{"country":"ao","city":"Cabaça do Samba","coordinates":{"lat":"-8.918311","long":"15.729315"}},