[{"country":"lv","city":"Abaine","coordinates":{"lat":"56.8333333","long":"26.8666667"}},{"country":"lv","city":"Abali","coordinates":{"lat":"57.0833333","long":"21.6833333"}},{"country":"lv","city":"Abaruni","coordinates":{"lat":"55.9833333","long":"26.5666667"}},{"country":"lv","city":"Abaruny","coordinates":{"lat":"55.9833333","long":"26.5666667"}},{"country":"lv","city":"Abava","coordinates":{"lat":"56.95","long":"22.9666667"}},{"country":"lv","city":"Abava","coordinates":{"lat":"57.1","long":"21.8833333"}},{"country":"lv","city":"Abava Bijusas Pusmuizas Centrs","coordinates":{"lat":"57.1","long":"21.8833333"}},{"country":"lv","city":"Abeles","coordinates":{"lat":"56.4797222","long":"23.2611111"}},{"country":"lv","city":"Abeli","coordinates":{"lat":"56.4797222","long":"23.2611111"}},{"country":"lv","city":"Abeli","coordinates":{"lat":"57.0833333","long":"21.6833333"}},{"country":"lv","city":"Abelites","coordinates":{"lat":"56.7666667","long":"21.4666667"}},{"country":"lv","city":"Abelkrogs","coordinates":{"lat":"57.0833333","long":"21.6833333"}},{"country":"lv","city":"Abelnieki","coordinates":{"lat":"57.3","long":"21.6"}},{"country":"lv","city":"Abgunste","coordinates":{"lat":"56.4763889","long":"23.4869444"}},{"country":"lv","city":"Aboldari","coordinates":{"lat":"56.9333333","long":"27.0333333"}},{"country":"lv","city":"Aboli","coordinates":{"lat":"56.8","long":"22.3833333"}},{"country":"lv","city":"Abolini","coordinates":{"lat":"56.5308333","long":"23.6061111"}},{"country":"lv","city":"Abolkalni","coordinates":{"lat":"56.6666667","long":"26.25"}},{"country":"lv","city":"Aboltini","coordinates":{"lat":"57.6013889","long":"24.4952778"}},{"country":"lv","city":"Abragciems","coordinates":{"lat":"57.2027778","long":"23.2036111"}},{"country":"lv","city":"Abragtsiems","coordinates":{"lat":"57.2027778","long":"23.2036111"}},{"country":"lv","city":"Abragtsiyems","coordinates":{"lat":"57.2027778","long":"23.2036111"}},{"country":"lv","city":"Abricki","coordinates":{"lat":"56.5","long":"28.0"}},{"country":"lv","city":"Abrina","coordinates":{"lat":"56.9666667","long":"27.6166667"}},{"country":"lv","city":"Abrini","coordinates":{"lat":"56.9666667","long":"27.6166667"}},{"country":"lv","city":"Abritski","coordinates":{"lat":"56.5","long":"28.0"}},{"country":"lv","city":"Abrupe","coordinates":{"lat":"57.1333333","long":"26.0"}},{"country":"lv","city":"Abrup'i","coordinates":{"lat":"57.1333333","long":"26.0"}},{"country":"lv","city":"Abrupji","coordinates":{"lat":"57.1333333","long":"26.0"}},{"country":"lv","city":"Absera","coordinates":{"lat":"56.2","long":"25.6166667"}},{"country":"lv","city":"Abserdi","coordinates":{"lat":"56.2","long":"25.6166667"}},{"country":"lv","city":"Abserdy","coordinates":{"lat":"56.2","long":"25.6166667"}},{"country":"lv","city":"Abtupe","coordinates":{"lat":"57.1333333","long":"26.0"}},{"country":"lv","city":"Abulas","coordinates":{"lat":"56.8","long":"22.3833333"}},{"country":"lv","city":"Adamamuiza","coordinates":{"lat":"57.4333333","long":"26.6666667"}},{"country":"lv","city":"Adami","coordinates":{"lat":"57.4333333","long":"26.6666667"}},{"country":"lv","city":"Adamova","coordinates":{"lat":"56.3","long":"28.1666667"}},{"country":"lv","city":"Adamova","coordinates":{"lat":"56.5666667","long":"27.3666667"}},{"country":"lv","city":"Adams","coordinates":{"lat":"57.4333333","long":"26.6666667"}},{"country":"lv","city":"Adazhi-02","coordinates":{"lat":"57.0938889","long":"24.3655556"}},{"country":"lv","city":"Adazhi","coordinates":{"lat":"57.0758333","long":"24.3213889"}},{"country":"lv","city":"Adazi 2","coordinates":{"lat":"57.0938889","long":"24.3655556"}},{"country":"lv","city":"Adazi","coordinates":{"lat":"57.0758333","long":"24.3213889"}},{"country":"lv","city":"Adazi Divi","coordinates":{"lat":"57.0938889","long":"24.3655556"}},{"country":"lv","city":"Aderkasi","coordinates":{"lat":"56.85","long":"25.3333333"}},{"country":"lv","city":"Aderkasu Muiza","coordinates":{"lat":"56.85","long":"25.3333333"}},{"country":"lv","city":"Adganiski","coordinates":{"lat":"55.9166667","long":"27.4166667"}},{"country":"lv","city":"Adgoniski","coordinates":{"lat":"55.9166667","long":"27.4166667"}},{"country":"lv","city":"Adminani","coordinates":{"lat":"56.5166667","long":"25.8"}},{"country":"lv","city":"Aduliena","coordinates":{"lat":"57.0833333","long":"26.5166667"}},{"country":"lv","city":"Adumnieki","coordinates":{"lat":"56.85","long":"26.0333333"}},{"country":"lv","city":"Adzas","coordinates":{"lat":"56.85","long":"21.55"}},{"country":"lv","city":"Adze","coordinates":{"lat":"56.85","long":"21.55"}},{"country":"lv","city":"Adze Muizas Centrs","coordinates":{"lat":"56.85","long":"21.55"}},{"country":"lv","city":"Adzes","coordinates":{"lat":"56.85","long":"21.55"}},{"country":"lv","city":"Adzhuny","coordinates":{"lat":"56.3208333","long":"24.0625"}},{"country":"lv","city":"Adzhyuny","coordinates":{"lat":"56.3208333","long":"24.0625"}},{"country":"lv","city":"Adzi","coordinates":{"lat":"56.85","long":"21.55"}},{"country":"lv","city":"Adzi","coordinates":{"lat":"57.5333333","long":"22.15"}},{"country":"lv","city":"Adziuni","coordinates":{"lat":"56.3208333","long":"24.0625"}},{"country":"lv","city":"Adzjuni","coordinates":{"lat":"56.3208333","long":"24.0625"}},{"country":"lv","city":"Adzuni","coordinates":{"lat":"56.3208333","long":"24.0625"}},{"country":"lv","city":"Adzu Viensetas","coordinates":{"lat":"56.85","long":"21.55"}},{"country":"lv","city":"Agenkalne Inlet","coordinates":{"lat":"56.9397222","long":"24.0738889"}},{"country":"lv","city":"Agenskalna","coordinates":{"lat":"56.9397222","long":"24.0738889"}},{"country":"lv","city":"Agenskalns","coordinates":{"lat":"56.9397222","long":"24.0738889"}},{"country":"lv","city":"Aglona","coordinates":{"lat":"56.1333333","long":"27.0166667"}},{"country":"lv","city":"Aglonas Muiza","coordinates":{"lat":"56.1333333","long":"27.0166667"}},{"country":"lv","city":"Agluna","coordinates":{"lat":"56.1333333","long":"27.0166667"}},{"country":"lv","city":"Agureckaja","coordinates":{"lat":"56.15","long":"27.15"}},{"country":"lv","city":"Aijazi","coordinates":{"lat":"57.3816667","long":"24.7438889"}},{"country":"lv","city":"Ainazi","coordinates":{"lat":"57.8636111","long":"24.3577778"}},{"country":"lv","city":"Aishpury","coordinates":{"lat":"55.9666667","long":"27.1666667"}},{"country":"lv","city":"Aiskari","coordinates":{"lat":"56.7333333","long":"26.7"}},{"country":"lv","city":"Aiskorkli","coordinates":{"lat":"56.7333333","long":"26.7"}},{"country":"lv","city":"Aispuri","coordinates":{"lat":"55.9666667","long":"27.1666667"}},{"country":"lv","city":"Aispute","coordinates":{"lat":"56.7166667","long":"21.6"}},{"country":"lv","city":"Aistere","coordinates":{"lat":"56.6333333","long":"21.3"}},{"country":"lv","city":"Aistereskrogs","coordinates":{"lat":"56.6333333","long":"21.3"}},{"country":"lv","city":"Aiviekstes","coordinates":{"lat":"56.7666667","long":"26.4"}},{"country":"lv","city":"Aizape","coordinates":{"lat":"56.9166667","long":"22.6"}},{"country":"lv","city":"Aizdzire","coordinates":{"lat":"57.0","long":"22.7333333"}},{"country":"lv","city":"Aizdzires Muiza","coordinates":{"lat":"57.0","long":"22.7333333"}},{"country":"lv","city":"Aizkakles","coordinates":{"lat":"56.7333333","long":"26.7"}},{"country":"lv","city":"Aizkalne","coordinates":{"lat":"56.2","long":"26.7833333"}},{"country":"lv","city":"Aizkalni","coordinates":{"lat":"56.2","long":"26.7833333"}},{"country":"lv","city":"Aizkarkles","coordinates":{"lat":"56.7333333","long":"26.7"}},{"country":"lv","city":"Aizklani","coordinates":{"lat":"57.6666667","long":"22.5666667"}},{"country":"lv","city":"Aizkraukle","coordinates":{"lat":"56.6","long":"25.1833333"}},{"country":"lv","city":"Aizkraukles Muiza","coordinates":{"lat":"56.6","long":"25.1833333"}},{"country":"lv","city":"Aizkuja","coordinates":{"lat":"56.9333333","long":"26.4"}},{"country":"lv","city":"Aizkujas Muiza","coordinates":{"lat":"56.9333333","long":"26.4"}},{"country":"lv","city":"Aizpure","coordinates":{"lat":"56.9469444","long":"23.2925"}},{"country":"lv","city":"Aizpures Pusmuiza","coordinates":{"lat":"56.9469444","long":"23.2925"}},{"country":"lv","city":"Aizpuri","coordinates":{"lat":"55.9666667","long":"27.1666667"}},{"country":"lv","city":"Aizpuri","coordinates":{"lat":"56.9469444","long":"23.2925"}},{"country":"lv","city":"Aizpurve","coordinates":{"lat":"57.1166667","long":"27.65"}},{"country":"lv","city":"Aizpurve","coordinates":{"lat":"56.9469444","long":"23.2925"}},{"country":"lv","city":"Aizpurves","coordinates":{"lat":"56.9666667","long":"26.4166667"}},{"country":"lv","city":"Aizpurvi","coordinates":{"lat":"56.25","long":"25.8"}},{"country":"lv","city":"Aizpute","coordinates":{"lat":"56.7166667","long":"21.6"}},{"country":"lv","city":"Aizputes-Padure","coordinates":{"lat":"56.7333333","long":"21.5833333"}},{"country":"lv","city":"Aizstraunieki","coordinates":{"lat":"56.6888889","long":"23.21"}},{"country":"lv","city":"Aizstrautnieki","coordinates":{"lat":"56.6888889","long":"23.21"}},{"country":"lv","city":"Aiztere","coordinates":{"lat":"56.6333333","long":"21.3"}},{"country":"lv","city":"Aizteri","coordinates":{"lat":"56.6333333","long":"21.3"}},{"country":"lv","city":"Aizuarsa","coordinates":{"lat":"56.75","long":"27.9"}},{"country":"lv","city":"Aizupe","coordinates":{"lat":"56.6913889","long":"23.7977778"}},{"country":"lv","city":"Aizupe","coordinates":{"lat":"56.9166667","long":"22.6"}},{"country":"lv","city":"Aizupes","coordinates":{"lat":"56.6955556","long":"23.8008333"}},{"country":"lv","city":"Aizupes","coordinates":{"lat":"57.2","long":"22.3833333"}},{"country":"lv","city":"Aizupes Lamani","coordinates":{"lat":"56.5","long":"25.9666667"}},{"country":"lv","city":"Aizupes Muiza","coordinates":{"lat":"56.9166667","long":"22.6"}},{"country":"lv","city":"Aizupi","coordinates":{"lat":"57.0166667","long":"22.4166667"}},{"country":"lv","city":"Aizupiesi","coordinates":{"lat":"56.6666667","long":"27.2"}},{"country":"lv","city":"Aizupisi","coordinates":{"lat":"56.6666667","long":"27.2"}},{"country":"lv","city":"Aizviki","coordinates":{"lat":"56.3333333","long":"21.7333333"}},{"country":"lv","city":"Aizviki Muizas Centrs","coordinates":{"lat":"56.3333333","long":"21.7333333"}},{"country":"lv","city":"Akacijas","coordinates":{"lat":"56.5522222","long":"23.4175"}},{"country":"lv","city":"Akagals","coordinates":{"lat":"56.8833333","long":"21.1833333"}},{"country":"lv","city":"Akanstaka","coordinates":{"lat":"57.0666667","long":"25.05"}},{"country":"lv","city":"Akasi","coordinates":{"lat":"56.5166667","long":"28.0333333"}},{"country":"lv","city":"Akavina","coordinates":{"lat":"57.4666667","long":"27.3166667"}},{"country":"lv","city":"Akavinas","coordinates":{"lat":"57.4666667","long":"27.3166667"}},{"country":"lv","city":"Akeni","coordinates":{"lat":"56.8666667","long":"25.6833333"}},{"country":"lv","city":"Akenstaka","coordinates":{"lat":"57.0666667","long":"25.05"}},{"country":"lv","city":"Akenstakas Muiza","coordinates":{"lat":"57.0666667","long":"25.05"}},{"country":"lv","city":"Akenu Pusmuiza","coordinates":{"lat":"56.8666667","long":"25.6833333"}},{"country":"lv","city":"Akermani","coordinates":{"lat":"56.8652778","long":"24.4266667"}},{"country":"lv","city":"Akishi","coordinates":{"lat":"56.5166667","long":"28.0333333"}},{"country":"lv","city":"Aklaisciems","coordinates":{"lat":"57.1833333","long":"22.6666667"}},{"country":"lv","city":"Aklaistsiems","coordinates":{"lat":"57.1833333","long":"22.6666667"}},{"country":"lv","city":"Akmenai","coordinates":{"lat":"57.0833333","long":"21.5333333"}},{"country":"lv","city":"Akmenaji","coordinates":{"lat":"57.0833333","long":"21.5333333"}},{"country":"lv","city":"Akmendziras","coordinates":{"lat":"57.4808333","long":"21.6827778"}},{"country":"lv","city":"Akmene","coordinates":{"lat":"56.7166667","long":"21.3833333"}},{"country":"lv","city":"Akmenes","coordinates":{"lat":"56.7166667","long":"21.3833333"}},{"country":"lv","city":"Akmenes Muiza","coordinates":{"lat":"56.7166667","long":"21.3833333"}},{"country":"lv","city":"Akmeni","coordinates":{"lat":"56.9166667","long":"22.9666667"}},{"country":"lv","city":"Akmenmuiza","coordinates":{"lat":"56.9166667","long":"22.9666667"}},{"country":"lv","city":"Akmenruci","coordinates":{"lat":"56.9166667","long":"27.35"}},{"country":"lv","city":"Akniste","coordinates":{"lat":"56.1666667","long":"25.75"}},{"country":"lv","city":"Alanda","coordinates":{"lat":"56.5166667","long":"21.1166667"}},{"country":"lv","city":"Alande","coordinates":{"lat":"56.55","long":"21.25"}},{"country":"lv","city":"Alava","coordinates":{"lat":"56.5025","long":"23.2147222"}},{"country":"lv","city":"Alave","coordinates":{"lat":"56.5025","long":"23.2147222"}},{"country":"lv","city":"Aldari","coordinates":{"lat":"57.0547222","long":"24.345"}},{"country":"lv","city":"Alderi","coordinates":{"lat":"57.0547222","long":"24.345"}},{"country":"lv","city":"Alderu Muiza","coordinates":{"lat":"57.0547222","long":"24.345"}},{"country":"lv","city":"Aleksandropole","coordinates":{"lat":"57.0","long":"27.1333333"}},{"country":"lv","city":"Aleksandrovo","coordinates":{"lat":"56.25","long":"27.55"}},{"country":"lv","city":"Alkoni","coordinates":{"lat":"57.3597222","long":"21.6272222"}},{"country":"lv","city":"Alksnajciems","coordinates":{"lat":"57.31","long":"23.0458333"}},{"country":"lv","city":"Alksnajs","coordinates":{"lat":"57.31","long":"23.0458333"}},{"country":"lv","city":"Alksne","coordinates":{"lat":"57.4166667","long":"27.05"}},{"country":"lv","city":"Allazhi","coordinates":{"lat":"57.0269444","long":"24.8213889"}},{"country":"lv","city":"Allazi","coordinates":{"lat":"56.8","long":"21.9666667"}},{"country":"lv","city":"Allazi","coordinates":{"lat":"57.0269444","long":"24.8213889"}},{"country":"lv","city":"Allazi","coordinates":{"lat":"57.0666667","long":"21.4166667"}},{"country":"lv","city":"Allazmuiza","coordinates":{"lat":"57.0269444","long":"24.8213889"}},{"country":"lv","city":"Allazu Muiza","coordinates":{"lat":"57.0269444","long":"24.8213889"}},{"country":"lv","city":"Almale","coordinates":{"lat":"56.9833333","long":"21.6333333"}},{"country":"lv","city":"Almjudzi","coordinates":{"lat":"57.1666667","long":"22.15"}},{"country":"lv","city":"Alodzene","coordinates":{"lat":"57.3166667","long":"27.3333333"}},{"country":"lv","city":"Alodzeni","coordinates":{"lat":"57.3166667","long":"27.3333333"}},{"country":"lv","city":"Alodzeny","coordinates":{"lat":"57.3166667","long":"27.3333333"}},{"country":"lv","city":"Aloja","coordinates":{"lat":"57.7669444","long":"24.8825"}},{"country":"lv","city":"Alojas Muiza","coordinates":{"lat":"57.7669444","long":"24.8825"}},{"country":"lv","city":"Aloya","coordinates":{"lat":"57.7669444","long":"24.8825"}},{"country":"lv","city":"Alshi","coordinates":{"lat":"56.4833333","long":"22.0833333"}},{"country":"lv","city":"Alshvanga","coordinates":{"lat":"56.9833333","long":"21.5666667"}},{"country":"lv","city":"Alsi","coordinates":{"lat":"56.4833333","long":"22.0833333"}},{"country":"lv","city":"Alsunga","coordinates":{"lat":"56.9833333","long":"21.5666667"}},{"country":"lv","city":"Alsung","coordinates":{"lat":"56.9833333","long":"21.5666667"}},{"country":"lv","city":"Alsupe","coordinates":{"lat":"57.0833333","long":"26.3666667"}},{"country":"lv","city":"Alsupes","coordinates":{"lat":"57.0833333","long":"26.3666667"}},{"country":"lv","city":"Alsupes Pusmuiza","coordinates":{"lat":"57.0833333","long":"26.3666667"}},{"country":"lv","city":"Alsvanga","coordinates":{"lat":"56.9833333","long":"21.5666667"}},{"country":"lv","city":"Alsvika","coordinates":{"lat":"57.4","long":"26.8833333"}},{"country":"lv","city":"Alsviki","coordinates":{"lat":"57.4","long":"26.8833333"}},{"country":"lv","city":"Alsvikis","coordinates":{"lat":"57.4333333","long":"26.95"}},{"country":"lv","city":"Alt-Schwaneburg","coordinates":{"lat":"57.1833333","long":"26.75"}},{"country":"lv","city":"Aluksne","coordinates":{"lat":"57.4166667","long":"27.05"}},{"country":"lv","city":"Alunani","coordinates":{"lat":"56.55","long":"25.9666667"}},{"country":"lv","city":"Alunany","coordinates":{"lat":"56.55","long":"25.9666667"}},{"country":"lv","city":"Alzani","coordinates":{"lat":"56.75","long":"26.35"}},{"country":"lv","city":"Alzenova","coordinates":{"lat":"56.0833333","long":"27.5833333"}},{"country":"lv","city":"Alzezere","coordinates":{"lat":"57.2333333","long":"27.3833333"}},{"country":"lv","city":"Amaliesmuyzha","coordinates":{"lat":"57.2166667","long":"21.7"}},{"country":"lv","city":"Amalijas","coordinates":{"lat":"57.2166667","long":"21.7"}},{"country":"lv","city":"Amalijasmuiza","coordinates":{"lat":"57.2166667","long":"21.7"}},{"country":"lv","city":"Amaliyyasmuyzha","coordinates":{"lat":"57.2166667","long":"21.7"}},{"country":"lv","city":"Amata","coordinates":{"lat":"57.2","long":"25.15"}},{"country":"lv","city":"Amazi","coordinates":{"lat":"57.8636111","long":"24.3577778"}},{"country":"lv","city":"Ambeli","coordinates":{"lat":"56.0333333","long":"26.8333333"}},{"country":"lv","city":"Amburga","coordinates":{"lat":"56.5619444","long":"23.9822222"}},{"country":"lv","city":"Amele","coordinates":{"lat":"57.3833333","long":"22.2333333"}},{"country":"lv","city":"Ameli","coordinates":{"lat":"57.3833333","long":"22.2333333"}},{"country":"lv","city":"Amelmuiza Muizas Centrs","coordinates":{"lat":"57.3833333","long":"22.2333333"}},{"country":"lv","city":"Amjudzu Ciems","coordinates":{"lat":"57.1666667","long":"22.15"}},{"country":"lv","city":"Anakhitte","coordinates":{"lat":"57.3166667","long":"22.2666667"}},{"country":"lv","city":"Anas","coordinates":{"lat":"56.9166667","long":"21.9666667"}},{"country":"lv","city":"Ance","coordinates":{"lat":"57.5166667","long":"22.0166667"}},{"country":"lv","city":"Ance Muizas Centrs","coordinates":{"lat":"57.5166667","long":"22.0166667"}},{"country":"lv","city":"Ancene","coordinates":{"lat":"56.1","long":"25.9666667"}},{"country":"lv","city":"Ancenes","coordinates":{"lat":"56.1","long":"25.9666667"}},{"country":"lv","city":"Anceni","coordinates":{"lat":"56.1","long":"25.9666667"}},{"country":"lv","city":"Anceni","coordinates":{"lat":"56.8333333","long":"27.8166667"}},{"country":"lv","city":"Anchkina","coordinates":{"lat":"56.2833333","long":"26.6166667"}},{"country":"lv","city":"Anchkini","coordinates":{"lat":"56.2833333","long":"26.6166667"}},{"country":"lv","city":"Anchkuna","coordinates":{"lat":"56.3","long":"26.45"}},{"country":"lv","city":"Anciems","coordinates":{"lat":"57.3333333","long":"25.1333333"}},{"country":"lv","city":"Ancipova","coordinates":{"lat":"57.0333333","long":"27.7333333"}},{"country":"lv","city":"Anckini","coordinates":{"lat":"56.2833333","long":"26.6166667"}},{"country":"lv","city":"Anckuli","coordinates":{"lat":"56.3","long":"26.45"}},{"country":"lv","city":"Ancveiri","coordinates":{"lat":"56.1","long":"26.9666667"}},{"country":"lv","city":"Ancveirini","coordinates":{"lat":"56.1","long":"26.9666667"}},{"country":"lv","city":"Ancverini-I","coordinates":{"lat":"56.1","long":"26.9666667"}},{"country":"lv","city":"Ancvirini","coordinates":{"lat":"56.1","long":"26.9666667"}},{"country":"lv","city":"Anderi","coordinates":{"lat":"56.4833333","long":"21.6666667"}},{"country":"lv","city":"Andini","coordinates":{"lat":"56.15","long":"27.4166667"}},{"country":"lv","city":"Andini","coordinates":{"lat":"56.1","long":"26.5166667"}},{"country":"lv","city":"Andini","coordinates":{"lat":"57.0166667","long":"21.5833333"}},{"country":"lv","city":"Andrejsala","coordinates":{"lat":"56.9655556","long":"24.0947222"}},{"country":"lv","city":"Andrepna","coordinates":{"lat":"56.1833333","long":"27.3833333"}},{"country":"lv","city":"Andrepno","coordinates":{"lat":"56.1833333","long":"27.3833333"}},{"country":"lv","city":"Andri","coordinates":{"lat":"56.3666667","long":"27.8666667"}},{"country":"lv","city":"Andriceni","coordinates":{"lat":"57.1833333","long":"25.0333333"}},{"country":"lv","city":"Andrupene","coordinates":{"lat":"56.1833333","long":"27.3833333"}},{"country":"lv","city":"Anduni","coordinates":{"lat":"56.15","long":"27.4166667"}},{"country":"lv","city":"Anduny","coordinates":{"lat":"56.15","long":"27.4166667"}},{"country":"lv","city":"Andzani","coordinates":{"lat":"56.4833333","long":"25.3"}},{"country":"lv","city":"Andzani","coordinates":{"lat":"55.9166667","long":"27.3333333"}},{"country":"lv","city":"Andzeli","coordinates":{"lat":"56.1666667","long":"27.55"}},{"country":"lv","city":"Andzeni","coordinates":{"lat":"56.4833333","long":"25.3"}},{"country":"lv","city":"Ane","coordinates":{"lat":"56.6475","long":"23.8136111"}},{"country":"lv","city":"Anger","coordinates":{"lat":"57.1630556","long":"23.2241667"}},{"country":"lv","city":"Ani","coordinates":{"lat":"57.0916667","long":"24.4713889"}},{"country":"lv","city":"Aniany","coordinates":{"lat":"56.8333333","long":"27.8166667"}},{"country":"lv","city":"Anna","coordinates":{"lat":"57.3333333","long":"27.0333333"}},{"country":"lv","city":"Anna","coordinates":{"lat":"57.0333333","long":"25.3666667"}},{"country":"lv","city":"Anna","coordinates":{"lat":"56.9180556","long":"23.8030556"}},{"country":"lv","city":"Anna","coordinates":{"lat":"57.2333333","long":"21.6"}},{"country":"lv","city":"Annahitte","coordinates":{"lat":"57.3166667","long":"22.2666667"}},{"country":"lv","city":"Annapole","coordinates":{"lat":"56.2166667","long":"27.9666667"}},{"country":"lv","city":"Annas","coordinates":{"lat":"57.3333333","long":"27.0333333"}},{"country":"lv","city":"(( Annas ))","coordinates":{"lat":"56.4","long":"23.9"}},{"country":"lv","city":"Annas","coordinates":{"lat":"57.0333333","long":"25.3666667"}},{"country":"lv","city":"(( Annas ))","coordinates":{"lat":"56.3363889","long":"23.0777778"}},{"country":"lv","city":"Annas","coordinates":{"lat":"56.9180556","long":"23.8030556"}},{"country":"lv","city":"Annasbirze","coordinates":{"lat":"57.1833333","long":"27.3"}},{"country":"lv","city":"Annaskalni","coordinates":{"lat":"56.6666667","long":"22.5333333"}},{"country":"lv","city":"Annaskrogs","coordinates":{"lat":"56.9180556","long":"23.8030556"}},{"country":"lv","city":"Annasmaja","coordinates":{"lat":"57.2333333","long":"21.6"}},{"country":"lv","city":"Annasm Turlaji","coordinates":{"lat":"56.6833333","long":"27.45"}},{"country":"lv","city":"Annasmuiza","coordinates":{"lat":"57.35","long":"27.0666667"}},{"country":"lv","city":"Annasmuiza","coordinates":{"lat":"56.4","long":"23.9"}},{"country":"lv","city":"Annas Muiza","coordinates":{"lat":"57.0333333","long":"25.3666667"}},{"country":"lv","city":"Annasmuiza","coordinates":{"lat":"56.6722222","long":"23.0897222"}},{"country":"lv","city":"Annasmuiza","coordinates":{"lat":"56.8980556","long":"24.8230556"}},{"country":"lv","city":"Annasmuiza","coordinates":{"lat":"56.9180556","long":"23.8030556"}},{"country":"lv","city":"Annasmuiza","coordinates":{"lat":"57.2333333","long":"21.6"}},{"country":"lv","city":"Annas Muizas Centrs","coordinates":{"lat":"57.3333333","long":"27.0333333"}},{"country":"lv","city":"Annasmuyzha","coordinates":{"lat":"56.4","long":"23.9"}},{"country":"lv","city":"Annasmuyzha","coordinates":{"lat":"56.6722222","long":"23.0897222"}},{"country":"lv","city":"Annasmuyzha","coordinates":{"lat":"56.9180556","long":"23.8030556"}},{"country":"lv","city":"Annasmuyzha","coordinates":{"lat":"57.2333333","long":"21.6"}},{"country":"lv","city":"Annas Pusmuiza","coordinates":{"lat":"56.3363889","long":"23.0777778"}},{"country":"lv","city":"Annenieki","coordinates":{"lat":"56.6722222","long":"23.0897222"}},{"country":"lv","city":"Anneniyeki","coordinates":{"lat":"56.6722222","long":"23.0897222"}},{"country":"lv","city":"Anni","coordinates":{"lat":"57.7","long":"26.1833333"}},{"country":"lv","city":"Anskina","coordinates":{"lat":"56.2833333","long":"26.6166667"}},{"country":"lv","city":"Anspaki","coordinates":{"lat":"56.2666667","long":"26.7666667"}},{"country":"lv","city":"Anspoki","coordinates":{"lat":"56.2666667","long":"26.7666667"}},{"country":"lv","city":"Antakole","coordinates":{"lat":"55.7833333","long":"26.45"}},{"country":"lv","city":"Antani","coordinates":{"lat":"57.1666667","long":"26.8833333"}},{"country":"lv","city":"Antani","coordinates":{"lat":"56.35","long":"26.9"}},{"country":"lv","city":"Antany","coordinates":{"lat":"57.1666667","long":"26.8833333"}},{"country":"lv","city":"Antinciems","coordinates":{"lat":"56.9769444","long":"23.4594444"}},{"country":"lv","city":"Antini","coordinates":{"lat":"57.0333333","long":"21.7166667"}},{"country":"lv","city":"Antini","coordinates":{"lat":"56.9769444","long":"23.4594444"}},{"country":"lv","city":"Antini","coordinates":{"lat":"57.0666667","long":"21.4333333"}},{"country":"lv","city":"Antintsiems","coordinates":{"lat":"56.9769444","long":"23.4594444"}},{"country":"lv","city":"Antin'tsiyem","coordinates":{"lat":"56.9769444","long":"23.4594444"}},{"country":"lv","city":"Antipava","coordinates":{"lat":"57.0333333","long":"27.7333333"}},{"country":"lv","city":"Antokoli","coordinates":{"lat":"55.7833333","long":"26.45"}},{"country":"lv","city":"Antoni","coordinates":{"lat":"56.35","long":"26.9"}},{"country":"lv","city":"Antoniski","coordinates":{"lat":"56.2833333","long":"26.95"}},{"country":"lv","city":"Antonopole","coordinates":{"lat":"56.35","long":"27.15"}},{"country":"lv","city":"Antony","coordinates":{"lat":"56.35","long":"26.9"}},{"country":"lv","city":"Antopole","coordinates":{"lat":"56.35","long":"27.15"}},{"country":"lv","city":"Antopols","coordinates":{"lat":"56.35","long":"27.15"}},{"country":"lv","city":"Antropova","coordinates":{"lat":"56.2833333","long":"27.5333333"}},{"country":"lv","city":"Antropovas","coordinates":{"lat":"56.2833333","long":"27.5333333"}},{"country":"lv","city":"Antsany","coordinates":{"lat":"56.8333333","long":"27.8166667"}},{"country":"lv","city":"Antse","coordinates":{"lat":"57.5166667","long":"22.0166667"}},{"country":"lv","city":"Antseni","coordinates":{"lat":"56.1","long":"25.9666667"}},{"country":"lv","city":"Antsverni","coordinates":{"lat":"56.1","long":"26.9666667"}},{"country":"lv","city":"Antuzhi","coordinates":{"lat":"56.6166667","long":"25.95"}},{"country":"lv","city":"Antuzi","coordinates":{"lat":"56.6166667","long":"25.95"}},{"country":"lv","city":"Antypava","coordinates":{"lat":"57.0333333","long":"27.7333333"}},{"country":"lv","city":"Antzinishni","coordinates":{"lat":"56.1","long":"25.9666667"}},{"country":"lv","city":"Anuzi","coordinates":{"lat":"57.4166667","long":"22.6"}},{"country":"lv","city":"Anzuli","coordinates":{"lat":"56.3333333","long":"26.7666667"}},{"country":"lv","city":"Apali","coordinates":{"lat":"56.0","long":"27.75"}},{"country":"lv","city":"Ape","coordinates":{"lat":"57.5333333","long":"26.6666667"}},{"country":"lv","city":"Apgulde","coordinates":{"lat":"56.5344444","long":"23.2391667"}},{"country":"lv","city":"Apin","coordinates":{"lat":"57.5","long":"25.25"}},{"country":"lv","city":"Apini","coordinates":{"lat":"57.5","long":"25.25"}},{"country":"lv","city":"Apogi","coordinates":{"lat":"56.9666667","long":"26.6833333"}},{"country":"lv","city":"Aponosi","coordinates":{"lat":"56.7666667","long":"27.6166667"}},{"country":"lv","city":"Apran","coordinates":{"lat":"57.1333333","long":"25.6666667"}},{"country":"lv","city":"Aprani","coordinates":{"lat":"57.1333333","long":"25.6666667"}},{"country":"lv","city":"Aprany","coordinates":{"lat":"57.1333333","long":"25.6666667"}},{"country":"lv","city":"Apriki","coordinates":{"lat":"56.8","long":"21.5"}},{"country":"lv","city":"Apriti","coordinates":{"lat":"56.8","long":"21.5"}},{"country":"lv","city":"Apsalas","coordinates":{"lat":"56.7166667","long":"26.4833333"}},{"country":"lv","city":"Apsenieki","coordinates":{"lat":"56.0666667","long":"27.1"}},{"country":"lv","city":"Apsenieki","coordinates":{"lat":"56.9833333","long":"22.0833333"}},{"country":"lv","city":"Apserde","coordinates":{"lat":"56.2","long":"25.6166667"}},{"country":"lv","city":"Apserdes","coordinates":{"lat":"56.2","long":"25.6166667"}},{"country":"lv","city":"Apserdi","coordinates":{"lat":"56.2","long":"25.6166667"}},{"country":"lv","city":"Apshenieki","coordinates":{"lat":"56.0666667","long":"27.1"}},{"country":"lv","city":"Apshutsiems","coordinates":{"lat":"57.0616667","long":"23.3055556"}},{"country":"lv","city":"Apshutsiyem","coordinates":{"lat":"57.0616667","long":"23.3055556"}},{"country":"lv","city":"Apshutsiyems","coordinates":{"lat":"57.0616667","long":"23.3055556"}},{"country":"lv","city":"Apsites","coordinates":{"lat":"56.6666667","long":"22.9666667"}},{"country":"lv","city":"Apskalni","coordinates":{"lat":"56.7166667","long":"26.3833333"}},{"country":"lv","city":"Apsuciems","coordinates":{"lat":"57.4833333","long":"22.7666667"}},{"country":"lv","city":"Apsuciems","coordinates":{"lat":"57.0616667","long":"23.3055556"}},{"country":"lv","city":"Apsukrogs","coordinates":{"lat":"56.8166667","long":"25.6166667"}},{"country":"lv","city":"Apukalns","coordinates":{"lat":"57.55","long":"26.9"}},{"country":"lv","city":"Apuze","coordinates":{"lat":"57.0333333","long":"21.8"}},{"country":"lv","city":"Araisi","coordinates":{"lat":"57.25","long":"25.2666667"}},{"country":"lv","city":"Araisu Macitaja Muiza","coordinates":{"lat":"57.25","long":"25.2666667"}},{"country":"lv","city":"Araji","coordinates":{"lat":"57.6833333","long":"25.2833333"}},{"country":"lv","city":"Arakste","coordinates":{"lat":"58.0166667","long":"25.3333333"}},{"country":"lv","city":"Araksti","coordinates":{"lat":"58.0166667","long":"25.3333333"}},{"country":"lv","city":"Arayshi","coordinates":{"lat":"57.25","long":"25.2666667"}},{"country":"lv","city":"Arciema Muiza","coordinates":{"lat":"57.6633333","long":"24.7788889"}},{"country":"lv","city":"Arciema Stacija","coordinates":{"lat":"57.6841667","long":"24.7955556"}},{"country":"lv","city":"Arciems","coordinates":{"lat":"57.6633333","long":"24.7788889"}},{"country":"lv","city":"Ardava","coordinates":{"lat":"56.15","long":"26.7833333"}},{"country":"lv","city":"Arendale","coordinates":{"lat":"56.15","long":"26.6"}},{"country":"lv","city":"Arendole","coordinates":{"lat":"56.15","long":"26.6"}},{"country":"lv","city":"Arhitekts","coordinates":{"lat":"57.1197222","long":"24.2319444"}},{"country":"lv","city":"Arini","coordinates":{"lat":"56.5363889","long":"23.9052778"}},{"country":"lv","city":"Arkamani","coordinates":{"lat":"57.2","long":"22.05"}},{"country":"lv","city":"Arkhitekts","coordinates":{"lat":"57.1197222","long":"24.2319444"}},{"country":"lv","city":"Arlava","coordinates":{"lat":"57.4","long":"22.6"}},{"country":"lv","city":"Armani","coordinates":{"lat":"56.1833333","long":"27.5666667"}},{"country":"lv","city":"Armani","coordinates":{"lat":"56.55","long":"28.0166667"}},{"country":"lv","city":"Armushki","coordinates":{"lat":"56.6","long":"26.85"}},{"country":"lv","city":"Armuski","coordinates":{"lat":"56.6","long":"26.85"}},{"country":"lv","city":"Arni","coordinates":{"lat":"56.8","long":"25.7333333"}},{"country":"lv","city":"Arni","coordinates":{"lat":"56.9088889","long":"23.7755556"}},{"country":"lv","city":"Arni","coordinates":{"lat":"57.8","long":"25.7333333"}},{"country":"lv","city":"Arniceni","coordinates":{"lat":"56.9333333","long":"26.15"}},{"country":"lv","city":"Arny","coordinates":{"lat":"56.8","long":"25.7333333"}},{"country":"lv","city":"Aroniesi","coordinates":{"lat":"56.6833333","long":"26.0"}},{"country":"lv","city":"Aronyeshi","coordinates":{"lat":"56.6833333","long":"26.0"}},{"country":"lv","city":"Artemovka","coordinates":{"lat":"56.1333333","long":"27.5333333"}},{"country":"lv","city":"Artjomovka","coordinates":{"lat":"56.1333333","long":"27.5333333"}},{"country":"lv","city":"Artsems","coordinates":{"lat":"57.6633333","long":"24.7788889"}},{"country":"lv","city":"Artsiyems","coordinates":{"lat":"57.6633333","long":"24.7788889"}},{"country":"lv","city":"(( Arupite ))","coordinates":{"lat":"57.0166667","long":"24.65"}},{"country":"lv","city":"Asaci","coordinates":{"lat":"56.5833333","long":"27.25"}},{"country":"lv","city":"Asani","coordinates":{"lat":"56.3666667","long":"27.6"}},{"country":"lv","city":"Asare","coordinates":{"lat":"56.1166667","long":"25.9"}},{"country":"lv","city":"Asari","coordinates":{"lat":"56.9572222","long":"23.6877778"}},{"country":"lv","city":"Ascuki","coordinates":{"lat":"56.1","long":"26.6666667"}},{"country":"lv","city":"Asinava","coordinates":{"lat":"56.6333333","long":"27.1333333"}},{"country":"lv","city":"Asinici","coordinates":{"lat":"56.5","long":"28.0833333"}},{"country":"lv","city":"Asite","coordinates":{"lat":"56.4666667","long":"21.6666667"}},{"country":"lv","city":"Aslupes","coordinates":{"lat":"57.0833333","long":"26.35"}},{"country":"lv","city":"Asninas","coordinates":{"lat":"56.6666667","long":"26.9166667"}},{"country":"lv","city":"Asninskija","coordinates":{"lat":"56.6666667","long":"26.9166667"}},{"country":"lv","city":"Assern","coordinates":{"lat":"56.9572222","long":"23.6877778"}},{"country":"lv","city":"Astasova","coordinates":{"lat":"56.1333333","long":"27.3666667"}},{"country":"lv","city":"Astere","coordinates":{"lat":"57.6144444","long":"24.7366667"}},{"country":"lv","city":"Asteres Muiza","coordinates":{"lat":"57.6144444","long":"24.7366667"}},{"country":"lv","city":"Asti","coordinates":{"lat":"57.2166667","long":"21.4666667"}},{"country":"lv","city":"Astici","coordinates":{"lat":"56.3","long":"27.5166667"}},{"country":"lv","city":"Asune","coordinates":{"lat":"56.0333333","long":"27.6166667"}},{"country":"lv","city":"Atashene","coordinates":{"lat":"56.5333333","long":"26.4"}},{"country":"lv","city":"Atashiene","coordinates":{"lat":"56.5333333","long":"26.4"}},{"country":"lv","city":"Atasiene","coordinates":{"lat":"56.5333333","long":"26.4"}},{"country":"lv","city":"Atasiene Muizas Centrs","coordinates":{"lat":"56.5333333","long":"26.4"}},{"country":"lv","city":"Atasienes Pusmuizas Centrs","coordinates":{"lat":"56.5333333","long":"26.4"}},{"country":"lv","city":"Ate","coordinates":{"lat":"57.3166667","long":"26.9333333"}},{"country":"lv","city":"Ate Muizas Centrs","coordinates":{"lat":"57.3166667","long":"26.9333333"}},{"country":"lv","city":"Atmatas","coordinates":{"lat":"56.7666667","long":"21.7833333"}},{"country":"lv","city":"Atmodas","coordinates":{"lat":"57.2730556","long":"24.77"}},{"country":"lv","city":"Atspuki","coordinates":{"lat":"56.6166667","long":"26.85"}},{"country":"lv","city":"Atzeli","coordinates":{"lat":"56.5833333","long":"21.6666667"}},{"country":"lv","city":"Auce","coordinates":{"lat":"56.4666667","long":"22.8833333"}},{"country":"lv","city":"Auces Muiza","coordinates":{"lat":"56.51","long":"23.3391667"}},{"country":"lv","city":"Auchi","coordinates":{"lat":"56.5936111","long":"23.9588889"}},{"country":"lv","city":"Auci","coordinates":{"lat":"56.5936111","long":"23.9588889"}},{"country":"lv","city":"Auciema Muiza","coordinates":{"lat":"57.3333333","long":"25.1333333"}},{"country":"lv","city":"Auciems","coordinates":{"lat":"57.3333333","long":"25.1333333"}},{"country":"lv","city":"Aucugals","coordinates":{"lat":"56.4666667","long":"21.0166667"}},{"country":"lv","city":"Aucupis","coordinates":{"lat":"57.8666667","long":"25.7666667"}},{"country":"lv","city":"Audara","coordinates":{"lat":"56.4833333","long":"21.6666667"}},{"country":"lv","city":"Audare","coordinates":{"lat":"56.4833333","long":"21.6666667"}},{"country":"lv","city":"Audari","coordinates":{"lat":"56.4833333","long":"21.6666667"}},{"country":"lv","city":"Audera","coordinates":{"lat":"56.4833333","long":"21.6666667"}},{"country":"lv","city":"Auderi","coordinates":{"lat":"56.4833333","long":"21.6666667"}},{"country":"lv","city":"Audini","coordinates":{"lat":"56.15","long":"27.4166667"}},{"country":"lv","city":"Audrini","coordinates":{"lat":"56.5833333","long":"27.25"}},{"country":"lv","city":"Audrupe","coordinates":{"lat":"56.4833333","long":"23.7666667"}},{"country":"lv","city":"(( Audruve ))","coordinates":{"lat":"56.4833333","long":"23.7666667"}},{"country":"lv","city":"Audruves","coordinates":{"lat":"56.4833333","long":"23.7666667"}},{"country":"lv","city":"Audruves Muiza","coordinates":{"lat":"56.4833333","long":"23.7666667"}},{"country":"lv","city":"Audze","coordinates":{"lat":"56.5522222","long":"23.4175"}},{"country":"lv","city":"Audzi","coordinates":{"lat":"56.5522222","long":"23.4175"}},{"country":"lv","city":"Audzini","coordinates":{"lat":"56.5522222","long":"23.4175"}},{"country":"lv","city":"Audzu","coordinates":{"lat":"56.5522222","long":"23.4175"}},{"country":"lv","city":"Audzu Muiza","coordinates":{"lat":"56.5522222","long":"23.4175"}},{"country":"lv","city":"Augsmukti","coordinates":{"lat":"56.2666667","long":"26.3833333"}},{"country":"lv","city":"Augs-Podrags","coordinates":{"lat":"56.9747222","long":"24.0802778"}},{"country":"lv","city":"Augstari","coordinates":{"lat":"56.8666667","long":"27.0833333"}},{"country":"lv","city":"Augstasila","coordinates":{"lat":"57.0166667","long":"27.5833333"}},{"country":"lv","city":"Augstasils","coordinates":{"lat":"57.0166667","long":"27.5833333"}},{"country":"lv","city":"Augstkalne","coordinates":{"lat":"56.405","long":"23.3402778"}},{"country":"lv","city":"Augstkalni","coordinates":{"lat":"57.2","long":"26.1166667"}},{"country":"lv","city":"Augstkalniesi","coordinates":{"lat":"57.2","long":"26.1166667"}},{"country":"lv","city":"Augstkalnyeshi","coordinates":{"lat":"57.2","long":"26.1166667"}},{"country":"lv","city":"Augstroze","coordinates":{"lat":"57.5","long":"25.0"}},{"country":"lv","city":"Augstrozes Muiza","coordinates":{"lat":"57.5","long":"25.0"}},{"country":"lv","city":"Augstsils","coordinates":{"lat":"57.0166667","long":"27.5833333"}},{"country":"lv","city":"Augstup'i","coordinates":{"lat":"56.7333333","long":"22.1166667"}},{"country":"lv","city":"Augstupji","coordinates":{"lat":"56.7333333","long":"22.1166667"}},{"country":"lv","city":"Auguliena","coordinates":{"lat":"57.2666667","long":"26.6833333"}},{"country":"lv","city":"Auguste","coordinates":{"lat":"56.4166667","long":"21.7666667"}},{"country":"lv","city":"Augusti","coordinates":{"lat":"56.4166667","long":"21.7666667"}},{"country":"lv","city":"Augustova","coordinates":{"lat":"56.4333333","long":"26.6"}},{"country":"lv","city":"Augustroze","coordinates":{"lat":"57.5","long":"25.0"}},{"country":"lv","city":"Aujiena","coordinates":{"lat":"57.9","long":"25.3166667"}},{"country":"lv","city":"Auksteni","coordinates":{"lat":"55.9833333","long":"26.4666667"}},{"country":"lv","city":"Aukstinskaja","coordinates":{"lat":"55.9833333","long":"26.4666667"}},{"country":"lv","city":"Aukstraupe","coordinates":{"lat":"56.1833333","long":"25.6833333"}},{"country":"lv","city":"Auleja","coordinates":{"lat":"56.05","long":"27.2833333"}},{"country":"lv","city":"Auleya","coordinates":{"lat":"56.05","long":"27.2833333"}},{"country":"lv","city":"Aulija","coordinates":{"lat":"56.05","long":"27.2833333"}},{"country":"lv","city":"Auliya","coordinates":{"lat":"56.05","long":"27.2833333"}},{"country":"lv","city":"Aulukalna Muiza","coordinates":{"lat":"57.2333333","long":"25.7833333"}},{"country":"lv","city":"Aulukalni","coordinates":{"lat":"57.2333333","long":"25.7833333"}},{"country":"lv","city":"Aulukalns","coordinates":{"lat":"57.2333333","long":"25.7833333"}},{"country":"lv","city":"Aulukalns Muizas Centrs","coordinates":{"lat":"57.2333333","long":"25.7833333"}},{"country":"lv","city":"Aumeistera","coordinates":{"lat":"57.5166667","long":"26.2"}},{"country":"lv","city":"Aumeistera Muiza","coordinates":{"lat":"57.5166667","long":"26.2"}},{"country":"lv","city":"Aumeisteri","coordinates":{"lat":"57.5166667","long":"26.2"}},{"country":"lv","city":"Aumeisteris","coordinates":{"lat":"57.5166667","long":"26.2"}},{"country":"lv","city":"Auni","coordinates":{"lat":"56.8833333","long":"22.3666667"}},{"country":"lv","city":"Aunini","coordinates":{"lat":"57.1333333","long":"25.25"}},{"country":"lv","city":"Aunini","coordinates":{"lat":"56.6166667","long":"22.9"}},{"country":"lv","city":"Aunini","coordinates":{"lat":"56.5666667","long":"22.2"}},{"country":"lv","city":"Auny","coordinates":{"lat":"56.8833333","long":"22.3666667"}},{"country":"lv","city":"Aurava","coordinates":{"lat":"57.2166667","long":"27.1166667"}},{"country":"lv","city":"Auri","coordinates":{"lat":"56.5641667","long":"23.2933333"}},{"country":"lv","city":"Auri Gut","coordinates":{"lat":"56.5641667","long":"23.2933333"}},{"country":"lv","city":"Auru","coordinates":{"lat":"56.5641667","long":"23.2933333"}},{"country":"lv","city":"Auru Muiza","coordinates":{"lat":"56.5641667","long":"23.2933333"}},{"country":"lv","city":"Ausatas","coordinates":{"lat":"56.6505556","long":"23.1461111"}},{"country":"lv","city":"Ausati","coordinates":{"lat":"56.6505556","long":"23.1461111"}},{"country":"lv","city":"Ausatu","coordinates":{"lat":"56.6505556","long":"23.1461111"}},{"country":"lv","city":"Ausatu Muiza","coordinates":{"lat":"56.6505556","long":"23.1461111"}},{"country":"lv","city":"Ausekli","coordinates":{"lat":"56.55","long":"21.9166667"}},{"country":"lv","city":"Ausgaleni","coordinates":{"lat":"55.9666667","long":"26.4333333"}},{"country":"lv","city":"Aushkinyeki","coordinates":{"lat":"57.0166667","long":"27.3333333"}},{"country":"lv","city":"Auskinieki","coordinates":{"lat":"57.0166667","long":"27.3333333"}},{"country":"lv","city":"Ausmas","coordinates":{"lat":"57.4216667","long":"24.6983333"}},{"country":"lv","city":"Ausmas","coordinates":{"lat":"57.0269444","long":"24.8213889"}},{"country":"lv","city":"Aususala","coordinates":{"lat":"56.95","long":"27.5"}},{"country":"lv","city":"Autse","coordinates":{"lat":"56.4666667","long":"22.8833333"}},{"country":"lv","city":"Autsugals","coordinates":{"lat":"56.4666667","long":"21.0166667"}},{"country":"lv","city":"Autz","coordinates":{"lat":"56.4666667","long":"22.8833333"}},{"country":"lv","city":"Auzas","coordinates":{"lat":"56.9666667","long":"25.1"}},{"country":"lv","city":"Auzgulani","coordinates":{"lat":"55.9666667","long":"26.4333333"}},{"country":"lv","city":"Auzguleni","coordinates":{"lat":"55.9666667","long":"26.4333333"}},{"country":"lv","city":"Auzhgulyany","coordinates":{"lat":"55.9666667","long":"26.4333333"}},{"country":"lv","city":"Auzi","coordinates":{"lat":"56.3333333","long":"21.0"}},{"country":"lv","city":"Auzini","coordinates":{"lat":"56.4666667","long":"27.6"}},{"country":"lv","city":"Auzini","coordinates":{"lat":"57.3333333","long":"21.6"}},{"country":"lv","city":"Auzukrogs","coordinates":{"lat":"56.9666667","long":"25.1"}},{"country":"lv","city":"Avangards","coordinates":{"lat":"56.4052778","long":"23.75"}},{"country":"lv","city":"Avisi","coordinates":{"lat":"56.65","long":"27.7833333"}},{"country":"lv","city":"(( Avoti ))","coordinates":{"lat":"56.9666667","long":"23.8333333"}},{"country":"lv","city":"Avotini","coordinates":{"lat":"56.6727778","long":"23.5519444"}},{"country":"lv","city":"Avotkalni","coordinates":{"lat":"57.7161111","long":"24.4469444"}},{"country":"lv","city":"Avoty","coordinates":{"lat":"56.9666667","long":"23.8333333"}},{"country":"lv","city":"Aynazhi","coordinates":{"lat":"57.8636111","long":"24.3577778"}},{"country":"lv","city":"Ayzhpuri","coordinates":{"lat":"55.9666667","long":"27.1666667"}},{"country":"lv","city":"Ayzkalne","coordinates":{"lat":"56.2","long":"26.7833333"}},{"country":"lv","city":"Ayzkalnyshi","coordinates":{"lat":"56.2","long":"26.7833333"}},{"country":"lv","city":"Ayzklaany","coordinates":{"lat":"57.6666667","long":"22.5666667"}},{"country":"lv","city":"Ayzkraukle","coordinates":{"lat":"56.6","long":"25.1833333"}},{"country":"lv","city":"Ayzpurve","coordinates":{"lat":"57.1166667","long":"27.65"}},{"country":"lv","city":"Ayzpute","coordinates":{"lat":"56.7166667","long":"21.6"}},{"country":"lv","city":"Ayzstrautniyeki","coordinates":{"lat":"56.6888889","long":"23.21"}},{"country":"lv","city":"Ayzupe","coordinates":{"lat":"56.9166667","long":"22.6"}},{"country":"lv","city":"Ayzupiyeshi","coordinates":{"lat":"57.2486111","long":"23.0266667"}},{"country":"lv","city":"Ayzviki","coordinates":{"lat":"56.3333333","long":"21.7333333"}},{"country":"lv","city":"Azi","coordinates":{"lat":"57.15","long":"26.4666667"}},{"country":"lv","city":"Azi","coordinates":{"lat":"57.5666667","long":"22.35"}},{"country":"lv","city":"Azu","coordinates":{"lat":"57.15","long":"26.4666667"}},{"country":"lv","city":"Azu Ciems","coordinates":{"lat":"57.5666667","long":"22.35"}},{"country":"lv","city":"Azu Dzirnavas","coordinates":{"lat":"57.15","long":"26.4666667"}},{"country":"lv","city":"Azu Muiza","coordinates":{"lat":"57.5666667","long":"22.35"}},{"country":"lv","city":"Babecka","coordinates":{"lat":"57.4","long":"27.2"}},{"country":"lv","city":"Baberbeki","coordinates":{"lat":"56.9436111","long":"23.9555556"}},{"country":"lv","city":"Babetska","coordinates":{"lat":"57.4","long":"27.2"}},{"country":"lv","city":"Babite","coordinates":{"lat":"56.9583333","long":"23.9508333"}},{"country":"lv","city":"Babitskiy","coordinates":{"lat":"56.9583333","long":"23.9508333"}},{"country":"lv","city":"Babri","coordinates":{"lat":"56.35","long":"26.35"}},{"country":"lv","city":"Babri","coordinates":{"lat":"56.65","long":"27.3166667"}},{"country":"lv","city":"Baci","coordinates":{"lat":"57.5666667","long":"25.9666667"}},{"country":"lv","city":"Badnava","coordinates":{"lat":"57.2166667","long":"27.8166667"}},{"country":"lv","city":"Badnova","coordinates":{"lat":"57.2166667","long":"27.8166667"}},{"country":"lv","city":"Baga-Asite","coordinates":{"lat":"56.4666667","long":"21.6666667"}},{"country":"lv","city":"Bagu","coordinates":{"lat":"56.5333333","long":"25.35"}},{"country":"lv","city":"Bahareva","coordinates":{"lat":"57.0833333","long":"27.7333333"}},{"country":"lv","city":"Baizkalna Muiza","coordinates":{"lat":"57.3333333","long":"25.5666667"}},{"country":"lv","city":"Baizkalns","coordinates":{"lat":"57.3333333","long":"25.5666667"}},{"country":"lv","city":"Bajari","coordinates":{"lat":"56.6166667","long":"25.3833333"}},{"country":"lv","city":"Bajari","coordinates":{"lat":"56.4408333","long":"23.8180556"}},{"country":"lv","city":"Bajari","coordinates":{"lat":"56.3","long":"25.7333333"}},{"country":"lv","city":"Bajari","coordinates":{"lat":"56.8652778","long":"24.4266667"}},{"country":"lv","city":"Bajerini","coordinates":{"lat":"57.6166667","long":"26.0666667"}},{"country":"lv","city":"Bakuli","coordinates":{"lat":"56.6147222","long":"23.4538889"}},{"country":"lv","city":"Bakuzhi","coordinates":{"lat":"56.4833333","long":"21.9"}},{"country":"lv","city":"Bakuzi","coordinates":{"lat":"56.4833333","long":"21.9"}},{"country":"lv","city":"Balabisi","coordinates":{"lat":"56.4833333","long":"27.0666667"}},{"country":"lv","city":"Balabiski","coordinates":{"lat":"56.4833333","long":"27.0666667"}},{"country":"lv","city":"Balani","coordinates":{"lat":"56.35","long":"27.3833333"}},{"country":"lv","city":"Balbieri","coordinates":{"lat":"56.6666667","long":"25.4833333"}},{"country":"lv","city":"Balbishi","coordinates":{"lat":"56.4833333","long":"27.0666667"}},{"country":"lv","city":"Balda","coordinates":{"lat":"56.2833333","long":"27.2166667"}},{"country":"lv","city":"Baldone","coordinates":{"lat":"56.7069444","long":"24.3519444"}},{"country":"lv","city":"Baldones","coordinates":{"lat":"56.9833333","long":"27.0333333"}},{"country":"lv","city":"Baldones Muiza","coordinates":{"lat":"56.7069444","long":"24.3519444"}},{"country":"lv","city":"Baldonieki","coordinates":{"lat":"56.7166667","long":"21.1333333"}},{"country":"lv","city":"Baldoniyeki","coordinates":{"lat":"56.7166667","long":"21.1333333"}},{"country":"lv","city":"Balduri","coordinates":{"lat":"57.0333333","long":"24.05"}},{"country":"lv","city":"Balgale","coordinates":{"lat":"57.1666667","long":"22.9"}},{"country":"lv","city":"Balgali","coordinates":{"lat":"56.5833333","long":"25.9833333"}},{"country":"lv","city":"Balgaln","coordinates":{"lat":"56.5833333","long":"25.9833333"}},{"country":"lv","city":"Balgalvji","coordinates":{"lat":"56.5833333","long":"25.9833333"}},{"country":"lv","city":"Balinava","coordinates":{"lat":"56.4","long":"27.45"}},{"country":"lv","city":"Balini","coordinates":{"lat":"57.0333333","long":"21.6666667"}},{"country":"lv","city":"Balini","coordinates":{"lat":"57.7833333","long":"25.65"}},{"country":"lv","city":"(( Balkas ))","coordinates":{"lat":"56.7541667","long":"24.2458333"}},{"country":"lv","city":"Balkitis","coordinates":{"lat":"57.4666667","long":"25.5833333"}},{"country":"lv","city":"Balobyshi","coordinates":{"lat":"56.4833333","long":"27.0666667"}},{"country":"lv","city":"Baloza","coordinates":{"lat":"56.9333333","long":"26.6333333"}},{"country":"lv","city":"Baloza Pusmuiza","coordinates":{"lat":"56.9333333","long":"26.6333333"}},{"country":"lv","city":"Baloz","coordinates":{"lat":"56.9980556","long":"24.2694444"}},{"country":"lv","city":"Balozhi","coordinates":{"lat":"56.9333333","long":"26.6333333"}},{"country":"lv","city":"Balozhi","coordinates":{"lat":"56.8477778","long":"24.0438889"}},{"country":"lv","city":"Balozi","coordinates":{"lat":"57.1833333","long":"25.3666667"}},{"country":"lv","city":"Balozi","coordinates":{"lat":"56.05","long":"26.3333333"}},{"country":"lv","city":"Balozi","coordinates":{"lat":"56.9333333","long":"26.6333333"}},{"country":"lv","city":"Balozi","coordinates":{"lat":"56.9980556","long":"24.2694444"}},{"country":"lv","city":"Balozi","coordinates":{"lat":"56.8477778","long":"24.0438889"}},{"country":"lv","city":"Balozi","coordinates":{"lat":"56.6","long":"22.2833333"}},{"country":"lv","city":"Balozi","coordinates":{"lat":"57.75","long":"25.4166667"}},{"country":"lv","city":"Balozi","coordinates":{"lat":"57.1166667","long":"21.4166667"}},{"country":"lv","city":"Balozkrogs","coordinates":{"lat":"56.9980556","long":"24.2694444"}},{"country":"lv","city":"Balseri","coordinates":{"lat":"57.0175","long":"24.3094444"}},{"country":"lv","city":"Baltaci","coordinates":{"lat":"56.0833333","long":"26.5333333"}},{"country":"lv","city":"Balta Dukstigala","coordinates":{"lat":"56.3666667","long":"27.4333333"}},{"country":"lv","city":"Baltais Dukstgals","coordinates":{"lat":"56.3666667","long":"27.4333333"}},{"country":"lv","city":"Baltaiskrogs","coordinates":{"lat":"56.4666667","long":"22.2166667"}},{"country":"lv","city":"Baltaiskrogs","coordinates":{"lat":"57.7833333","long":"25.15"}},{"country":"lv","city":"Baltayki","coordinates":{"lat":"56.7","long":"21.8"}},{"country":"lv","city":"Baltayskrogs","coordinates":{"lat":"56.4666667","long":"22.2166667"}},{"country":"lv","city":"Balten","coordinates":{"lat":"56.9166667","long":"26.2666667"}},{"country":"lv","city":"Balteni","coordinates":{"lat":"56.3666667","long":"27.5166667"}},{"country":"lv","city":"Baltezers","coordinates":{"lat":"57.0175","long":"24.3094444"}},{"country":"lv","city":"Baltgalvji","coordinates":{"lat":"57.0833333","long":"25.65"}},{"country":"lv","city":"Baltgalvji","coordinates":{"lat":"56.5833333","long":"25.9833333"}},{"country":"lv","city":"Baltimuiza","coordinates":{"lat":"56.05","long":"25.9"}},{"country":"lv","city":"Baltinava","coordinates":{"lat":"56.95","long":"27.65"}},{"country":"lv","city":"Baltini","coordinates":{"lat":"56.9166667","long":"26.2666667"}},{"country":"lv","city":"Baltini","coordinates":{"lat":"56.6333333","long":"27.0166667"}},{"country":"lv","city":"Baltinova","coordinates":{"lat":"56.95","long":"27.65"}},{"country":"lv","city":"Baltmuiza","coordinates":{"lat":"56.05","long":"25.9"}},{"country":"lv","city":"Balucki","coordinates":{"lat":"56.3666667","long":"27.1333333"}},{"country":"lv","city":"Balvi","coordinates":{"lat":"57.1333333","long":"27.25"}},{"country":"lv","city":"Balvy","coordinates":{"lat":"57.1333333","long":"27.25"}},{"country":"lv","city":"Balyni","coordinates":{"lat":"57.7833333","long":"25.65"}},{"country":"lv","city":"Bambi","coordinates":{"lat":"57.0127778","long":"24.6230556"}},{"country":"lv","city":"Banazi","coordinates":{"lat":"56.3833333","long":"21.1"}},{"country":"lv","city":"Bandenieki","coordinates":{"lat":"56.3675","long":"23.4925"}},{"country":"lv","city":"Banuzi","coordinates":{"lat":"57.15","long":"25.5833333"}},{"country":"lv","city":"Banuzu Muiza","coordinates":{"lat":"57.15","long":"25.5833333"}},{"country":"lv","city":"Barakani","coordinates":{"lat":"56.35","long":"26.15"}},{"country":"lv","city":"Barauka","coordinates":{"lat":"55.75","long":"26.7833333"}},{"country":"lv","city":"Baravaja","coordinates":{"lat":"56.35","long":"27.1666667"}},{"country":"lv","city":"Baravaya","coordinates":{"lat":"56.35","long":"27.1666667"}},{"country":"lv","city":"Baraviki","coordinates":{"lat":"56.6","long":"25.8833333"}},{"country":"lv","city":"Barbali","coordinates":{"lat":"56.6166667","long":"26.4333333"}},{"country":"lv","city":"Barbele","coordinates":{"lat":"56.4502778","long":"24.5983333"}},{"country":"lv","city":"Barbeles Macitaja Muiza","coordinates":{"lat":"56.4502778","long":"24.5983333"}},{"country":"lv","city":"Barbuli-Tropi","coordinates":{"lat":"56.6666667","long":"26.5333333"}},{"country":"lv","city":"Bardas","coordinates":{"lat":"57.5666667","long":"26.95"}},{"country":"lv","city":"Bardaskrogs","coordinates":{"lat":"57.5666667","long":"26.95"}},{"country":"lv","city":"Bardzhuni","coordinates":{"lat":"56.2952778","long":"24.5675"}},{"country":"lv","city":"Bardzoni","coordinates":{"lat":"56.2952778","long":"24.5675"}},{"country":"lv","city":"Bardzuni","coordinates":{"lat":"56.2952778","long":"24.5675"}},{"country":"lv","city":"Barguly","coordinates":{"lat":"56.6","long":"27.9833333"}},{"country":"lv","city":"Barisi","coordinates":{"lat":"56.6333333","long":"25.0833333"}},{"country":"lv","city":"Barisi","coordinates":{"lat":"56.9333333","long":"25.7166667"}},{"country":"lv","city":"Barisi","coordinates":{"lat":"57.5333333","long":"25.75"}},{"country":"lv","city":"Barisova","coordinates":{"lat":"57.2166667","long":"27.7333333"}},{"country":"lv","city":"Bariss","coordinates":{"lat":"57.5333333","long":"25.75"}},{"country":"lv","city":"Barkani","coordinates":{"lat":"56.8333333","long":"27.7166667"}},{"country":"lv","city":"Barkava","coordinates":{"lat":"56.7166667","long":"26.6"}},{"country":"lv","city":"Barovka","coordinates":{"lat":"56.5","long":"26.4833333"}},{"country":"lv","city":"Barta","coordinates":{"lat":"56.35","long":"21.3166667"}},{"country":"lv","city":"Bartas Muiza","coordinates":{"lat":"56.35","long":"21.3166667"}},{"country":"lv","city":"Bartnieki","coordinates":{"lat":"56.65","long":"27.9166667"}},{"country":"lv","city":"Bartuli","coordinates":{"lat":"56.6","long":"27.9833333"}},{"country":"lv","city":"Base","coordinates":{"lat":"56.8833333","long":"21.6833333"}},{"country":"lv","city":"Basi","coordinates":{"lat":"57.1333333","long":"26.0166667"}},{"country":"lv","city":"Basi","coordinates":{"lat":"56.8833333","long":"21.6833333"}},{"country":"lv","city":"Baski","coordinates":{"lat":"56.2","long":"26.85"}},{"country":"lv","city":"Bata","coordinates":{"lat":"56.4333333","long":"21.8833333"}},{"country":"lv","city":"Batari","coordinates":{"lat":"56.4833333","long":"27.6"}},{"country":"lv","city":"Batsari","coordinates":{"lat":"56.4833333","long":"27.6"}},{"country":"lv","city":"Baumani","coordinates":{"lat":"57.0333333","long":"22.4166667"}},{"country":"lv","city":"Bauni","coordinates":{"lat":"56.9","long":"22.0833333"}},{"country":"lv","city":"Bauni","coordinates":{"lat":"57.75","long":"25.1833333"}},{"country":"lv","city":"Baunu Muiza","coordinates":{"lat":"57.75","long":"25.1833333"}},{"country":"lv","city":"Bauri","coordinates":{"lat":"56.5833333","long":"26.0"}},{"country":"lv","city":"Bauska","coordinates":{"lat":"56.4075","long":"24.1905556"}},{"country":"lv","city":"Bauske","coordinates":{"lat":"56.4075","long":"24.1905556"}},{"country":"lv","city":"Bauzas","coordinates":{"lat":"56.6","long":"22.05"}},{"country":"lv","city":"Bayari","coordinates":{"lat":"56.4275","long":"24.2963889"}},{"country":"lv","city":"Bayary","coordinates":{"lat":"56.4408333","long":"23.8180556"}},{"country":"lv","city":"Bayary","coordinates":{"lat":"56.8652778","long":"24.4266667"}},{"country":"lv","city":"Bazciems","coordinates":{"lat":"56.9366667","long":"23.6058333"}},{"country":"lv","city":"Bazhtsiyems","coordinates":{"lat":"56.9366667","long":"23.6058333"}},{"country":"lv","city":"Bazniekrogs","coordinates":{"lat":"57.5","long":"25.0"}},{"country":"lv","city":"Bazniikrogs","coordinates":{"lat":"57.5","long":"25.0"}},{"country":"lv","city":"Baznitskrogs","coordinates":{"lat":"57.5","long":"25.0"}},{"country":"lv","city":"(( Bazunes ))","coordinates":{"lat":"56.75","long":"23.95"}},{"country":"lv","city":"Bebe","coordinates":{"lat":"56.6666667","long":"21.2333333"}},{"country":"lv","city":"Beberbeki","coordinates":{"lat":"56.9436111","long":"23.9555556"}},{"country":"lv","city":"Bebrene","coordinates":{"lat":"56.0666667","long":"26.1166667"}},{"country":"lv","city":"Bebrenes Muiza","coordinates":{"lat":"56.0666667","long":"26.1166667"}},{"country":"lv","city":"Bebri","coordinates":{"lat":"56.7333333","long":"25.5"}},{"country":"lv","city":"Bebri","coordinates":{"lat":"56.2333333","long":"27.2"}},{"country":"lv","city":"Beceri","coordinates":{"lat":"56.3833333","long":"27.65"}},{"country":"lv","city":"Bechery","coordinates":{"lat":"56.3833333","long":"27.65"}},{"country":"lv","city":"Bedres","coordinates":{"lat":"56.7666667","long":"22.9833333"}},{"country":"lv","city":"Beika","coordinates":{"lat":"57.5333333","long":"25.0666667"}},{"country":"lv","city":"Beites","coordinates":{"lat":"57.1377778","long":"24.8397222"}},{"country":"lv","city":"Beja","coordinates":{"lat":"57.4","long":"27.2333333"}},{"country":"lv","city":"Beki","coordinates":{"lat":"56.15","long":"26.9333333"}},{"country":"lv","city":"Beki","coordinates":{"lat":"56.4833333","long":"21.9833333"}},{"country":"lv","city":"Bekshi","coordinates":{"lat":"56.4166667","long":"27.2333333"}},{"country":"lv","city":"Beksi","coordinates":{"lat":"56.4166667","long":"27.2333333"}},{"country":"lv","city":"Bekukrogs","coordinates":{"lat":"56.6644444","long":"24.3463889"}},{"country":"lv","city":"Belagrudava","coordinates":{"lat":"56.0333333","long":"27.0666667"}},{"country":"lv","city":"Belajeva","coordinates":{"lat":"56.25","long":"28.1166667"}},{"country":"lv","city":"Belauski","coordinates":{"lat":"56.85","long":"27.1166667"}},{"country":"lv","city":"Belava","coordinates":{"lat":"57.2833333","long":"26.7833333"}},{"country":"lv","city":"Belava","coordinates":{"lat":"56.6333333","long":"26.2166667"}},{"country":"lv","city":"Belavas Kalns","coordinates":{"lat":"57.2833333","long":"26.8"}},{"country":"lv","city":"Belavas Muiza","coordinates":{"lat":"56.6333333","long":"26.2166667"}},{"country":"lv","city":"Beles","coordinates":{"lat":"57.2333333","long":"21.4833333"}},{"country":"lv","city":"Belevo","coordinates":{"lat":"56.6","long":"27.7"}},{"country":"lv","city":"Belina","coordinates":{"lat":"56.9833333","long":"27.5833333"}},{"country":"lv","city":"Belobabina","coordinates":{"lat":"56.4","long":"26.95"}},{"country":"lv","city":"Belogrudeva","coordinates":{"lat":"56.0333333","long":"27.0666667"}},{"country":"lv","city":"Belogrudova","coordinates":{"lat":"56.0333333","long":"27.0666667"}},{"country":"lv","city":"Belomokki","coordinates":{"lat":"56.4333333","long":"27.7166667"}},{"country":"lv","city":"Belyayevo","coordinates":{"lat":"56.25","long":"28.1166667"}},{"country":"lv","city":"Benas","coordinates":{"lat":"57.0333333","long":"21.4"}},{"country":"lv","city":"Bene","coordinates":{"lat":"56.4588889","long":"23.0644444"}},{"country":"lv","city":"Benes Muiza","coordinates":{"lat":"56.4833333","long":"23.0633333"}},{"country":"lv","city":"Benkava","coordinates":{"lat":"56.4166667","long":"22.8"}},{"country":"lv","city":"Benuzhi","coordinates":{"lat":"56.8961111","long":"23.7177778"}},{"country":"lv","city":"Benuzi","coordinates":{"lat":"56.8961111","long":"23.7177778"}},{"country":"lv","city":"Berenati","coordinates":{"lat":"56.3833333","long":"20.9833333"}},{"country":"lv","city":"Berezauka","coordinates":{"lat":"55.9666667","long":"27.0833333"}},{"country":"lv","city":"Berezki","coordinates":{"lat":"55.8166667","long":"27.45"}},{"country":"lv","city":"Berezniki","coordinates":{"lat":"56.3166667","long":"27.4"}},{"country":"lv","city":"Berezovka","coordinates":{"lat":"55.9666667","long":"27.0833333"}},{"country":"lv","city":"Berezovka","coordinates":{"lat":"56.6166667","long":"27.9166667"}},{"country":"lv","city":"Bergi","coordinates":{"lat":"56.9863889","long":"24.2991667"}},{"country":"lv","city":"Berjozki","coordinates":{"lat":"55.8166667","long":"27.45"}},{"country":"lv","city":"Berkene","coordinates":{"lat":"56.4341667","long":"23.4797222"}},{"country":"lv","city":"Bernadskaja","coordinates":{"lat":"55.9833333","long":"27.0166667"}},{"country":"lv","city":"Bernadskaya","coordinates":{"lat":"55.9833333","long":"27.0166667"}},{"country":"lv","city":"Bernani","coordinates":{"lat":"56.4666667","long":"26.5833333"}},{"country":"lv","city":"Bernani","coordinates":{"lat":"56.6833333","long":"26.95"}},{"country":"lv","city":"Bernany","coordinates":{"lat":"56.6833333","long":"26.95"}},{"country":"lv","city":"Bernate","coordinates":{"lat":"56.3833333","long":"20.9833333"}},{"country":"lv","city":"Bernaten","coordinates":{"lat":"56.3833333","long":"20.9833333"}},{"country":"lv","city":"Bernati","coordinates":{"lat":"56.3833333","long":"20.9833333"}},{"country":"lv","city":"Berozki","coordinates":{"lat":"55.8166667","long":"27.45"}},{"country":"lv","city":"Bersmuiza","coordinates":{"lat":"56.6872222","long":"23.4402778"}},{"country":"lv","city":"Bersmuyzha","coordinates":{"lat":"56.6872222","long":"23.4402778"}},{"country":"lv","city":"Berstele","coordinates":{"lat":"56.4375","long":"23.9197222"}},{"country":"lv","city":"Bertmeji","coordinates":{"lat":"57.4333333","long":"22.4"}},{"country":"lv","city":"Bertmeju Ciems","coordinates":{"lat":"57.4333333","long":"22.4"}},{"country":"lv","city":"Bertulaisi","coordinates":{"lat":"56.4277778","long":"23.2055556"}},{"country":"lv","city":"Bertulaisi","coordinates":{"lat":"56.4333333","long":"22.7"}},{"country":"lv","city":"Bertulayshi","coordinates":{"lat":"56.4277778","long":"23.2055556"}},{"country":"lv","city":"Bertulayshi","coordinates":{"lat":"56.4333333","long":"22.7"}},{"country":"lv","city":"Bervircava","coordinates":{"lat":"56.4052778","long":"23.75"}},{"country":"lv","city":"Bervircavas Muiza","coordinates":{"lat":"56.4052778","long":"23.75"}},{"country":"lv","city":"Bervirtsava","coordinates":{"lat":"56.4052778","long":"23.75"}},{"country":"lv","city":"Berzaine","coordinates":{"lat":"57.5833333","long":"25.2166667"}},{"country":"lv","city":"Berzaini","coordinates":{"lat":"56.4336111","long":"23.2208333"}},{"country":"lv","city":"(( Berzalne ))","coordinates":{"lat":"56.6333333","long":"23.4"}},{"country":"lv","city":"Berzauka","coordinates":{"lat":"56.7666667","long":"27.85"}},{"country":"lv","city":"Berzaune","coordinates":{"lat":"56.8","long":"26.0333333"}},{"country":"lv","city":"Berzaunes Muiza","coordinates":{"lat":"56.8","long":"26.0333333"}},{"country":"lv","city":"Berzayni","coordinates":{"lat":"56.4336111","long":"23.2208333"}},{"country":"lv","city":"Berzbeke","coordinates":{"lat":"56.6666667","long":"23.2336111"}},{"country":"lv","city":"Berzciems","coordinates":{"lat":"56.8825","long":"23.9363889"}},{"country":"lv","city":"Berzciems","coordinates":{"lat":"57.2463889","long":"23.1736111"}},{"country":"lv","city":"Berze","coordinates":{"lat":"56.6872222","long":"23.4402778"}},{"country":"lv","city":"Berzeskrogs","coordinates":{"lat":"57.2833333","long":"25.5"}},{"country":"lv","city":"Berzgale","coordinates":{"lat":"56.5025","long":"23.2147222"}},{"country":"lv","city":"Berzgale","coordinates":{"lat":"56.6333333","long":"27.5"}},{"country":"lv","city":"Berzgali","coordinates":{"lat":"56.5025","long":"23.2147222"}},{"country":"lv","city":"Berzi","coordinates":{"lat":"56.3455556","long":"24.1061111"}},{"country":"lv","city":"Berzi","coordinates":{"lat":"56.95","long":"25.2166667"}},{"country":"lv","city":"Berzi","coordinates":{"lat":"57.0166667","long":"22.15"}},{"country":"lv","city":"Berzini","coordinates":{"lat":"55.8166667","long":"27.45"}},{"country":"lv","city":"Berzini","coordinates":{"lat":"56.4336111","long":"23.2208333"}},{"country":"lv","city":"Berzini","coordinates":{"lat":"56.1","long":"27.8666667"}},{"country":"lv","city":"Berzini","coordinates":{"lat":"56.5666667","long":"22.7666667"}},{"country":"lv","city":"Berzisi","coordinates":{"lat":"56.85","long":"27.0833333"}},{"country":"lv","city":"Berzkalne","coordinates":{"lat":"57.1","long":"27.35"}},{"country":"lv","city":"Berzkalni","coordinates":{"lat":"56.95","long":"21.5"}},{"country":"lv","city":"Berzkalni","coordinates":{"lat":"57.6","long":"26.0666667"}},{"country":"lv","city":"Berzkalns","coordinates":{"lat":"57.6","long":"26.0666667"}},{"country":"lv","city":"Berzkrasti","coordinates":{"lat":"56.5955556","long":"23.2894444"}},{"country":"lv","city":"Berzmuiza","coordinates":{"lat":"56.4941667","long":"24.1241667"}},{"country":"lv","city":"Berzmuiza","coordinates":{"lat":"56.95","long":"25.2166667"}},{"country":"lv","city":"Berzmuiza","coordinates":{"lat":"56.6872222","long":"23.4402778"}},{"country":"lv","city":"Berzmuiza Muizas Centrs","coordinates":{"lat":"56.6872222","long":"23.4402778"}},{"country":"lv","city":"Berzpils","coordinates":{"lat":"56.85","long":"27.0833333"}},{"country":"lv","city":"Berzs","coordinates":{"lat":"56.95","long":"25.2166667"}},{"country":"lv","city":"(( Berzsipele ))","coordinates":{"lat":"56.7255556","long":"23.3894444"}},{"country":"lv","city":"Berzskiy","coordinates":{"lat":"56.6872222","long":"23.4402778"}},{"country":"lv","city":"Berzspile","coordinates":{"lat":"56.7255556","long":"23.3894444"}},{"country":"lv","city":"Berztsiyem","coordinates":{"lat":"57.2463889","long":"23.1736111"}},{"country":"lv","city":"Berztsiyems","coordinates":{"lat":"57.2463889","long":"23.1736111"}},{"country":"lv","city":"Berzuciems","coordinates":{"lat":"57.0666667","long":"22.6666667"}},{"country":"lv","city":"Berzumuiza","coordinates":{"lat":"56.3455556","long":"24.1061111"}},{"country":"lv","city":"Berzu Muiza","coordinates":{"lat":"56.95","long":"25.2166667"}},{"country":"lv","city":"Berzupe","coordinates":{"lat":"57.4166667","long":"27.45"}},{"country":"lv","city":"Berzupe","coordinates":{"lat":"56.6897222","long":"23.1044444"}},{"country":"lv","city":"Besberty","coordinates":{"lat":"56.6697222","long":"23.2558333"}},{"country":"lv","city":"Bestes","coordinates":{"lat":"57.2166667","long":"21.7333333"}},{"country":"lv","city":"Beti","coordinates":{"lat":"57.1166667","long":"21.5666667"}},{"country":"lv","city":"Beverina","coordinates":{"lat":"57.5333333","long":"26.0833333"}},{"country":"lv","city":"Beya","coordinates":{"lat":"57.4","long":"27.2333333"}},{"country":"lv","city":"Bicani 2","coordinates":{"lat":"56.05","long":"26.6666667"}},{"country":"lv","city":"Bicani","coordinates":{"lat":"56.05","long":"26.6666667"}},{"country":"lv","city":"(( Bicul ))","coordinates":{"lat":"56.5333333","long":"23.6333333"}},{"country":"lv","city":"Bielomoikas","coordinates":{"lat":"56.4333333","long":"27.7166667"}},{"country":"lv","city":"Bigaunciems","coordinates":{"lat":"56.985","long":"23.5391667"}},{"country":"lv","city":"Bigauntsiems","coordinates":{"lat":"56.985","long":"23.5391667"}},{"country":"lv","city":"Bigaun'tsiyems","coordinates":{"lat":"56.985","long":"23.5391667"}},{"country":"lv","city":"Bikava","coordinates":{"lat":"56.3833333","long":"26.9"}},{"country":"lv","city":"Bikava","coordinates":{"lat":"56.7333333","long":"27.0666667"}},{"country":"lv","city":"Bikernieki","coordinates":{"lat":"56.5833333","long":"25.4666667"}},{"country":"lv","city":"Bikernieki","coordinates":{"lat":"55.9833333","long":"26.8"}},{"country":"lv","city":"Bikernieki","coordinates":{"lat":"56.4","long":"25.8"}},{"country":"lv","city":"(( Bikernieki ))","coordinates":{"lat":"56.9666667","long":"24.25"}},{"country":"lv","city":"Bikerniki","coordinates":{"lat":"55.9833333","long":"26.8"}},{"country":"lv","city":"Bikerniyeki","coordinates":{"lat":"55.9833333","long":"26.8"}},{"country":"lv","city":"Bikinelu Muiza","coordinates":{"lat":"55.8166667","long":"26.4666667"}},{"country":"lv","city":"Bikova","coordinates":{"lat":"56.3833333","long":"26.9"}},{"country":"lv","city":"Bikseja","coordinates":{"lat":"57.4666667","long":"25.7166667"}},{"country":"lv","city":"Biksejas Muiza","coordinates":{"lat":"57.4666667","long":"25.7166667"}},{"country":"lv","city":"Biksere","coordinates":{"lat":"56.9166667","long":"26.3166667"}},{"country":"lv","city":"Bikses","coordinates":{"lat":"56.55","long":"21.1"}},{"country":"lv","city":"Bikseya","coordinates":{"lat":"57.4666667","long":"25.7166667"}},{"country":"lv","city":"Biksti","coordinates":{"lat":"56.7","long":"22.9666667"}},{"country":"lv","city":"Bikstu Muiza","coordinates":{"lat":"56.7","long":"22.9666667"}},{"country":"lv","city":"Biksty","coordinates":{"lat":"56.7","long":"22.9666667"}},{"country":"lv","city":"Bilavi","coordinates":{"lat":"57.4166667","long":"22.7"}},{"country":"lv","city":"Bilderlingshof","coordinates":{"lat":"56.9825","long":"23.8572222"}},{"country":"lv","city":"Biletnieki","coordinates":{"lat":"56.3","long":"26.8"}},{"country":"lv","city":"Biljetnieki","coordinates":{"lat":"56.3","long":"26.8"}},{"country":"lv","city":"Bille","coordinates":{"lat":"57.2333333","long":"25.2166667"}},{"country":"lv","city":"Billi","coordinates":{"lat":"56.5686111","long":"23.9063889"}},{"country":"lv","city":"Billumuiza","coordinates":{"lat":"56.5686111","long":"23.9063889"}},{"country":"lv","city":"Billyumuyzha","coordinates":{"lat":"56.5686111","long":"23.9063889"}},{"country":"lv","city":"Bilska","coordinates":{"lat":"57.4833333","long":"25.9666667"}},{"country":"lv","city":"Binava","coordinates":{"lat":"56.6166667","long":"27.6166667"}},{"country":"lv","city":"Binderi","coordinates":{"lat":"56.7166667","long":"21.3166667"}},{"country":"lv","city":"Birini","coordinates":{"lat":"57.2494444","long":"24.6697222"}},{"country":"lv","city":"Birinu Muiza","coordinates":{"lat":"57.2494444","long":"24.6697222"}},{"country":"lv","city":"Birkeneli","coordinates":{"lat":"55.8166667","long":"26.4666667"}},{"country":"lv","city":"Birkineli","coordinates":{"lat":"55.8166667","long":"26.4666667"}},{"country":"lv","city":"Birzai","coordinates":{"lat":"56.4","long":"25.7833333"}},{"country":"lv","city":"Birzes","coordinates":{"lat":"56.4827778","long":"24.3466667"}},{"country":"lv","city":"Birzes","coordinates":{"lat":"57.3166667","long":"22.5333333"}},{"country":"lv","city":"Birzgale","coordinates":{"lat":"56.2872222","long":"24.2230556"}},{"country":"lv","city":"Birzgale","coordinates":{"lat":"56.6330556","long":"24.7544444"}},{"country":"lv","city":"Birzgali","coordinates":{"lat":"56.2872222","long":"24.2230556"}},{"country":"lv","city":"Birzgali","coordinates":{"lat":"57.5","long":"25.0"}},{"country":"lv","city":"Birzhi","coordinates":{"lat":"56.4","long":"25.7833333"}},{"country":"lv","city":"Birzhi","coordinates":{"lat":"56.9","long":"21.7"}},{"country":"lv","city":"Birzhsovka","coordinates":{"lat":"56.7666667","long":"27.85"}},{"country":"lv","city":"Birzi","coordinates":{"lat":"56.4","long":"25.7833333"}},{"country":"lv","city":"Birzi","coordinates":{"lat":"56.9","long":"21.7"}},{"country":"lv","city":"Birzite","coordinates":{"lat":"56.64","long":"23.6180556"}},{"country":"lv","city":"Birznieki","coordinates":{"lat":"56.6","long":"21.3"}},{"country":"lv","city":"Birznieki","coordinates":{"lat":"56.9666667","long":"26.7"}},{"country":"lv","city":"Birznieki","coordinates":{"lat":"56.4833333","long":"22.45"}},{"country":"lv","city":"Birznyeki","coordinates":{"lat":"56.9666667","long":"26.7"}},{"country":"lv","city":"Birzuli","coordinates":{"lat":"57.1666667","long":"26.2166667"}},{"country":"lv","city":"Birzuli","coordinates":{"lat":"57.6166667","long":"26.2333333"}},{"country":"lv","city":"Birzu Muiza","coordinates":{"lat":"56.4","long":"25.7833333"}},{"country":"lv","city":"Bisenieki","coordinates":{"lat":"57.3833333","long":"22.1666667"}},{"country":"lv","city":"Biseniyeki","coordinates":{"lat":"57.3833333","long":"22.1666667"}},{"country":"lv","city":"Bisnieki","coordinates":{"lat":"57.3833333","long":"22.1666667"}},{"country":"lv","city":"Bitani","coordinates":{"lat":"56.6166667","long":"25.3666667"}},{"country":"lv","city":"Biten","coordinates":{"lat":"56.5558333","long":"23.8516667"}},{"country":"lv","city":"Biteni","coordinates":{"lat":"56.5558333","long":"23.8516667"}},{"country":"lv","city":"Biterniyeki","coordinates":{"lat":"56.9666667","long":"24.25"}},{"country":"lv","city":"Bites","coordinates":{"lat":"56.7833333","long":"25.75"}},{"country":"lv","city":"Bites","coordinates":{"lat":"56.4516667","long":"23.3519444"}},{"country":"lv","city":"Bites","coordinates":{"lat":"56.7166667","long":"22.4333333"}},{"country":"lv","city":"(( Bitnieki ))","coordinates":{"lat":"57.1572222","long":"24.5397222"}},{"country":"lv","city":"Bityerneku","coordinates":{"lat":"56.9666667","long":"24.25"}},{"country":"lv","city":"Bizi","coordinates":{"lat":"56.5333333","long":"27.5"}},{"country":"lv","city":"Blaideni","coordinates":{"lat":"56.0833333","long":"27.4333333"}},{"country":"lv","city":"Blakaini","coordinates":{"lat":"57.05","long":"26.1"}},{"country":"lv","city":"Blanka","coordinates":{"lat":"57.9166667","long":"25.05"}},{"country":"lv","city":"Blankas","coordinates":{"lat":"57.9166667","long":"25.05"}},{"country":"lv","city":"Blankenfelde","coordinates":{"lat":"56.3455556","long":"23.5486111"}},{"country":"lv","city":"Blankfelde","coordinates":{"lat":"56.3455556","long":"23.5486111"}},{"country":"lv","city":"(( Blankfeldes Muiza ))","coordinates":{"lat":"56.35","long":"23.5666667"}},{"country":"lv","city":"Blanku Krogs","coordinates":{"lat":"57.9166667","long":"25.05"}},{"country":"lv","city":"Blazma","coordinates":{"lat":"56.7788889","long":"23.0919444"}},{"country":"lv","city":"Blazma","coordinates":{"lat":"57.35","long":"22.0666667"}},{"country":"lv","city":"Blazmas","coordinates":{"lat":"56.7788889","long":"23.0919444"}},{"country":"lv","city":"Bledeli","coordinates":{"lat":"56.05","long":"27.35"}},{"country":"lv","city":"Blende","coordinates":{"lat":"57.1666667","long":"21.5666667"}},{"country":"lv","city":"Blidene","coordinates":{"lat":"56.65","long":"22.7833333"}},{"country":"lv","city":"Blidiene","coordinates":{"lat":"56.65","long":"22.8166667"}},{"country":"lv","city":"Blisini","coordinates":{"lat":"56.7333333","long":"27.4833333"}},{"country":"lv","city":"Blizneva","coordinates":{"lat":"56.2833333","long":"27.7"}},{"country":"lv","city":"Blodniyeki","coordinates":{"lat":"56.9238889","long":"23.8555556"}},{"country":"lv","city":"Blome","coordinates":{"lat":"57.2","long":"26.6833333"}},{"country":"lv","city":"Blome","coordinates":{"lat":"57.4333333","long":"25.7833333"}},{"country":"lv","city":"Blomi","coordinates":{"lat":"57.2","long":"26.6833333"}},{"country":"lv","city":"Blomi","coordinates":{"lat":"57.4333333","long":"25.7833333"}},{"country":"lv","city":"Blommuiza","coordinates":{"lat":"57.4333333","long":"25.7833333"}},{"country":"lv","city":"Blonti","coordinates":{"lat":"56.6166667","long":"27.7833333"}},{"country":"lv","city":"Blukas","coordinates":{"lat":"56.6130556","long":"23.7908333"}},{"country":"lv","city":"(( Blukaskrogs ))","coordinates":{"lat":"56.7","long":"23.7833333"}},{"country":"lv","city":"Bluzmi","coordinates":{"lat":"56.25","long":"26.7166667"}},{"country":"lv","city":"Bluzni","coordinates":{"lat":"56.25","long":"26.7166667"}},{"country":"lv","city":"Bluzny","coordinates":{"lat":"56.25","long":"26.7166667"}},{"country":"lv","city":"Bobri","coordinates":{"lat":"55.7333333","long":"26.8166667"}},{"country":"lv","city":"Bobry","coordinates":{"lat":"55.7333333","long":"26.8166667"}},{"country":"lv","city":"Boja","coordinates":{"lat":"56.6833333","long":"21.65"}},{"country":"lv","city":"Bojari","coordinates":{"lat":"56.1333333","long":"27.6"}},{"country":"lv","city":"Bojas","coordinates":{"lat":"56.6833333","long":"21.65"}},{"country":"lv","city":"Bokani","coordinates":{"lat":"56.1333333","long":"26.0166667"}},{"country":"lv","city":"Bokani","coordinates":{"lat":"56.5","long":"27.0333333"}},{"country":"lv","city":"Boki","coordinates":{"lat":"56.8333333","long":"26.0"}},{"country":"lv","city":"Bolderaa","coordinates":{"lat":"57.0333333","long":"24.05"}},{"country":"lv","city":"Bolderaja","coordinates":{"lat":"57.0333333","long":"24.05"}},{"country":"lv","city":"Bolderaya","coordinates":{"lat":"57.0333333","long":"24.05"}},{"country":"lv","city":"Bol'dereya","coordinates":{"lat":"57.0333333","long":"24.05"}},{"country":"lv","city":"Bolderoa","coordinates":{"lat":"57.0333333","long":"24.05"}},{"country":"lv","city":"Bolgalvi","coordinates":{"lat":"56.5833333","long":"25.9833333"}},{"country":"lv","city":"Bolowsk","coordinates":{"lat":"57.1333333","long":"27.25"}},{"country":"lv","city":"Bol'shaya Kokiny","coordinates":{"lat":"55.9833333","long":"26.7166667"}},{"country":"lv","city":"Bol'shaya Myza Straupe","coordinates":{"lat":"57.35","long":"24.95"}},{"country":"lv","city":"Bol'shiye Kursishi","coordinates":{"lat":"56.2333333","long":"26.45"}},{"country":"lv","city":"Bol'shoye Medishevo","coordinates":{"lat":"56.6166667","long":"27.8166667"}},{"country":"lv","city":"Bol'shoye Nikovo","coordinates":{"lat":"56.4333333","long":"28.0166667"}},{"country":"lv","city":"Bolvi","coordinates":{"lat":"57.1333333","long":"27.25"}},{"country":"lv","city":"Boncheva","coordinates":{"lat":"56.0666667","long":"27.7"}},{"country":"lv","city":"Bondari","coordinates":{"lat":"56.3","long":"28.0666667"}},{"country":"lv","city":"Bondari","coordinates":{"lat":"56.3","long":"27.35"}},{"country":"lv","city":"Bonitacova","coordinates":{"lat":"56.8166667","long":"27.0833333"}},{"country":"lv","city":"Boraukas","coordinates":{"lat":"55.9","long":"27.2833333"}},{"country":"lv","city":"Borbali","coordinates":{"lat":"56.6666667","long":"26.5333333"}},{"country":"lv","city":"Borbuli","coordinates":{"lat":"56.6166667","long":"26.4333333"}},{"country":"lv","city":"Borchova","coordinates":{"lat":"56.4333333","long":"28.1833333"}},{"country":"lv","city":"Borchova","coordinates":{"lat":"56.2666667","long":"26.6"}},{"country":"lv","city":"Borchovas Pusmuiza","coordinates":{"lat":"56.7166667","long":"26.6"}},{"country":"lv","city":"Borisova","coordinates":{"lat":"56.55","long":"27.3833333"}},{"country":"lv","city":"Borkuici","coordinates":{"lat":"56.15","long":"28.05"}},{"country":"lv","city":"Bormani","coordinates":{"lat":"56.6833333","long":"25.4833333"}},{"country":"lv","city":"Bormani","coordinates":{"lat":"57.45","long":"26.6"}},{"country":"lv","city":"Bormani","coordinates":{"lat":"57.3333333","long":"25.6"}},{"country":"lv","city":"Bornsminde","coordinates":{"lat":"56.4125","long":"24.1005556"}},{"country":"lv","city":"Borotniki","coordinates":{"lat":"56.4333333","long":"26.8833333"}},{"country":"lv","city":"Borovaja","coordinates":{"lat":"56.25","long":"28.0333333"}},{"country":"lv","city":"Borovaja","coordinates":{"lat":"56.35","long":"27.1666667"}},{"country":"lv","city":"Borovaya","coordinates":{"lat":"56.25","long":"28.0333333"}},{"country":"lv","city":"Borovaya","coordinates":{"lat":"56.35","long":"27.1666667"}},{"country":"lv","city":"Borovije","coordinates":{"lat":"56.05","long":"27.0"}},{"country":"lv","city":"Borovka","coordinates":{"lat":"55.75","long":"26.7833333"}},{"country":"lv","city":"Borovka","coordinates":{"lat":"55.9","long":"27.2833333"}},{"country":"lv","city":"Borovka","coordinates":{"lat":"56.1166667","long":"26.8833333"}},{"country":"lv","city":"Borovkas","coordinates":{"lat":"56.1166667","long":"26.8833333"}},{"country":"lv","city":"Bortnieki","coordinates":{"lat":"56.4333333","long":"26.8833333"}},{"country":"lv","city":"Bortniki","coordinates":{"lat":"56.3333333","long":"28.0333333"}},{"country":"lv","city":"Bosko","coordinates":{"lat":"56.4075","long":"24.1905556"}},{"country":"lv","city":"Boyary","coordinates":{"lat":"56.1333333","long":"27.6"}},{"country":"lv","city":"Boyas","coordinates":{"lat":"56.6833333","long":"21.65"}},{"country":"lv","city":"Bozauka","coordinates":{"lat":"56.8","long":"27.7"}},{"country":"lv","city":"Bozava","coordinates":{"lat":"56.8","long":"27.7"}},{"country":"lv","city":"Bracas","coordinates":{"lat":"56.6","long":"22.1166667"}},{"country":"lv","city":"Bradaizh","coordinates":{"lat":"56.3166667","long":"27.7666667"}},{"country":"lv","city":"Brakas","coordinates":{"lat":"56.55","long":"26.4666667"}},{"country":"lv","city":"Brakauski","coordinates":{"lat":"56.1833333","long":"26.5833333"}},{"country":"lv","city":"Braki","coordinates":{"lat":"56.9","long":"25.4166667"}},{"country":"lv","city":"Bramberde","coordinates":{"lat":"56.5797222","long":"23.5880556"}},{"country":"lv","city":"Bramberge","coordinates":{"lat":"56.5797222","long":"23.5880556"}},{"country":"lv","city":"Bramberges Muiza","coordinates":{"lat":"56.5797222","long":"23.5880556"}},{"country":"lv","city":"Brambergi","coordinates":{"lat":"56.5797222","long":"23.5880556"}},{"country":"lv","city":"Brandavas","coordinates":{"lat":"56.7455556","long":"23.0669444"}},{"country":"lv","city":"Brandavi","coordinates":{"lat":"56.7455556","long":"23.0669444"}},{"country":"lv","city":"Brandini","coordinates":{"lat":"57.75","long":"26.05"}},{"country":"lv","city":"Brankas","coordinates":{"lat":"56.6819444","long":"23.8397222"}},{"country":"lv","city":"Brankciems","coordinates":{"lat":"56.9291667","long":"23.6030556"}},{"country":"lv","city":"Branktsiyems","coordinates":{"lat":"56.9291667","long":"23.6030556"}},{"country":"lv","city":"Branta Muiza","coordinates":{"lat":"57.3666667","long":"25.7333333"}},{"country":"lv","city":"Brante","coordinates":{"lat":"56.6172222","long":"24.0827778"}},{"country":"lv","city":"Branteni","coordinates":{"lat":"56.8666667","long":"25.6333333"}},{"country":"lv","city":"Branti","coordinates":{"lat":"56.6172222","long":"24.0827778"}},{"country":"lv","city":"Branti","coordinates":{"lat":"56.9","long":"26.7333333"}},{"country":"lv","city":"Branti","coordinates":{"lat":"57.3666667","long":"25.7333333"}},{"country":"lv","city":"Brasla","coordinates":{"lat":"57.2966667","long":"24.9233333"}},{"country":"lv","city":"Braslava","coordinates":{"lat":"57.75","long":"25.0333333"}},{"country":"lv","city":"Braslavas Muiza","coordinates":{"lat":"57.75","long":"25.0333333"}},{"country":"lv","city":"Bratava","coordinates":{"lat":"56.4","long":"27.3666667"}},{"country":"lv","city":"Bratova","coordinates":{"lat":"56.4","long":"27.3666667"}},{"country":"lv","city":"Brazas","coordinates":{"lat":"56.9719444","long":"23.8686111"}},{"country":"lv","city":"Brediki","coordinates":{"lat":"56.55","long":"26.05"}},{"country":"lv","city":"Brediki","coordinates":{"lat":"57.1833333","long":"21.4333333"}},{"country":"lv","city":"Bregsukrogs","coordinates":{"lat":"57.1","long":"25.7166667"}},{"country":"lv","city":"Bregzi","coordinates":{"lat":"57.1","long":"25.7166667"}},{"country":"lv","city":"(( Breki ))","coordinates":{"lat":"56.7166667","long":"23.4833333"}},{"country":"lv","city":"Breksiena","coordinates":{"lat":"56.9833333","long":"27.65"}},{"country":"lv","city":"Breksina","coordinates":{"lat":"56.9833333","long":"27.65"}},{"country":"lv","city":"Brekti","coordinates":{"lat":"57.1","long":"25.9"}},{"country":"lv","city":"Brenceni","coordinates":{"lat":"56.7166667","long":"25.5"}},{"country":"lv","city":"Brenceni","coordinates":{"lat":"56.85","long":"26.0166667"}},{"country":"lv","city":"Brenci","coordinates":{"lat":"57.3666667","long":"27.1666667"}},{"country":"lv","city":"Brencu Pusmuizas Centrs","coordinates":{"lat":"57.3666667","long":"27.1666667"}},{"country":"lv","city":"Brendznieki","coordinates":{"lat":"57.2","long":"21.9"}},{"country":"lv","city":"Brenguli","coordinates":{"lat":"57.55","long":"25.5166667"}},{"country":"lv","city":"Brengulu Muiza","coordinates":{"lat":"57.55","long":"25.5166667"}},{"country":"lv","city":"Brenti","coordinates":{"lat":"57.8","long":"25.8"}},{"country":"lv","city":"Brentsi","coordinates":{"lat":"57.3666667","long":"27.1666667"}},{"country":"lv","city":"Brentsy","coordinates":{"lat":"57.3666667","long":"27.1666667"}},{"country":"lv","city":"Brezgakrogs","coordinates":{"lat":"57.1","long":"25.7166667"}},{"country":"lv","city":"Brezhi","coordinates":{"lat":"56.4827778","long":"23.6991667"}},{"country":"lv","city":"Brici","coordinates":{"lat":"57.1166667","long":"25.8666667"}},{"country":"lv","city":"Bridaga","coordinates":{"lat":"57.6519444","long":"24.4697222"}},{"country":"lv","city":"Bridiski","coordinates":{"lat":"56.2833333","long":"27.5666667"}},{"country":"lv","city":"Briedes","coordinates":{"lat":"57.8","long":"25.6"}},{"country":"lv","city":"Briedisi","coordinates":{"lat":"57.1833333","long":"27.15"}},{"country":"lv","city":"Briezava","coordinates":{"lat":"57.1333333","long":"27.3833333"}},{"country":"lv","city":"Briezeva","coordinates":{"lat":"57.1333333","long":"27.3833333"}},{"country":"lv","city":"Briezhava","coordinates":{"lat":"57.1333333","long":"27.3833333"}},{"country":"lv","city":"Briezhi","coordinates":{"lat":"57.4666667","long":"26.4666667"}},{"country":"lv","city":"Briezi","coordinates":{"lat":"57.4666667","long":"26.4666667"}},{"country":"lv","city":"(( Briezi ))","coordinates":{"lat":"56.4827778","long":"23.6991667"}},{"country":"lv","city":"Briezi","coordinates":{"lat":"56.8666667","long":"22.2666667"}},{"country":"lv","city":"Briezi","coordinates":{"lat":"56.7166667","long":"21.5666667"}},{"country":"lv","city":"Briezi","coordinates":{"lat":"56.2166667","long":"26.4166667"}},{"country":"lv","city":"Briezi","coordinates":{"lat":"56.7969444","long":"23.0066667"}},{"country":"lv","city":"Briezi","coordinates":{"lat":"57.4166667","long":"25.3666667"}},{"country":"lv","city":"Briezuciems","coordinates":{"lat":"56.95","long":"27.5833333"}},{"country":"lv","city":"Brigas Muiza","coordinates":{"lat":"55.75","long":"26.5333333"}},{"country":"lv","city":"Brigene","coordinates":{"lat":"55.75","long":"26.5333333"}},{"country":"lv","city":"Brigi","coordinates":{"lat":"56.4166667","long":"28.0666667"}},{"country":"lv","city":"Brigi","coordinates":{"lat":"56.6833333","long":"25.4"}},{"country":"lv","city":"Brikazi","coordinates":{"lat":"57.4","long":"25.8333333"}},{"country":"lv","city":"Brikuzis","coordinates":{"lat":"57.4","long":"25.8333333"}},{"country":"lv","city":"Brilli","coordinates":{"lat":"56.4166667","long":"22.75"}},{"country":"lv","city":"Bringi","coordinates":{"lat":"57.0","long":"25.8833333"}},{"country":"lv","city":"Bringi","coordinates":{"lat":"56.65","long":"27.5833333"}},{"country":"lv","city":"Brinini","coordinates":{"lat":"56.5166667","long":"22.2333333"}},{"country":"lv","city":"Briski","coordinates":{"lat":"56.45","long":"26.9"}},{"country":"lv","city":"Brisla","coordinates":{"lat":"56.4166667","long":"26.3666667"}},{"country":"lv","city":"Brivnieki","coordinates":{"lat":"57.5347222","long":"24.3725"}},{"country":"lv","city":"Brivniyeki","coordinates":{"lat":"57.5347222","long":"24.3725"}},{"country":"lv","city":"Briyezhava","coordinates":{"lat":"57.1333333","long":"27.3833333"}},{"country":"lv","city":"Briyezhi","coordinates":{"lat":"56.4827778","long":"23.6991667"}},{"country":"lv","city":"Briyezhi","coordinates":{"lat":"56.7969444","long":"23.0066667"}},{"country":"lv","city":"Brizule","coordinates":{"lat":"57.0905556","long":"23.0880556"}},{"country":"lv","city":"Brizule Muizas Centrs","coordinates":{"lat":"57.0905556","long":"23.0880556"}},{"country":"lv","city":"Brizules Muiza","coordinates":{"lat":"57.0905556","long":"23.0880556"}},{"country":"lv","city":"Broceni","coordinates":{"lat":"56.7","long":"22.5333333"}},{"country":"lv","city":"Brocenu Muiza","coordinates":{"lat":"56.7","long":"22.5333333"}},{"country":"lv","city":"Brodaiza","coordinates":{"lat":"56.3166667","long":"27.7666667"}},{"country":"lv","city":"Brodaizi","coordinates":{"lat":"56.3166667","long":"27.7666667"}},{"country":"lv","city":"Brodi","coordinates":{"lat":"56.4666667","long":"25.8666667"}},{"country":"lv","city":"Brody","coordinates":{"lat":"56.4666667","long":"25.8666667"}},{"country":"lv","city":"Broki","coordinates":{"lat":"56.5166667","long":"26.65"}},{"country":"lv","city":"Brotseny","coordinates":{"lat":"56.7","long":"22.5333333"}},{"country":"lv","city":"Bruci","coordinates":{"lat":"57.0","long":"22.0333333"}},{"country":"lv","city":"Brukani","coordinates":{"lat":"56.6666667","long":"27.1166667"}},{"country":"lv","city":"Bruklain","coordinates":{"lat":"56.3","long":"24.2666667"}},{"country":"lv","city":"(( Bruklaji ))","coordinates":{"lat":"56.3","long":"24.2666667"}},{"country":"lv","city":"Brukshis","coordinates":{"lat":"57.3833333","long":"25.8833333"}},{"country":"lv","city":"Bruksi","coordinates":{"lat":"57.3833333","long":"25.8833333"}},{"country":"lv","city":"Bruksis","coordinates":{"lat":"57.3833333","long":"25.8833333"}},{"country":"lv","city":"Bruleni","coordinates":{"lat":"56.8166667","long":"25.15"}},{"country":"lv","city":"Brunava","coordinates":{"lat":"56.3575","long":"24.3891667"}},{"country":"lv","city":"Brunaviski","coordinates":{"lat":"56.2833333","long":"24.1833333"}},{"country":"lv","city":"Brunchi","coordinates":{"lat":"57.2666667","long":"21.4666667"}},{"country":"lv","city":"Brunci","coordinates":{"lat":"57.2666667","long":"21.4666667"}},{"country":"lv","city":"Bruni","coordinates":{"lat":"56.9527778","long":"23.9463889"}},{"country":"lv","city":"Bruninieki","coordinates":{"lat":"55.8333333","long":"27.2333333"}},{"country":"lv","city":"Brunumuiza","coordinates":{"lat":"56.7","long":"23.1333333"}},{"country":"lv","city":"Brunumuyzha","coordinates":{"lat":"56.7","long":"23.1333333"}},{"country":"lv","city":"Brushvits","coordinates":{"lat":"56.1833333","long":"21.0833333"}},{"country":"lv","city":"Brusvisi","coordinates":{"lat":"56.1833333","long":"21.0833333"}},{"country":"lv","city":"Brusviti","coordinates":{"lat":"56.1833333","long":"21.0833333"}},{"country":"lv","city":"Brusvituciems","coordinates":{"lat":"56.1833333","long":"21.0833333"}},{"country":"lv","city":"Brutuli","coordinates":{"lat":"57.45","long":"25.9"}},{"country":"lv","city":"Brutulis","coordinates":{"lat":"57.45","long":"25.9"}},{"country":"lv","city":"Bruveli","coordinates":{"lat":"56.4833333","long":"22.8833333"}},{"country":"lv","city":"Bruveri","coordinates":{"lat":"56.61","long":"24.5936111"}},{"country":"lv","city":"Bruveri","coordinates":{"lat":"56.4833333","long":"22.8833333"}},{"country":"lv","city":"Bruveri","coordinates":{"lat":"56.6833333","long":"21.3666667"}},{"country":"lv","city":"Bruveri","coordinates":{"lat":"56.15","long":"27.0333333"}},{"country":"lv","city":"Bruveru-sala","coordinates":{"lat":"56.61","long":"24.5936111"}},{"country":"lv","city":"Bruzilas","coordinates":{"lat":"56.4666667","long":"22.4333333"}},{"country":"lv","city":"Bucauska","coordinates":{"lat":"57.0166667","long":"26.4166667"}},{"country":"lv","city":"Bucauskas Muiza","coordinates":{"lat":"57.0166667","long":"26.4166667"}},{"country":"lv","city":"Buceni","coordinates":{"lat":"57.3833333","long":"21.9666667"}},{"country":"lv","city":"Buculani","coordinates":{"lat":"56.3166667","long":"25.5166667"}},{"country":"lv","city":"Budbege","coordinates":{"lat":"56.3147222","long":"24.5305556"}},{"country":"lv","city":"Budberga","coordinates":{"lat":"56.3147222","long":"24.5305556"}},{"country":"lv","city":"Budele","coordinates":{"lat":"57.7158333","long":"24.7355556"}},{"country":"lv","city":"Budeles","coordinates":{"lat":"57.7158333","long":"24.7355556"}},{"country":"lv","city":"Budenbroka","coordinates":{"lat":"57.6166667","long":"25.0666667"}},{"country":"lv","city":"Budinas","coordinates":{"lat":"56.7111111","long":"23.5066667"}},{"country":"lv","city":"(( Budnieki ))","coordinates":{"lat":"56.45","long":"23.5166667"}},{"country":"lv","city":"Buiva","coordinates":{"lat":"57.65","long":"25.0"}},{"country":"lv","city":"Buivisi","coordinates":{"lat":"56.15","long":"26.35"}},{"country":"lv","city":"Buka","coordinates":{"lat":"57.6333333","long":"25.45"}},{"country":"lv","city":"Bukaisi","coordinates":{"lat":"56.4005556","long":"23.2522222"}},{"country":"lv","city":"Bukas","coordinates":{"lat":"57.0358333","long":"24.9433333"}},{"country":"lv","city":"Bukayshi","coordinates":{"lat":"56.4005556","long":"23.2522222"}},{"country":"lv","city":"Buki","coordinates":{"lat":"56.3802778","long":"23.8180556"}},{"country":"lv","city":"Buki","coordinates":{"lat":"56.65","long":"22.3333333"}},{"country":"lv","city":"Bukmuiza","coordinates":{"lat":"56.1833333","long":"27.65"}},{"country":"lv","city":"Bukmuyzha","coordinates":{"lat":"56.1833333","long":"27.65"}},{"country":"lv","city":"Buksas","coordinates":{"lat":"56.6333333","long":"26.05"}},{"country":"lv","city":"Bukshas","coordinates":{"lat":"56.6333333","long":"26.05"}},{"country":"lv","city":"Buksti","coordinates":{"lat":"56.9333333","long":"27.55"}},{"country":"lv","city":"Buksty","coordinates":{"lat":"56.9333333","long":"27.55"}},{"country":"lv","city":"Bukuciems","coordinates":{"lat":"56.2833333","long":"21.2"}},{"country":"lv","city":"Bukulti","coordinates":{"lat":"57.0066667","long":"24.2641667"}},{"country":"lv","city":"Bukulti","coordinates":{"lat":"57.0194444","long":"24.2597222"}},{"country":"lv","city":"Bukultu Muiza","coordinates":{"lat":"57.0066667","long":"24.2641667"}},{"country":"lv","city":"Bukulty","coordinates":{"lat":"57.0066667","long":"24.2641667"}},{"country":"lv","city":"Bukupeija","coordinates":{"lat":"56.3802778","long":"23.8180556"}},{"country":"lv","city":"Bukupeijas","coordinates":{"lat":"56.3802778","long":"23.8180556"}},{"country":"lv","city":"Bulani","coordinates":{"lat":"56.35","long":"27.3833333"}},{"country":"lv","city":"Bulany","coordinates":{"lat":"56.35","long":"27.3833333"}},{"country":"lv","city":"Bulduri","coordinates":{"lat":"56.4166667","long":"25.7"}},{"country":"lv","city":"Bulduri","coordinates":{"lat":"56.9825","long":"23.8572222"}},{"country":"lv","city":"Bulgarija","coordinates":{"lat":"56.7241667","long":"23.6911111"}},{"country":"lv","city":"Buli","coordinates":{"lat":"56.45","long":"27.7833333"}},{"country":"lv","city":"Bulkas","coordinates":{"lat":"56.9","long":"21.5666667"}},{"country":"lv","city":"Bull Ciems","coordinates":{"lat":"56.9947222","long":"23.9166667"}},{"country":"lv","city":"Bulli","coordinates":{"lat":"57.0","long":"23.9833333"}},{"country":"lv","city":"Bulli Muizas Centrs","coordinates":{"lat":"57.0","long":"23.9833333"}},{"country":"lv","city":"Bullu","coordinates":{"lat":"56.9947222","long":"23.9166667"}},{"country":"lv","city":"Bulluciems","coordinates":{"lat":"56.9947222","long":"23.9166667"}},{"country":"lv","city":"Bullugals","coordinates":{"lat":"57.0","long":"23.95"}},{"country":"lv","city":"Bullumuiza","coordinates":{"lat":"57.0","long":"23.9833333"}},{"country":"lv","city":"Bullutsiems","coordinates":{"lat":"57.0","long":"23.9833333"}},{"country":"lv","city":"Bullu Village","coordinates":{"lat":"56.9947222","long":"23.9166667"}},{"country":"lv","city":"Bullyugals","coordinates":{"lat":"57.0","long":"23.95"}},{"country":"lv","city":"Bullyutsems","coordinates":{"lat":"56.9947222","long":"23.9166667"}},{"country":"lv","city":"Bullyutsiyem","coordinates":{"lat":"56.9947222","long":"23.9166667"}},{"country":"lv","city":"Bulmeisteri","coordinates":{"lat":"56.75","long":"26.65"}},{"country":"lv","city":"Bulvani","coordinates":{"lat":"56.7333333","long":"25.7"}},{"country":"lv","city":"Bumani","coordinates":{"lat":"56.45","long":"26.4666667"}},{"country":"lv","city":"Bumbiski","coordinates":{"lat":"56.4666667","long":"27.2666667"}},{"country":"lv","city":"Bunceva","coordinates":{"lat":"56.0666667","long":"27.7"}},{"country":"lv","city":"Bunduli","coordinates":{"lat":"56.65","long":"25.65"}},{"country":"lv","city":"Bungas","coordinates":{"lat":"56.4333333","long":"22.8833333"}},{"country":"lv","city":"Bungas","coordinates":{"lat":"56.25","long":"27.3333333"}},{"country":"lv","city":"Bunka","coordinates":{"lat":"56.5166667","long":"21.5"}},{"country":"lv","city":"Bunkas","coordinates":{"lat":"56.5833333","long":"21.4666667"}},{"country":"lv","city":"Bunke","coordinates":{"lat":"56.5166667","long":"21.5"}},{"country":"lv","city":"Buntiki","coordinates":{"lat":"56.55","long":"26.3333333"}},{"country":"lv","city":"Buntiki","coordinates":{"lat":"57.4166667","long":"21.7833333"}},{"country":"lv","city":"Burchardmuiza","coordinates":{"lat":"56.9666667","long":"24.2333333"}},{"country":"lv","city":"(( Burchardumuiza ))","coordinates":{"lat":"56.9666667","long":"24.2333333"}},{"country":"lv","city":"Burga","coordinates":{"lat":"57.7666667","long":"25.9333333"}},{"country":"lv","city":"Burtnieki","coordinates":{"lat":"56.7941667","long":"23.0702778"}},{"country":"lv","city":"Burtnieki","coordinates":{"lat":"57.7","long":"25.2666667"}},{"country":"lv","city":"Burtniyeki","coordinates":{"lat":"56.6644444","long":"24.3463889"}},{"country":"lv","city":"Burtniyeki","coordinates":{"lat":"56.7941667","long":"23.0702778"}},{"country":"lv","city":"Burzova","coordinates":{"lat":"56.5833333","long":"27.35"}},{"country":"lv","city":"Busaniski","coordinates":{"lat":"56.05","long":"27.2666667"}},{"country":"lv","city":"Bushanishki","coordinates":{"lat":"56.05","long":"27.2666667"}},{"country":"lv","city":"Bushniyeki","coordinates":{"lat":"57.4341667","long":"21.6561111"}},{"country":"lv","city":"Businiski","coordinates":{"lat":"56.05","long":"27.2666667"}},{"country":"lv","city":"Busnieki","coordinates":{"lat":"57.4341667","long":"21.6561111"}},{"country":"lv","city":"Butenishki","coordinates":{"lat":"55.9833333","long":"26.8333333"}},{"country":"lv","city":"Buteniski","coordinates":{"lat":"55.9833333","long":"26.8333333"}},{"country":"lv","city":"Butiniski","coordinates":{"lat":"55.9833333","long":"26.8333333"}},{"country":"lv","city":"Butiski","coordinates":{"lat":"55.9","long":"26.75"}},{"country":"lv","city":"Butkani","coordinates":{"lat":"56.0833333","long":"25.75"}},{"country":"lv","city":"Butkani","coordinates":{"lat":"56.1833333","long":"27.2666667"}},{"country":"lv","city":"Butkany","coordinates":{"lat":"56.0833333","long":"25.75"}},{"country":"lv","city":"Butkeni","coordinates":{"lat":"56.0833333","long":"25.75"}},{"country":"lv","city":"Butnari","coordinates":{"lat":"56.6666667","long":"22.4333333"}},{"country":"lv","city":"Butseni","coordinates":{"lat":"57.3833333","long":"21.9666667"}},{"country":"lv","city":"Butsishki","coordinates":{"lat":"55.9","long":"26.75"}},{"country":"lv","city":"Butyupeiyyas","coordinates":{"lat":"56.3802778","long":"23.8180556"}},{"country":"lv","city":"Buzani","coordinates":{"lat":"56.7333333","long":"26.6833333"}},{"country":"lv","city":"(( Buzi ))","coordinates":{"lat":"56.55","long":"24.65"}},{"country":"lv","city":"Bykova","coordinates":{"lat":"56.3833333","long":"26.9"}},{"country":"lv","city":"Bykova","coordinates":{"lat":"56.7333333","long":"27.0666667"}},{"country":"lv","city":"Caci","coordinates":{"lat":"56.4666667","long":"26.6666667"}},{"country":"lv","city":"Caci","coordinates":{"lat":"56.5","long":"27.3666667"}},{"country":"lv","city":"Caipi","coordinates":{"lat":"55.9","long":"27.3666667"}},{"country":"lv","city":"Cajenan-Vidus","coordinates":{"lat":"56.55","long":"26.6833333"}},{"country":"lv","city":"Caksi","coordinates":{"lat":"56.65","long":"27.3666667"}},{"country":"lv","city":"Cakstes","coordinates":{"lat":"57.0166667","long":"22.55"}},{"country":"lv","city":"Cakuli","coordinates":{"lat":"56.6333333","long":"26.7833333"}},{"country":"lv","city":"Calisa Sils","coordinates":{"lat":"56.88","long":"24.1477778"}},{"country":"lv","city":"Calissils","coordinates":{"lat":"56.88","long":"24.1477778"}},{"country":"lv","city":"Caltaksi","coordinates":{"lat":"56.2666667","long":"26.9166667"}},{"country":"lv","city":"Campi","coordinates":{"lat":"57.5","long":"25.5333333"}},{"country":"lv","city":"Cankas","coordinates":{"lat":"57.0833333","long":"25.4333333"}},