[{"country":"an","city":"Ararat","coordinates":{"lat":"12.1105556","long":"-68.9194444"}},{"country":"an","city":"Australie","coordinates":{"lat":"12.1166667","long":"-68.95"}},{"country":"an","city":"Barber","coordinates":{"lat":"12.2833333","long":"-69.0666667"}},{"country":"an","city":"Bau Seroe","coordinates":{"lat":"12.3","long":"-69.1"}},{"country":"an","city":"Bella Vista","coordinates":{"lat":"12.15","long":"-68.25"}},{"country":"an","city":"Bel Nem","coordinates":{"lat":"12.1166667","long":"-68.2833333"}},{"country":"an","city":"Belvédère","coordinates":{"lat":"18.05","long":"-63.0333333"}},{"country":"an","city":"Beneden Prinsen","coordinates":{"lat":"18.0333333","long":"-63.0333333"}},{"country":"an","city":"Beneden Prinsen Kwartier","coordinates":{"lat":"18.0333333","long":"-63.0333333"}},{"country":"an","city":"Benesuela","coordinates":{"lat":"12.2666667","long":"-68.3333333"}},{"country":"an","city":"Benners","coordinates":{"lat":"17.4833333","long":"-62.9833333"}},{"country":"an","city":"Berg Altena","coordinates":{"lat":"12.1077778","long":"-68.9175"}},{"country":"an","city":"Blomonte","coordinates":{"lat":"12.15","long":"-68.9333333"}},{"country":"an","city":"Blomonti","coordinates":{"lat":"12.15","long":"-68.9333333"}},{"country":"an","city":"Bloomingdale","coordinates":{"lat":"18.0166667","long":"-63.0333333"}},{"country":"an","city":"Boka Samí","coordinates":{"lat":"12.1333333","long":"-68.9833333"}},{"country":"an","city":"Bona Vista","coordinates":{"lat":"12.1166667","long":"-68.85"}},{"country":"an","city":"Bonavista","coordinates":{"lat":"12.1666667","long":"-68.9833333"}},{"country":"an","city":"Botele","coordinates":{"lat":"12.2333333","long":"-68.3166667"}},{"country":"an","city":"Bottom","coordinates":{"lat":"17.6333333","long":"-63.25"}},{"country":"an","city":"Bouille","coordinates":{"lat":"17.4666667","long":"-62.9666667"}},{"country":"an","city":"Bou'i Seru","coordinates":{"lat":"12.3","long":"-69.1"}},{"country":"an","city":"Boven Bolivia","coordinates":{"lat":"12.1833333","long":"-68.2166667"}},{"country":"an","city":"Boven Prinsen","coordinates":{"lat":"18.0333333","long":"-63.0333333"}},{"country":"an","city":"Boven Prinsen Kwartier","coordinates":{"lat":"18.0333333","long":"-63.0333333"}},{"country":"an","city":"Bricat","coordinates":{"lat":"12.15","long":"-68.2166667"}},{"country":"an","city":"Brievengat","coordinates":{"lat":"12.15","long":"-68.9"}},{"country":"an","city":"Buena Esperansa","coordinates":{"lat":"12.1666667","long":"-68.2166667"}},{"country":"an","city":"Buena Vista","coordinates":{"lat":"12.1333333","long":"-68.95"}},{"country":"an","city":"Bullenbaai","coordinates":{"lat":"12.1666667","long":"-69.0"}},{"country":"an","city":"Caranjito","coordinates":{"lat":"12.1333333","long":"-68.25"}},{"country":"an","city":"Cas Chikitoe","coordinates":{"lat":"12.1166667","long":"-68.9666667"}},{"country":"an","city":"Cas Corá","coordinates":{"lat":"12.1666667","long":"-68.2166667"}},{"country":"an","city":"Cerrito","coordinates":{"lat":"12.1166667","long":"-68.9166667"}},{"country":"an","city":"Chapel Piece","coordinates":{"lat":"17.4666667","long":"-62.9833333"}},{"country":"an","city":"Cher Asile","coordinates":{"lat":"12.1066667","long":"-68.9152778"}},{"country":"an","city":"Coeroeboeroe","coordinates":{"lat":"12.2","long":"-68.2666667"}},{"country":"an","city":"Colon","coordinates":{"lat":"12.1138889","long":"-68.9402778"}},{"country":"an","city":"Concordia","coordinates":{"lat":"17.4833333","long":"-62.9666667"}},{"country":"an","city":"Cornet","coordinates":{"lat":"12.1058333","long":"-68.92"}},{"country":"an","city":"Cottage Pasture","coordinates":{"lat":"17.4833333","long":"-62.9833333"}},{"country":"an","city":"Crispeen","coordinates":{"lat":"17.6166667","long":"-63.2333333"}},{"country":"an","city":"Cul de Sac","coordinates":{"lat":"18.0333333","long":"-63.0666667"}},{"country":"an","city":"Cupe Coy","coordinates":{"lat":"18.05","long":"-63.1333333"}},{"country":"an","city":"Deenterra","coordinates":{"lat":"12.1666667","long":"-68.2666667"}},{"country":"an","city":"Defiance","coordinates":{"lat":"18.0333333","long":"-63.0333333"}},{"country":"an","city":"De Hoop","coordinates":{"lat":"12.1333333","long":"-68.95"}},{"country":"an","city":"Dentera","coordinates":{"lat":"12.1666667","long":"-68.2666667"}},{"country":"an","city":"Den Tuna","coordinates":{"lat":"12.1666667","long":"-68.2666667"}},{"country":"an","city":"Diamond","coordinates":{"lat":"18.0333333","long":"-63.0833333"}},{"country":"an","city":"Domi","coordinates":{"lat":"12.1175","long":"-68.9427778"}},{"country":"an","city":"Domingitu","coordinates":{"lat":"12.1","long":"-68.9"}},{"country":"an","city":"Dominguito","coordinates":{"lat":"12.1","long":"-68.9"}},{"country":"an","city":"Dorp Antriol","coordinates":{"lat":"12.1666667","long":"-68.2666667"}},{"country":"an","city":"Dorp Lagoen","coordinates":{"lat":"12.3166667","long":"-69.1666667"}},{"country":"an","city":"Dorp Lagún","coordinates":{"lat":"12.3166667","long":"-69.1666667"}},{"country":"an","city":"Dorp Nikiboco","coordinates":{"lat":"12.15","long":"-68.2666667"}},{"country":"an","city":"Dorp Nikiboko","coordinates":{"lat":"12.15","long":"-68.2666667"}},{"country":"an","city":"Dorp Noor i Sãlina","coordinates":{"lat":"12.1833333","long":"-68.2666667"}},{"country":"an","city":"Dorp Nor i Saliña","coordinates":{"lat":"12.1833333","long":"-68.2666667"}},{"country":"an","city":"Dorp Rincan","coordinates":{"lat":"12.2333333","long":"-68.3333333"}},{"country":"an","city":"Dorp Rincón","coordinates":{"lat":"12.2333333","long":"-68.3333333"}},{"country":"an","city":"Dorp Sabana","coordinates":{"lat":"12.15","long":"-68.25"}},{"country":"an","city":"Dorp Sint Michiel","coordinates":{"lat":"12.1333333","long":"-68.9833333"}},{"country":"an","city":"Dorp Sint Willebrordus","coordinates":{"lat":"12.2166667","long":"-69.05"}},{"country":"an","city":"Dorp Sint Willibrordus","coordinates":{"lat":"12.2166667","long":"-69.05"}},{"country":"an","city":"Dorp Soto","coordinates":{"lat":"12.2666667","long":"-69.1"}},{"country":"an","city":"Dorp Tera Corá","coordinates":{"lat":"12.1333333","long":"-68.2666667"}},{"country":"an","city":"Dorp Tera Kora","coordinates":{"lat":"12.1333333","long":"-68.2666667"}},{"country":"an","city":"Dorp Westpunt","coordinates":{"lat":"12.3666667","long":"-69.1333333"}},{"country":"an","city":"Emmastad","coordinates":{"lat":"12.1333333","long":"-68.9166667"}},{"country":"an","city":"Emmstad","coordinates":{"lat":"12.1333333","long":"-68.9166667"}},{"country":"an","city":"English Quarter","coordinates":{"lat":"17.6166667","long":"-63.2166667"}},{"country":"an","city":"Entrejol","coordinates":{"lat":"12.1666667","long":"-68.2666667"}},{"country":"an","city":"Experiment","coordinates":{"lat":"18.0166667","long":"-63.0333333"}},{"country":"an","city":"Filipsburg","coordinates":{"lat":"18.0166667","long":"-63.0333333"}},{"country":"an","city":"Fiscal","coordinates":{"lat":"17.4833333","long":"-62.9833333"}},{"country":"an","city":"Fleur de Marie","coordinates":{"lat":"12.1","long":"-68.9166667"}},{"country":"an","city":"Fontein","coordinates":{"lat":"12.25","long":"-69.0833333"}},{"country":"an","city":"Fortuna Abau","coordinates":{"lat":"12.1666667","long":"-68.9166667"}},{"country":"an","city":"Fortuna Abou","coordinates":{"lat":"12.1666667","long":"-68.9166667"}},{"country":"an","city":"Fortuna Abu","coordinates":{"lat":"12.1666667","long":"-68.9166667"}},{"country":"an","city":"Gato","coordinates":{"lat":"12.1666667","long":"-68.9666667"}},{"country":"an","city":"Gilheads","coordinates":{"lat":"17.4666667","long":"-62.9666667"}},{"country":"an","city":"Glass Bottle","coordinates":{"lat":"17.4666667","long":"-62.9666667"}},{"country":"an","city":"Godet","coordinates":{"lat":"17.4833333","long":"-62.9833333"}},{"country":"an","city":"Golden Rock","coordinates":{"lat":"17.4833333","long":"-62.9833333"}},{"country":"an","city":"Great Bay","coordinates":{"lat":"18.0166667","long":"-63.0333333"}},{"country":"an","city":"Groot Kwartier","coordinates":{"lat":"12.1333333","long":"-68.9166667"}},{"country":"an","city":"Guatemala","coordinates":{"lat":"12.1666667","long":"-68.2333333"}},{"country":"an","city":"Habai","coordinates":{"lat":"12.1263889","long":"-68.9483333"}},{"country":"an","city":"Hato","coordinates":{"lat":"12.1833333","long":"-68.2833333"}},{"country":"an","city":"Hearty","coordinates":{"lat":"17.4833333","long":"-62.9666667"}},{"country":"an","city":"Hellsgate","coordinates":{"lat":"17.65","long":"-63.2333333"}},{"country":"an","city":"Hoop","coordinates":{"lat":"12.1166667","long":"-68.2833333"}},{"country":"an","city":"Industrie","coordinates":{"lat":"18.0333333","long":"-63.0666667"}},{"country":"an","city":"Ishiri","coordinates":{"lat":"12.1333333","long":"-68.2333333"}},{"country":"an","city":"Jan Doran","coordinates":{"lat":"12.2166667","long":"-68.35"}},{"country":"an","city":"Jan Doret","coordinates":{"lat":"12.15","long":"-68.9666667"}},{"country":"an","city":"Janwé","coordinates":{"lat":"12.1","long":"-68.9"}},{"country":"an","city":"Jan Zoutvat","coordinates":{"lat":"12.0916667","long":"-68.85"}},{"country":"an","city":"Juan Domingo","coordinates":{"lat":"12.1666667","long":"-68.95"}},{"country":"an","city":"Juicio","coordinates":{"lat":"12.1166667","long":"-68.9666667"}},{"country":"an","city":"Julianadorp","coordinates":{"lat":"12.15","long":"-68.95"}},{"country":"an","city":"Juliandorp","coordinates":{"lat":"12.15","long":"-68.95"}},{"country":"an","city":"Karké","coordinates":{"lat":"12.2333333","long":"-69.0333333"}},{"country":"an","city":"Kas Chikitu","coordinates":{"lat":"12.1166667","long":"-68.9666667"}},{"country":"an","city":"Kashu Tuin","coordinates":{"lat":"12.2","long":"-69.0166667"}},{"country":"an","city":"Kibra Hacha","coordinates":{"lat":"12.1666667","long":"-68.2666667"}},{"country":"an","city":"Koera Joeri","coordinates":{"lat":"12.35","long":"-69.15"}},{"country":"an","city":"Kokorobi","coordinates":{"lat":"12.2333333","long":"-68.3166667"}},{"country":"an","city":"Kolontjie","coordinates":{"lat":"12.1166667","long":"-68.9"}},{"country":"an","city":"Koolbaai","coordinates":{"lat":"18.0333333","long":"-63.0666667"}},{"country":"an","city":"Kortijn","coordinates":{"lat":"12.1152778","long":"-68.9375"}},{"country":"an","city":"Krakeel","coordinates":{"lat":"12.2333333","long":"-69.0333333"}},{"country":"an","city":"Kralendijk","coordinates":{"lat":"12.15","long":"-68.2666667"}},{"country":"an","city":"Kunchi","coordinates":{"lat":"12.25","long":"-68.3"}},{"country":"an","city":"Kunuku Abou","coordinates":{"lat":"12.2","long":"-69.0166667"}},{"country":"an","city":"Kura Juri","coordinates":{"lat":"12.35","long":"-69.15"}},{"country":"an","city":"Kuruburu","coordinates":{"lat":"12.2","long":"-68.2666667"}},{"country":"an","city":"Labra","coordinates":{"lat":"12.25","long":"-68.3833333"}},{"country":"an","city":"Lagoen","coordinates":{"lat":"12.3166667","long":"-69.1666667"}},{"country":"an","city":"Lagún","coordinates":{"lat":"12.3166667","long":"-69.1666667"}},{"country":"an","city":"Leeuwarden","coordinates":{"lat":"12.2166667","long":"-68.2666667"}},{"country":"an","city":"Leverock Town","coordinates":{"lat":"17.6333333","long":"-63.25"}},{"country":"an","city":"Libie","coordinates":{"lat":"12.1166667","long":"-68.8666667"}},{"country":"an","city":"Lower Hell's Gate","coordinates":{"lat":"17.6333333","long":"-63.2166667"}},{"country":"an","city":"Lower Prince's Quarter","coordinates":{"lat":"18.0333333","long":"-63.0333333"}},{"country":"an","city":"Lower Town","coordinates":{"lat":"17.4666667","long":"-62.9833333"}},{"country":"an","city":"Mansion","coordinates":{"lat":"17.4833333","long":"-62.9666667"}},{"country":"an","city":"Marchena","coordinates":{"lat":"12.1166667","long":"-68.9333333"}},{"country":"an","city":"Mari Pompun","coordinates":{"lat":"12.1","long":"-68.9083333"}},{"country":"an","city":"Mary's Fancy","coordinates":{"lat":"18.0333333","long":"-63.05"}},{"country":"an","city":"Mentor","coordinates":{"lat":"12.1666667","long":"-68.2666667"}},{"country":"an","city":"Middle Region","coordinates":{"lat":"18.0333333","long":"-63.0333333"}},{"country":"an","city":"Montange","coordinates":{"lat":"12.1","long":"-68.8666667"}},{"country":"an","city":"Montan'i Rei","coordinates":{"lat":"12.1","long":"-68.8666667"}},{"country":"an","city":"Montanja di Reij","coordinates":{"lat":"12.1","long":"-68.8666667"}},{"country":"an","city":"Montanje","coordinates":{"lat":"12.1","long":"-68.8666667"}},{"country":"an","city":"Morgenster","coordinates":{"lat":"12.0833333","long":"-68.8333333"}},{"country":"an","city":"Motet","coordinates":{"lat":"12.1166667","long":"-68.9333333"}},{"country":"an","city":"Mountain Piece","coordinates":{"lat":"17.4833333","long":"-62.95"}},{"country":"an","city":"Mundo","coordinates":{"lat":"12.1161111","long":"-68.9472222"}},{"country":"an","city":"Mundo Nobo","coordinates":{"lat":"12.1","long":"-68.9666667"}},{"country":"an","city":"Nazareth","coordinates":{"lat":"18.05","long":"-63.0333333"}},{"country":"an","city":"New Ground","coordinates":{"lat":"17.4833333","long":"-62.9833333"}},{"country":"an","city":"Newport","coordinates":{"lat":"12.05","long":"-68.8166667"}},{"country":"an","city":"Nieuw Nederland","coordinates":{"lat":"12.1038889","long":"-68.9166667"}},{"country":"an","city":"Nieuwpoort","coordinates":{"lat":"12.05","long":"-68.8166667"}},{"country":"an","city":"Nikiboko","coordinates":{"lat":"12.15","long":"-68.2666667"}},{"country":"an","city":"Nobo","coordinates":{"lat":"12.1144444","long":"-68.9466667"}},{"country":"an","city":"Noord di Salinja","coordinates":{"lat":"12.1833333","long":"-68.2666667"}},{"country":"an","city":"One Hoe","coordinates":{"lat":"18.05","long":"-63.0333333"}},{"country":"an","city":"Onima","coordinates":{"lat":"12.25","long":"-68.3166667"}},{"country":"an","city":"Orange Grove","coordinates":{"lat":"18.0333333","long":"-63.0833333"}},{"country":"an","city":"Orange Town","coordinates":{"lat":"17.4666667","long":"-62.9833333"}},{"country":"an","city":"Oranje Pan","coordinates":{"lat":"12.0333333","long":"-68.25"}},{"country":"an","city":"Oranjestad","coordinates":{"lat":"17.4666667","long":"-62.9833333"}},{"country":"an","city":"Orinoco","coordinates":{"lat":"12.15","long":"-68.2166667"}},{"country":"an","city":"Otrabanda","coordinates":{"lat":"12.1166667","long":"-68.95"}},{"country":"an","city":"Otrobanda","coordinates":{"lat":"12.1166667","long":"-68.95"}},{"country":"an","city":"Over the Pond","coordinates":{"lat":"18.0333333","long":"-63.05"}},{"country":"an","city":"Overzijde","coordinates":{"lat":"12.1166667","long":"-68.95"}},{"country":"an","city":"Paradijs","coordinates":{"lat":"12.1088889","long":"-68.9133333"}},{"country":"an","city":"Para Mira","coordinates":{"lat":"12.2333333","long":"-68.3333333"}},{"country":"an","city":"Paramira","coordinates":{"lat":"17.4833333","long":"-62.9666667"}},{"country":"an","city":"Pareira","coordinates":{"lat":"12.1","long":"-68.9166667"}},{"country":"an","city":"Parera","coordinates":{"lat":"12.1","long":"-68.9166667"}},{"country":"an","city":"Philipsburg","coordinates":{"lat":"18.0166667","long":"-63.0333333"}},{"country":"an","city":"Pietermaai","coordinates":{"lat":"12.1","long":"-68.9166667"}},{"country":"an","city":"Pine Garden","coordinates":{"lat":"18.0333333","long":"-63.0333333"}},{"country":"an","city":"Playa","coordinates":{"lat":"12.15","long":"-68.2666667"}},{"country":"an","city":"Porta Makaku","coordinates":{"lat":"12.2666667","long":"-68.3333333"}},{"country":"an","city":"Porto Spaño","coordinates":{"lat":"12.2333333","long":"-68.2666667"}},{"country":"an","city":"Prospect Farm","coordinates":{"lat":"18.0333333","long":"-63.0666667"}},{"country":"an","city":"Prospect","coordinates":{"lat":"17.4666667","long":"-62.9833333"}},{"country":"an","city":"Punda","coordinates":{"lat":"12.1","long":"-68.9166667"}},{"country":"an","city":"Rancho","coordinates":{"lat":"12.15","long":"-68.9166667"}},{"country":"an","city":"Republiek","coordinates":{"lat":"12.15","long":"-68.25"}},{"country":"an","city":"Rigot","coordinates":{"lat":"12.25","long":"-68.35"}},{"country":"an","city":"Rincón","coordinates":{"lat":"12.2333333","long":"-68.3333333"}},{"country":"an","city":"Riscado","coordinates":{"lat":"12.2333333","long":"-68.3666667"}},{"country":"an","city":"Rockland","coordinates":{"lat":"18.0333333","long":"-63.05"}},{"country":"an","city":"Rood Huis","coordinates":{"lat":"12.1666667","long":"-68.2166667"}},{"country":"an","city":"Roosendaal","coordinates":{"lat":"12.1333333","long":"-68.95"}},{"country":"an","city":"Roozendaal","coordinates":{"lat":"12.1333333","long":"-68.25"}},{"country":"an","city":"Rozendaal","coordinates":{"lat":"12.1333333","long":"-68.95"}},{"country":"an","city":"Rust en Vrede","coordinates":{"lat":"12.1166667","long":"-68.9"}},{"country":"an","city":"Rustoord","coordinates":{"lat":"12.1166667","long":"-68.9"}},{"country":"an","city":"Rust","coordinates":{"lat":"12.1166667","long":"-68.9"}},{"country":"an","city":"Sabana Westpunt","coordinates":{"lat":"12.3666667","long":"-69.1666667"}},{"country":"an","city":"Sabaneta","coordinates":{"lat":"12.2333333","long":"-68.3333333"}},{"country":"an","city":"Saint John's Flat","coordinates":{"lat":"17.6166667","long":"-63.2333333"}},{"country":"an","city":"Saint Peter","coordinates":{"lat":"18.05","long":"-63.0666667"}},{"country":"an","city":"Saliña Abou","coordinates":{"lat":"12.1","long":"-68.9"}},{"country":"an","city":"Saliña","coordinates":{"lat":"12.1666667","long":"-68.2666667"}},{"country":"an","city":"Salinja","coordinates":{"lat":"12.1","long":"-68.9"}},{"country":"an","city":"San Bernardo","coordinates":{"lat":"12.1833333","long":"-68.2666667"}},{"country":"an","city":"San José","coordinates":{"lat":"12.1166667","long":"-68.2333333"}},{"country":"an","city":"San Pedro","coordinates":{"lat":"12.25","long":"-69.0333333"}},{"country":"an","city":"Santa Catarina","coordinates":{"lat":"12.15","long":"-68.2166667"}},{"country":"an","city":"Santa Clara","coordinates":{"lat":"12.1333333","long":"-68.2166667"}},{"country":"an","city":"Santa Cruz","coordinates":{"lat":"12.2333333","long":"-68.35"}},{"country":"an","city":"Santa Krus","coordinates":{"lat":"12.3","long":"-69.1333333"}},{"country":"an","city":"Santa Maria","coordinates":{"lat":"12.15","long":"-68.9333333"}},{"country":"an","city":"Santa Rosa","coordinates":{"lat":"12.1166667","long":"-68.8833333"}},{"country":"an","city":"Saunders","coordinates":{"lat":"18.0333333","long":"-63.05"}},{"country":"an","city":"Schaarlo","coordinates":{"lat":"12.1","long":"-68.9166667"}},{"country":"an","city":"Scharloo","coordinates":{"lat":"12.1","long":"-68.9166667"}},{"country":"an","city":"Schotsenhoek","coordinates":{"lat":"17.4833333","long":"-62.9833333"}},{"country":"an","city":"Senkuria","coordinates":{"lat":"12.15","long":"-68.2666667"}},{"country":"an","city":"Ser'i Bientu","coordinates":{"lat":"12.3166667","long":"-69.1"}},{"country":"an","city":"Seritu","coordinates":{"lat":"12.1166667","long":"-68.9166667"}},{"country":"an","city":"Seroe Bientoe","coordinates":{"lat":"12.3166667","long":"-69.1"}},{"country":"an","city":"Seroebiento","coordinates":{"lat":"12.3166667","long":"-69.1"}},{"country":"an","city":"Simsonbaai","coordinates":{"lat":"18.0333333","long":"-63.1"}},{"country":"an","city":"Simson Bay Village","coordinates":{"lat":"18.0333333","long":"-63.1"}},{"country":"an","city":"Simsons Bay","coordinates":{"lat":"18.0333333","long":"-63.1"}},{"country":"an","city":"Sint Jago","coordinates":{"lat":"12.1097222","long":"-68.9222222"}},{"country":"an","city":"Sint John","coordinates":{"lat":"17.6166667","long":"-63.2333333"}},{"country":"an","city":"Sint John's","coordinates":{"lat":"17.6166667","long":"-63.2333333"}},{"country":"an","city":"Sint Joris","coordinates":{"lat":"12.2333333","long":"-68.3333333"}},{"country":"an","city":"Sint Josefsdal","coordinates":{"lat":"12.2833333","long":"-69.0833333"}},{"country":"an","city":"Sint Jozefdal","coordinates":{"lat":"12.2833333","long":"-69.0833333"}},{"country":"an","city":"Sint Jozefsdal","coordinates":{"lat":"12.2833333","long":"-69.0833333"}},{"country":"an","city":"Sint Michiel Liber","coordinates":{"lat":"12.15","long":"-68.9833333"}},{"country":"an","city":"Sint Michiel","coordinates":{"lat":"12.1333333","long":"-68.9833333"}},{"country":"an","city":"Sint Willebrordus","coordinates":{"lat":"12.2166667","long":"-69.05"}},{"country":"an","city":"Slangenbaai","coordinates":{"lat":"12.1333333","long":"-68.9833333"}},{"country":"an","city":"Soto","coordinates":{"lat":"12.2666667","long":"-69.1"}},{"country":"an","city":"Spring Garden","coordinates":{"lat":"18.0333333","long":"-63.0333333"}},{"country":"an","city":"Steenrijk","coordinates":{"lat":"12.1005556","long":"-68.9105556"}},{"country":"an","city":"Su Casa","coordinates":{"lat":"12.1166667","long":"-68.9666667"}},{"country":"an","city":"Sucker Garden","coordinates":{"lat":"18.0333333","long":"-63.0333333"}},{"country":"an","city":"Suffisant Dorp","coordinates":{"lat":"12.15","long":"-68.9166667"}},{"country":"an","city":"Suriname Dorp","coordinates":{"lat":"12.15","long":"-68.9333333"}},{"country":"an","city":"Tera Hundu","coordinates":{"lat":"12.1833333","long":"-68.2666667"}},{"country":"an","city":"Terra Corra","coordinates":{"lat":"12.1333333","long":"-68.2666667"}},{"country":"an","city":"The Bottom","coordinates":{"lat":"17.6333333","long":"-63.25"}},{"country":"an","city":"The Corner","coordinates":{"lat":"18.0166667","long":"-63.0833333"}},{"country":"an","city":"The Gap","coordinates":{"lat":"17.6166667","long":"-63.25"}},{"country":"an","city":"The Hope","coordinates":{"lat":"18.0166667","long":"-63.0333333"}},{"country":"an","city":"The Level","coordinates":{"lat":"17.6166667","long":"-63.2166667"}},{"country":"an","city":"The Villa","coordinates":{"lat":"18.0166667","long":"-63.05"}},{"country":"an","city":"Trial","coordinates":{"lat":"18.0333333","long":"-63.05"}},{"country":"an","city":"Union Farm","coordinates":{"lat":"18.05","long":"-63.0333333"}},{"country":"an","city":"Upper Hell's Gate","coordinates":{"lat":"17.65","long":"-63.2333333"}},{"country":"an","city":"Upper Prince's Quarter","coordinates":{"lat":"18.0333333","long":"-63.0333333"}},{"country":"an","city":"Upper Town","coordinates":{"lat":"17.4666667","long":"-62.9833333"}},{"country":"an","city":"Valentijn","coordinates":{"lat":"12.1166667","long":"-68.9333333"}},{"country":"an","city":"Venezuela","coordinates":{"lat":"12.2666667","long":"-68.3333333"}},{"country":"an","city":"Vianen","coordinates":{"lat":"12.1","long":"-68.9166667"}},{"country":"an","city":"Vineyard","coordinates":{"lat":"18.0166667","long":"-63.0333333"}},{"country":"an","city":"Vlijt","coordinates":{"lat":"12.1666667","long":"-68.2666667"}},{"country":"an","city":"Vredeberg","coordinates":{"lat":"12.0916667","long":"-68.85"}},{"country":"an","city":"Vredenberg","coordinates":{"lat":"12.0916667","long":"-68.85"}},{"country":"an","city":"Wanapa","coordinates":{"lat":"12.1166667","long":"-68.2333333"}},{"country":"an","city":"Weis Afó","coordinates":{"lat":"12.15","long":"-68.9333333"}},{"country":"an","city":"Weis","coordinates":{"lat":"12.15","long":"-68.9333333"}},{"country":"an","city":"Weitje","coordinates":{"lat":"12.0166667","long":"-68.9833333"}},{"country":"an","city":"Welgelegen","coordinates":{"lat":"12.12","long":"-68.9466667"}},{"country":"an","city":"Westpunt","coordinates":{"lat":"12.3666667","long":"-69.1666667"}},{"country":"an","city":"Willebrordus","coordinates":{"lat":"12.2166667","long":"-69.05"}},{"country":"an","city":"Willemstad","coordinates":{"lat":"12.1","long":"-68.9166667"}},{"country":"an","city":"Wilton","coordinates":{"lat":"17.4666667","long":"-62.9833333"}},{"country":"an","city":"Windsor","coordinates":{"lat":"18.0166667","long":"-63.0833333"}},{"country":"an","city":"Windward Side","coordinates":{"lat":"17.6333333","long":"-63.2333333"}},{"country":"an","city":"Wishi","coordinates":{"lat":"12.1166667","long":"-68.9666667"}},{"country":"an","city":"Zeelandia","coordinates":{"lat":"12.1166667","long":"-68.9"}}]