[{"country":"pe","city":"3 De Octubre","coordinates":{"lat":"-9.1166667","long":"-78.55"}},{"country":"pe","city":"Abancai","coordinates":{"lat":"-13.6338889","long":"-72.8813889"}},{"country":"pe","city":"Abancay","coordinates":{"lat":"-13.6338889","long":"-72.8813889"}},{"country":"pe","city":"Abas Chacra","coordinates":{"lat":"-15.4305556","long":"-73.4975"}},{"country":"pe","city":"Abisinia","coordinates":{"lat":"-13.9833333","long":"-75.7"}},{"country":"pe","city":"Abracala","coordinates":{"lat":"-16.1163889","long":"-71.7327778"}},{"country":"pe","city":"Abra de Huillque","coordinates":{"lat":"-13.45","long":"-72.3666667"}},{"country":"pe","city":"Abrojal","coordinates":{"lat":"-6.3666667","long":"-79.8166667"}},{"country":"pe","city":"Abujao","coordinates":{"lat":"-8.1833333","long":"-73.7666667"}},{"country":"pe","city":"Aburgos","coordinates":{"lat":"-8.3166667","long":"-78.1833333"}},{"country":"pe","city":"Acabara","coordinates":{"lat":"-13.1194444","long":"-73.9502778"}},{"country":"pe","city":"Acachare","coordinates":{"lat":"-12.2833333","long":"-76.2"}},{"country":"pe","city":"Acacoto","coordinates":{"lat":"-11.7166667","long":"-76.8833333"}},{"country":"pe","city":"Acain","coordinates":{"lat":"-10.8933333","long":"-76.8008333"}},{"country":"pe","city":"Acalcane","coordinates":{"lat":"-15.0411111","long":"-72.4494444"}},{"country":"pe","city":"Acallario","coordinates":{"lat":"-13.85","long":"-74.5333333"}},{"country":"pe","city":"Acanane","coordinates":{"lat":"-15.4","long":"-69.3333333"}},{"country":"pe","city":"Acancocha","coordinates":{"lat":"-11.0261111","long":"-75.7577778"}},{"country":"pe","city":"Acanuari","coordinates":{"lat":"-14.7958333","long":"-71.6805556"}},{"country":"pe","city":"Acapampa","coordinates":{"lat":"-15.3666667","long":"-70.0666667"}},{"country":"pe","city":"Acapulco","coordinates":{"lat":"-3.7436111","long":"-80.7777778"}},{"country":"pe","city":"Acaray","coordinates":{"lat":"-11.0666667","long":"-77.55"}},{"country":"pe","city":"Acaray Hacienda","coordinates":{"lat":"-11.0666667","long":"-77.55"}},{"country":"pe","city":"Acarí","coordinates":{"lat":"-15.4311111","long":"-74.6158333"}},{"country":"pe","city":"Acaricocha","coordinates":{"lat":"-11.15","long":"-75.7666667"}},{"country":"pe","city":"Acas","coordinates":{"lat":"-10.45","long":"-77.3166667"}},{"country":"pe","city":"Acathuta","coordinates":{"lat":"-17.3166667","long":"-69.7166667"}},{"country":"pe","city":"Acavilla","coordinates":{"lat":"-15.4166667","long":"-74.3166667"}},{"country":"pe","city":"Accepata","coordinates":{"lat":"-15.2147222","long":"-71.3363889"}},{"country":"pe","city":"Acce Punco","coordinates":{"lat":"-14.2572222","long":"-71.2966667"}},{"country":"pe","city":"Accerane","coordinates":{"lat":"-14.6361111","long":"-71.9244444"}},{"country":"pe","city":"Accha","coordinates":{"lat":"-13.9738889","long":"-71.8266667"}},{"country":"pe","city":"Acchabamba","coordinates":{"lat":"-13.85","long":"-72.0833333"}},{"country":"pe","city":"Acchabamba Hacienda","coordinates":{"lat":"-13.85","long":"-72.0833333"}},{"country":"pe","city":"Acchanca","coordinates":{"lat":"-15.7372222","long":"-72.5611111"}},{"country":"pe","city":"Acchapuna","coordinates":{"lat":"-15.4786111","long":"-72.9452778"}},{"country":"pe","city":"Acchimachay","coordinates":{"lat":"-13.35","long":"-74.8"}},{"country":"pe","city":"Acchupata","coordinates":{"lat":"-7.3","long":"-78.0333333"}},{"country":"pe","city":"Accitinquina","coordinates":{"lat":"-15.5775","long":"-71.7575"}},{"country":"pe","city":"Accmay","coordinates":{"lat":"-13.75","long":"-73.9666667"}},{"country":"pe","city":"Acco","coordinates":{"lat":"-9.0666667","long":"-77.1"}},{"country":"pe","city":"Acco","coordinates":{"lat":"-15.1047222","long":"-72.8938889"}},{"country":"pe","city":"Acco","coordinates":{"lat":"-14.2005556","long":"-71.4366667"}},{"country":"pe","city":"Accocancha Alto","coordinates":{"lat":"-12.1833333","long":"-75.45"}},{"country":"pe","city":"Accoccasa","coordinates":{"lat":"-13.5333333","long":"-74.3333333"}},{"country":"pe","city":"Accoccasa","coordinates":{"lat":"-13.8833333","long":"-75.1833333"}},{"country":"pe","city":"Accocerca","coordinates":{"lat":"-13.1333333","long":"-74.95"}},{"country":"pe","city":"Accocucho","coordinates":{"lat":"-13.1833333","long":"-74.6166667"}},{"country":"pe","city":"Accocunca","coordinates":{"lat":"-13.8833333","long":"-74.0166667"}},{"country":"pe","city":"Accocunca","coordinates":{"lat":"-14.7694444","long":"-71.2541667"}},{"country":"pe","city":"Acco Cunca","coordinates":{"lat":"-14.7694444","long":"-71.2541667"}},{"country":"pe","city":"Accocunta","coordinates":{"lat":"-15.2063889","long":"-71.6852778"}},{"country":"pe","city":"Accohuasa","coordinates":{"lat":"-14.9227778","long":"-71.5041667"}},{"country":"pe","city":"Accohuaycco","coordinates":{"lat":"-15.1333333","long":"-74.25"}},{"country":"pe","city":"Accoma","coordinates":{"lat":"-15.7466667","long":"-71.3697222"}},{"country":"pe","city":"Accomarca","coordinates":{"lat":"-13.8033333","long":"-73.9041667"}},{"country":"pe","city":"Accomocco","coordinates":{"lat":"-13.5833333","long":"-74.2"}},{"country":"pe","city":"Accontaña","coordinates":{"lat":"-15.5333333","long":"-71.3291667"}},{"country":"pe","city":"Acco-Pampa","coordinates":{"lat":"-9.2833333","long":"-77.6"}},{"country":"pe","city":"Accopampa","coordinates":{"lat":"-13.0833333","long":"-74.9333333"}},{"country":"pe","city":"Accopata","coordinates":{"lat":"-15.3502778","long":"-71.3563889"}},{"country":"pe","city":"Accopata","coordinates":{"lat":"-13.2833333","long":"-74.8333333"}},{"country":"pe","city":"Accopiñata","coordinates":{"lat":"-15.1908333","long":"-71.3830556"}},{"country":"pe","city":"Accopunco","coordinates":{"lat":"-14.9363889","long":"-71.825"}},{"country":"pe","city":"Accopuquío","coordinates":{"lat":"-13.1833333","long":"-74.3833333"}},{"country":"pe","city":"Acco Rana","coordinates":{"lat":"-15.3994444","long":"-71.2555556"}},{"country":"pe","city":"Accorane","coordinates":{"lat":"-15.2322222","long":"-71.3933333"}},{"country":"pe","city":"Accoro","coordinates":{"lat":"-13.4666667","long":"-74.6666667"}},{"country":"pe","city":"Accosanqui","coordinates":{"lat":"-15.0833333","long":"-73.7833333"}},{"country":"pe","city":"Accositanga","coordinates":{"lat":"-15.2036111","long":"-73.1869444"}},{"country":"pe","city":"Accosora","coordinates":{"lat":"-15.2266667","long":"-71.3133333"}},{"country":"pe","city":"Acco Sututo","coordinates":{"lat":"-14.6130556","long":"-71.9197222"}},{"country":"pe","city":"Accota","coordinates":{"lat":"-15.6672222","long":"-72.4911111"}},{"country":"pe","city":"Accotaña","coordinates":{"lat":"-15.2727778","long":"-71.8858333"}},{"country":"pe","city":"Accotira","coordinates":{"lat":"-15.0997222","long":"-71.24"}},{"country":"pe","city":"Accoytanca","coordinates":{"lat":"-15.2008333","long":"-71.2594444"}},{"country":"pe","city":"Accpitán","coordinates":{"lat":"-13.85","long":"-72.4333333"}},{"country":"pe","city":"Accsahua","coordinates":{"lat":"-13.15","long":"-74.9"}},{"country":"pe","city":"Acctapa","coordinates":{"lat":"-14.4666667","long":"-74.3"}},{"country":"pe","city":"Accuata","coordinates":{"lat":"-15.0888889","long":"-70.9169444"}},{"country":"pe","city":"Acequia Alta","coordinates":{"lat":"-16.36","long":"-71.5430556"}},{"country":"pe","city":"Acerca","coordinates":{"lat":"-11.0958333","long":"-76.6986111"}},{"country":"pe","city":"Aceroccollo","coordinates":{"lat":"-14.8005556","long":"-71.79"}},{"country":"pe","city":"Acero Patjata","coordinates":{"lat":"-16.25","long":"-69.1333333"}},{"country":"pe","city":"Achacala","coordinates":{"lat":"-16.7166667","long":"-70.35"}},{"country":"pe","city":"Achacalane","coordinates":{"lat":"-16.6833333","long":"-70.5666667"}},{"country":"pe","city":"Achacana","coordinates":{"lat":"-13.6166667","long":"-74.9666667"}},{"country":"pe","city":"Achacarca","coordinates":{"lat":"-15.0166667","long":"-69.55"}},{"country":"pe","city":"Achacco","coordinates":{"lat":"-15.1536111","long":"-71.6205556"}},{"country":"pe","city":"Achachorcro","coordinates":{"lat":"-15.335","long":"-71.7627778"}},{"country":"pe","city":"Achaco","coordinates":{"lat":"-15.2244444","long":"-72.4822222"}},{"country":"pe","city":"Achaco","coordinates":{"lat":"-14.8333333","long":"-74.9833333"}},{"country":"pe","city":"Achaco Bajo","coordinates":{"lat":"-14.8333333","long":"-74.9833333"}},{"country":"pe","city":"Achaco Hacienda","coordinates":{"lat":"-14.8333333","long":"-74.9833333"}},{"country":"pe","city":"Achacota","coordinates":{"lat":"-15.5727778","long":"-71.4338889"}},{"country":"pe","city":"Achacota Hacienda","coordinates":{"lat":"-15.5727778","long":"-71.4338889"}},{"country":"pe","city":"Achacpujo","coordinates":{"lat":"-16.8333333","long":"-70.1"}},{"country":"pe","city":"Achacuas","coordinates":{"lat":"-9.1166667","long":"-78.0333333"}},{"country":"pe","city":"Achacune","coordinates":{"lat":"-16.0333333","long":"-71.0333333"}},{"country":"pe","city":"Achacutaña","coordinates":{"lat":"-15.5016667","long":"-71.1555556"}},{"country":"pe","city":"Achaguay Alto","coordinates":{"lat":"-5.5897222","long":"-78.4741667"}},{"country":"pe","city":"Achaguay Bajo","coordinates":{"lat":"-5.6013889","long":"-78.5083333"}},{"country":"pe","city":"Achaguay Medio","coordinates":{"lat":"-5.5963889","long":"-78.495"}},{"country":"pe","city":"Achahue","coordinates":{"lat":"-14.7786111","long":"-71.6636111"}},{"country":"pe","city":"Achajrane","coordinates":{"lat":"-14.9622222","long":"-71.5488889"}},{"country":"pe","city":"Achalaca","coordinates":{"lat":"-15.3005556","long":"-71.3936111"}},{"country":"pe","city":"Achaluke","coordinates":{"lat":"-14.7133333","long":"-71.6808333"}},{"country":"pe","city":"Achamocco","coordinates":{"lat":"-16.4166667","long":"-69.6"}},{"country":"pe","city":"Achancayra","coordinates":{"lat":"-13.85","long":"-72.2333333"}},{"country":"pe","city":"Achanizo","coordinates":{"lat":"-15.8061111","long":"-73.9669444"}},{"country":"pe","city":"Achao","coordinates":{"lat":"-11.0022222","long":"-76.7019444"}},{"country":"pe","city":"Achapicuta","coordinates":{"lat":"-14.7155556","long":"-71.6066667"}},{"country":"pe","city":"Achara","coordinates":{"lat":"-12.0666667","long":"-76.2166667"}},{"country":"pe","city":"Acharrape","coordinates":{"lat":"-15.2444444","long":"-71.8527778"}},{"country":"pe","city":"Achatayhua","coordinates":{"lat":"-15.45","long":"-73.8333333"}},{"country":"pe","city":"Achaya","coordinates":{"lat":"-15.2666667","long":"-70.15"}},{"country":"pe","city":"Achaypiña","coordinates":{"lat":"-16.4","long":"-69.85"}},{"country":"pe","city":"Achcahuasi","coordinates":{"lat":"-13.3833333","long":"-74.6666667"}},{"country":"pe","city":"Achcarajay","coordinates":{"lat":"-13.6833333","long":"-74.9166667"}},{"country":"pe","city":"Achico","coordinates":{"lat":"-13.1833333","long":"-74.8333333"}},{"country":"pe","city":"Achimpa","coordinates":{"lat":"-10.0366667","long":"-76.4663889"}},{"country":"pe","city":"Achinamisa","coordinates":{"lat":"-6.4166667","long":"-75.9"}},{"country":"pe","city":"Achipina","coordinates":{"lat":"-15.2205556","long":"-71.3263889"}},{"country":"pe","city":"Achira","coordinates":{"lat":"-5.6975","long":"-79.6636111"}},{"country":"pe","city":"Achiras","coordinates":{"lat":"-8.65","long":"-76.5333333"}},{"country":"pe","city":"Achiras","coordinates":{"lat":"-7.75","long":"-77.0666667"}},{"country":"pe","city":"Acho","coordinates":{"lat":"-15.6561111","long":"-72.3077778"}},{"country":"pe","city":"Acho","coordinates":{"lat":"-12.9519444","long":"-75.7652778"}},{"country":"pe","city":"Achoacorral","coordinates":{"lat":"-14.3127778","long":"-73.7141667"}},{"country":"pe","city":"Achoma","coordinates":{"lat":"-15.6608333","long":"-71.7008333"}},{"country":"pe","city":"Achombi","coordinates":{"lat":"-15.2030556","long":"-72.8175"}},{"country":"pe","city":"Achotal","coordinates":{"lat":"-6.3911111","long":"-79.7977778"}},{"country":"pe","city":"Achoucco","coordinates":{"lat":"-16.3333333","long":"-69.85"}},{"country":"pe","city":"Achual Tipisca","coordinates":{"lat":"-5.4505556","long":"-75.8155556"}},{"country":"pe","city":"Achucala","coordinates":{"lat":"-6.3188889","long":"-79.2608333"}},{"country":"pe","city":"Achuchata","coordinates":{"lat":"-13.2666667","long":"-74.0333333"}},{"country":"pe","city":"Achullane","coordinates":{"lat":"-15.0","long":"-69.5333333"}},{"country":"pe","city":"Achumane","coordinates":{"lat":"-15.1166667","long":"-71.465"}},{"country":"pe","city":"Achumoyo","coordinates":{"lat":"-14.4269444","long":"-71.0602778"}},{"country":"pe","city":"Achupallane","coordinates":{"lat":"-15.1341667","long":"-71.5511111"}},{"country":"pe","city":"Achuranja","coordinates":{"lat":"-15.2986111","long":"-71.1327778"}},{"country":"pe","city":"Achuta","coordinates":{"lat":"-17.35","long":"-69.7166667"}},{"country":"pe","city":"Achutaña","coordinates":{"lat":"-15.2044444","long":"-71.2736111"}},{"country":"pe","city":"Achuyo","coordinates":{"lat":"-15.2063889","long":"-71.6186111"}},{"country":"pe","city":"Acllacancha","coordinates":{"lat":"-14.6","long":"-74.2833333"}},{"country":"pe","city":"Acllahuasi","coordinates":{"lat":"-13.0","long":"-74.1833333"}},{"country":"pe","city":"Acmanunpata","coordinates":{"lat":"-15.2833333","long":"-70.1666667"}},{"country":"pe","city":"Acmanupampa","coordinates":{"lat":"-15.2833333","long":"-70.1666667"}},{"country":"pe","city":"Acno","coordinates":{"lat":"-12.4666667","long":"-75.5833333"}},{"country":"pe","city":"Aco","coordinates":{"lat":"-10.5","long":"-77.2333333"}},{"country":"pe","city":"Aco","coordinates":{"lat":"-15.3383333","long":"-71.1425"}},{"country":"pe","city":"Aco","coordinates":{"lat":"-14.7694444","long":"-71.2541667"}},{"country":"pe","city":"Aco","coordinates":{"lat":"-11.95","long":"-75.3833333"}},{"country":"pe","city":"Aco","coordinates":{"lat":"-11.4311111","long":"-76.8122222"}},{"country":"pe","city":"Acobamba","coordinates":{"lat":"-14.25","long":"-72.2"}},{"country":"pe","city":"Acobamba","coordinates":{"lat":"-13.0833333","long":"-71.8"}},{"country":"pe","city":"Acobamba","coordinates":{"lat":"-12.8666667","long":"-74.5666667"}},{"country":"pe","city":"Acobamba","coordinates":{"lat":"-10.2677778","long":"-76.2683333"}},{"country":"pe","city":"Acobamba","coordinates":{"lat":"-11.3527778","long":"-75.6586111"}},{"country":"pe","city":"Acobamba","coordinates":{"lat":"-11.1772222","long":"-76.6777778"}},{"country":"pe","city":"Acobamba","coordinates":{"lat":"-10.4511111","long":"-76.1861111"}},{"country":"pe","city":"Acobamba Hacienda","coordinates":{"lat":"-14.25","long":"-72.2"}},{"country":"pe","city":"Acobamba Hacienda","coordinates":{"lat":"-8.95","long":"-77.0166667"}},{"country":"pe","city":"Acobambilla","coordinates":{"lat":"-12.6166667","long":"-74.9833333"}},{"country":"pe","city":"Acobambilla","coordinates":{"lat":"-10.1888889","long":"-76.2605556"}},{"country":"pe","city":"Acoccunca","coordinates":{"lat":"-14.7694444","long":"-71.2541667"}},{"country":"pe","city":"Acochaca","coordinates":{"lat":"-15.8983333","long":"-71.1269444"}},{"country":"pe","city":"Acochaca","coordinates":{"lat":"-11.4363889","long":"-76.6119444"}},{"country":"pe","city":"Acochacra","coordinates":{"lat":"-13.1833333","long":"-75.8333333"}},{"country":"pe","city":"Acochupa","coordinates":{"lat":"-15.6","long":"-70.25"}},{"country":"pe","city":"Acococha","coordinates":{"lat":"-10.1788889","long":"-76.3947222"}},{"country":"pe","city":"Acocollo","coordinates":{"lat":"-14.8044444","long":"-71.8261111"}},{"country":"pe","city":"Acocollo","coordinates":{"lat":"-15.3038889","long":"-70.9863889"}},{"country":"pe","city":"Acocollocucho","coordinates":{"lat":"-15.5802778","long":"-70.8094444"}},{"country":"pe","city":"Acocoto","coordinates":{"lat":"-10.7833333","long":"-77.3333333"}},{"country":"pe","city":"Acocra","coordinates":{"lat":"-15.8205556","long":"-72.6577778"}},{"country":"pe","city":"Acocra","coordinates":{"lat":"-12.1666667","long":"-75.0"}},{"country":"pe","city":"Acocro","coordinates":{"lat":"-13.2177778","long":"-74.0433333"}},{"country":"pe","city":"Acocunca","coordinates":{"lat":"-14.7694444","long":"-71.2541667"}},{"country":"pe","city":"Acocunca","coordinates":{"lat":"-15.4166667","long":"-69.4166667"}},{"country":"pe","city":"Acohuarma","coordinates":{"lat":"-12.7833333","long":"-74.9833333"}},{"country":"pe","city":"Acohuito","coordinates":{"lat":"-15.2694444","long":"-71.3847222"}},{"country":"pe","city":"Acoichinca","coordinates":{"lat":"-15.3169444","long":"-71.0344444"}},{"country":"pe","city":"Acoita","coordinates":{"lat":"-15.8361111","long":"-70.8186111"}},{"country":"pe","city":"Acola","coordinates":{"lat":"-14.6666667","long":"-74.2"}},{"country":"pe","city":"Acolla","coordinates":{"lat":"-11.7333333","long":"-75.5666667"}},{"country":"pe","city":"Acomachay","coordinates":{"lat":"-11.3302778","long":"-76.6166667"}},{"country":"pe","city":"Acomani","coordinates":{"lat":"-15.8438889","long":"-71.2377778"}},{"country":"pe","city":"Acomarca","coordinates":{"lat":"-12.7833333","long":"-74.9833333"}},{"country":"pe","city":"Acomayo","coordinates":{"lat":"-15.8113889","long":"-71.2372222"}},{"country":"pe","city":"Acomayo","coordinates":{"lat":"-13.9166667","long":"-71.6811111"}},{"country":"pe","city":"Acomayo","coordinates":{"lat":"-13.45","long":"-75.3666667"}},{"country":"pe","city":"Acomayo","coordinates":{"lat":"-9.7666667","long":"-76.0833333"}},{"country":"pe","city":"Acomayopata","coordinates":{"lat":"-13.4666667","long":"-74.1333333"}},{"country":"pe","city":"Acomeríne","coordinates":{"lat":"-15.5","long":"-70.25"}},{"country":"pe","city":"Acón","coordinates":{"lat":"-12.1","long":"-73.8666667"}},{"country":"pe","city":"Acoñaguin","coordinates":{"lat":"-11.0097222","long":"-76.8019444"}},{"country":"pe","city":"Acongollo","coordinates":{"lat":"-17.5216667","long":"-70.59"}},{"country":"pe","city":"Acopallpa","coordinates":{"lat":"-15.6647222","long":"-72.4925"}},{"country":"pe","city":"Acopampa","coordinates":{"lat":"-9.2833333","long":"-77.6"}},{"country":"pe","city":"Acopampa","coordinates":{"lat":"-13.9","long":"-70.5"}},{"country":"pe","city":"Acopara","coordinates":{"lat":"-11.0986111","long":"-76.985"}},{"country":"pe","city":"Acopata","coordinates":{"lat":"-14.4672222","long":"-71.1886111"}},{"country":"pe","city":"Acopata","coordinates":{"lat":"-10.685","long":"-76.7463889"}},{"country":"pe","city":"Acopecho","coordinates":{"lat":"-15.6861111","long":"-71.2488889"}},{"country":"pe","city":"Acopía","coordinates":{"lat":"-14.0586111","long":"-71.4938889"}},{"country":"pe","city":"Acopiñata","coordinates":{"lat":"-15.2766667","long":"-71.3744444"}},{"country":"pe","city":"Acopucllo","coordinates":{"lat":"-15.3372222","long":"-72.6325"}},{"country":"pe","city":"Aco Pucro","coordinates":{"lat":"-15.1572222","long":"-71.2733333"}},{"country":"pe","city":"Acopugio","coordinates":{"lat":"-14.2383333","long":"-71.2377778"}},{"country":"pe","city":"Acopunco","coordinates":{"lat":"-15.6475","long":"-71.3838889"}},{"country":"pe","city":"Acopunco","coordinates":{"lat":"-14.2666667","long":"-72.1333333"}},{"country":"pe","city":"Acoquipa","coordinates":{"lat":"-15.2622222","long":"-73.4261111"}},{"country":"pe","city":"Acoquipe","coordinates":{"lat":"-15.2622222","long":"-73.4261111"}},{"country":"pe","city":"Acora","coordinates":{"lat":"-13.7833333","long":"-75.3666667"}},{"country":"pe","city":"Acora","coordinates":{"lat":"-15.95","long":"-69.7833333"}},{"country":"pe","city":"Acoria","coordinates":{"lat":"-12.6166667","long":"-74.8833333"}},{"country":"pe","city":"Acos","coordinates":{"lat":"-12.1","long":"-73.8666667"}},{"country":"pe","city":"Acos","coordinates":{"lat":"-13.9508333","long":"-71.7372222"}},{"country":"pe","city":"Acos","coordinates":{"lat":"-11.2736111","long":"-76.8208333"}},{"country":"pe","city":"Acospampa","coordinates":{"lat":"-13.4","long":"-73.8833333"}},{"country":"pe","city":"Acos Pueblo","coordinates":{"lat":"-13.9508333","long":"-71.7372222"}},{"country":"pe","city":"Acostambo","coordinates":{"lat":"-12.4","long":"-75.1"}},{"country":"pe","city":"Acosvinchos","coordinates":{"lat":"-13.1138889","long":"-74.0977778"}},{"country":"pe","city":"Acota","coordinates":{"lat":"-14.2827778","long":"-71.2341667"}},{"country":"pe","city":"Acotera","coordinates":{"lat":"-15.8161111","long":"-71.4897222"}},{"country":"pe","city":"Acotira","coordinates":{"lat":"-15.3775","long":"-71.0952778"}},{"country":"pe","city":"Acoya","coordinates":{"lat":"-13.1666667","long":"-74.2833333"}},{"country":"pe","city":"Acoy","coordinates":{"lat":"-16.0205556","long":"-72.4861111"}},{"country":"pe","city":"Acoyra","coordinates":{"lat":"-14.0","long":"-72.0833333"}},{"country":"pe","city":"Acoyto","coordinates":{"lat":"-14.3833333","long":"-72.2166667"}},{"country":"pe","city":"Acracocha","coordinates":{"lat":"-11.3108333","long":"-75.695"}},{"country":"pe","city":"Acrocancha","coordinates":{"lat":"-11.2244444","long":"-75.8"}},{"country":"pe","city":"Acsamacha","coordinates":{"lat":"-13.0977778","long":"-73.8541667"}},{"country":"pe","city":"Acsamachay","coordinates":{"lat":"-13.0977778","long":"-73.8541667"}},{"country":"pe","city":"Acshomachay","coordinates":{"lat":"-11.3477778","long":"-76.6619444"}},{"country":"pe","city":"Acsuchacra","coordinates":{"lat":"-11.1447222","long":"-75.5975"}},{"country":"pe","city":"Actapata","coordinates":{"lat":"-15.6005556","long":"-71.3452778"}},{"country":"pe","city":"Actual Tipishca","coordinates":{"lat":"-5.4505556","long":"-75.8155556"}},{"country":"pe","city":"Acuay","coordinates":{"lat":"-13.05","long":"-74.6833333"}},{"country":"pe","city":"Acucancha","coordinates":{"lat":"-12.45","long":"-75.3333333"}},{"country":"pe","city":"Acuchay","coordinates":{"lat":"-11.5016667","long":"-75.7019444"}},{"country":"pe","city":"Acuisho","coordinates":{"lat":"-11.5494444","long":"-76.29"}},{"country":"pe","city":"Acumayo","coordinates":{"lat":"-13.5333333","long":"-74.1666667"}},{"country":"pe","city":"Acuñaya","coordinates":{"lat":"-15.8138889","long":"-70.7766667"}},{"country":"pe","city":"Acupacha","coordinates":{"lat":"-12.9166667","long":"-75.7863889"}},{"country":"pe","city":"Acupampa","coordinates":{"lat":"-12.7922222","long":"-75.9041667"}},{"country":"pe","city":"Acupata","coordinates":{"lat":"-11.0022222","long":"-76.7038889"}},{"country":"pe","city":"Acurucay","coordinates":{"lat":"-4.95","long":"-75.5"}},{"country":"pe","city":"Acushica","coordinates":{"lat":"-11.6938889","long":"-76.4183333"}},{"country":"pe","city":"Acutaña","coordinates":{"lat":"-15.35","long":"-70.7333333"}},{"country":"pe","city":"Aczo","coordinates":{"lat":"-9.2166667","long":"-76.9666667"}},{"country":"pe","city":"Adope","coordinates":{"lat":"-6.5727778","long":"-79.1880556"}},{"country":"pe","city":"Adriana","coordinates":{"lat":"-7.7336111","long":"-79.4052778"}},{"country":"pe","city":"Afiladera","coordinates":{"lat":"-5.4","long":"-79.6333333"}},{"country":"pe","city":"Afilayocc","coordinates":{"lat":"-14.2925","long":"-73.7816667"}},{"country":"pe","city":"Agallpampa","coordinates":{"lat":"-7.9833333","long":"-78.55"}},{"country":"pe","city":"Agchi","coordinates":{"lat":"-14.55","long":"-73.8333333"}},{"country":"pe","city":"Agocancha","coordinates":{"lat":"-11.7252778","long":"-76.1622222"}},{"country":"pe","city":"Agocasa","coordinates":{"lat":"-7.73","long":"-77.9711111"}},{"country":"pe","city":"Agochinchan","coordinates":{"lat":"-10.2063889","long":"-76.2688889"}},{"country":"pe","city":"Agopampa","coordinates":{"lat":"-6.0172222","long":"-79.15"}},{"country":"pe","city":"Agoshusha Pampa","coordinates":{"lat":"-11.7283333","long":"-76.1736111"}},{"country":"pe","city":"Agrio","coordinates":{"lat":"-15.2166667","long":"-74.2166667"}},{"country":"pe","city":"Agua","coordinates":{"lat":"-11.835","long":"-76.2319444"}},{"country":"pe","city":"Agua Azul","coordinates":{"lat":"-5.3833333","long":"-79.65"}},{"country":"pe","city":"Agua Bianca","coordinates":{"lat":"-6.7166667","long":"-76.5833333"}},{"country":"pe","city":"Agua Blanca","coordinates":{"lat":"-6.3019444","long":"-79.0202778"}},{"country":"pe","city":"Agua Blanca","coordinates":{"lat":"-10.0933333","long":"-76.2380556"}},{"country":"pe","city":"Agua Blanca","coordinates":{"lat":"-10.5666667","long":"-77.1333333"}},{"country":"pe","city":"Agua Blanca","coordinates":{"lat":"-16.6666667","long":"-70.8"}},{"country":"pe","city":"Agua Blanca","coordinates":{"lat":"-6.7166667","long":"-76.5833333"}},{"country":"pe","city":"Agua Blanca Hacienda","coordinates":{"lat":"-7.05","long":"-78.9833333"}},{"country":"pe","city":"Agua Buena","coordinates":{"lat":"-16.5558333","long":"-71.3158333"}},{"country":"pe","city":"Agua Caliente","coordinates":{"lat":"-16.2241667","long":"-71.7088889"}},{"country":"pe","city":"Agua Caliente","coordinates":{"lat":"-8.8333333","long":"-74.6833333"}},{"country":"pe","city":"Aguacancha","coordinates":{"lat":"-12.0","long":"-76.2113889"}},{"country":"pe","city":"Aguachini","coordinates":{"lat":"-10.5133333","long":"-74.9213889"}},{"country":"pe","city":"Agua Colorada","coordinates":{"lat":"-6.4975","long":"-79.2747222"}},{"country":"pe","city":"Agua Colorada","coordinates":{"lat":"-8.0833333","long":"-78.2666667"}},{"country":"pe","city":"Aguada","coordinates":{"lat":"-15.1958333","long":"-72.3222222"}},{"country":"pe","city":"Aguada","coordinates":{"lat":"-14.9333333","long":"-74.5833333"}},{"country":"pe","city":"Aguada","coordinates":{"lat":"-13.9666667","long":"-75.4166667"}},{"country":"pe","city":"Aguada de la Zorra","coordinates":{"lat":"-15.95","long":"-74.0333333"}},{"country":"pe","city":"Aguada de Lomas","coordinates":{"lat":"-15.5094444","long":"-74.7991667"}},{"country":"pe","city":"Aguada de Palos","coordinates":{"lat":"-14.3088889","long":"-75.6738889"}},{"country":"pe","city":"Agua de Palos","coordinates":{"lat":"-14.3088889","long":"-75.6738889"}},{"country":"pe","city":"Agua Dulce","coordinates":{"lat":"-16.3833333","long":"-71.4166667"}},{"country":"pe","city":"Agua Dulce","coordinates":{"lat":"-6.8569444","long":"-78.2580556"}},{"country":"pe","city":"Agua Dulce","coordinates":{"lat":"-4.5766667","long":"-80.3619444"}},{"country":"pe","city":"Aguajal","coordinates":{"lat":"-12.25","long":"-69.2333333"}},{"country":"pe","city":"Agualani","coordinates":{"lat":"-14.1","long":"-69.7"}},{"country":"pe","city":"Agualegua","coordinates":{"lat":"-15.6205556","long":"-72.0638889"}},{"country":"pe","city":"Aguallane","coordinates":{"lat":"-15.3833333","long":"-69.9666667"}},{"country":"pe","city":"Agua Milagro","coordinates":{"lat":"-16.7833333","long":"-69.1833333"}},{"country":"pe","city":"Aguana Cancha","coordinates":{"lat":"-14.4205556","long":"-69.9163889"}},{"country":"pe","city":"Aguana Muyuna","coordinates":{"lat":"-6.6166667","long":"-76.1666667"}},{"country":"pe","city":"Aguanana Muyuna","coordinates":{"lat":"-6.6166667","long":"-76.1666667"}},{"country":"pe","city":"Aguano Muyuna","coordinates":{"lat":"-6.6166667","long":"-76.1666667"}},{"country":"pe","city":"Aguapichuana","coordinates":{"lat":"-14.5869444","long":"-71.9122222"}},{"country":"pe","city":"Aguaquita","coordinates":{"lat":"-8.9","long":"-78.1666667"}},{"country":"pe","city":"Aguar","coordinates":{"lat":"-10.835","long":"-76.9858333"}},{"country":"pe","city":"Agua Salada","coordinates":{"lat":"-16.2936111","long":"-71.7791667"}},{"country":"pe","city":"Agua Salada","coordinates":{"lat":"-14.7666667","long":"-75.2333333"}},{"country":"pe","city":"Agua Salada","coordinates":{"lat":"-4.1202778","long":"-80.8747222"}},{"country":"pe","city":"Agua Salada Hacienda","coordinates":{"lat":"-14.7666667","long":"-75.2333333"}},{"country":"pe","city":"Agua Santa","coordinates":{"lat":"-15.6922222","long":"-72.4911111"}},{"country":"pe","city":"Agua Santa","coordinates":{"lat":"-13.6666667","long":"-76.1666667"}},{"country":"pe","city":"Agua Santa","coordinates":{"lat":"-5.9383333","long":"-79.7966667"}},{"country":"pe","city":"Aguasbamba","coordinates":{"lat":"-13.9","long":"-72.05"}},{"country":"pe","city":"Aguas Blanca","coordinates":{"lat":"-7.2333333","long":"-78.05"}},{"country":"pe","city":"Aguas Caliente","coordinates":{"lat":"-8.8333333","long":"-74.6833333"}},{"country":"pe","city":"Aguas Calientes","coordinates":{"lat":"-8.8333333","long":"-74.6833333"}},{"country":"pe","city":"Aguashuarco","coordinates":{"lat":"-11.0813889","long":"-76.8388889"}},{"country":"pe","city":"Aguas Muertas","coordinates":{"lat":"-17.1702778","long":"-70.9133333"}},{"country":"pe","city":"Aguas Negras","coordinates":{"lat":"-0.4333333","long":"-75.35"}},{"country":"pe","city":"Aguas Verdes","coordinates":{"lat":"-3.4813889","long":"-80.245"}},{"country":"pe","city":"Aguaylla","coordinates":{"lat":"-13.0333333","long":"-73.9333333"}},{"country":"pe","city":"Aguaytane","coordinates":{"lat":"-13.9666667","long":"-72.5333333"}},{"country":"pe","city":"Aguaytía","coordinates":{"lat":"-9.05","long":"-75.5"}},{"country":"pe","city":"Aguen","coordinates":{"lat":"-10.8952778","long":"-76.8211111"}},{"country":"pe","city":"Aguila","coordinates":{"lat":"-11.0633333","long":"-76.6955556"}},{"country":"pe","city":"Aguirre","coordinates":{"lat":"-3.6","long":"-70.95"}},{"country":"pe","city":"Agupampa","coordinates":{"lat":"-5.3666667","long":"-79.3833333"}},{"country":"pe","city":"Agupampa Hacienda","coordinates":{"lat":"-5.3666667","long":"-79.3833333"}},{"country":"pe","city":"Agustino","coordinates":{"lat":"-12.0666667","long":"-77.0166667"}},{"country":"pe","city":"Ahorca","coordinates":{"lat":"-17.0497222","long":"-71.7077778"}},{"country":"pe","city":"Ahuac","coordinates":{"lat":"-12.0666667","long":"-75.35"}},{"country":"pe","city":"Ahuajo","coordinates":{"lat":"-13.4605556","long":"-73.9663889"}},{"country":"pe","city":"Ahuancata","coordinates":{"lat":"-14.8666667","long":"-71.2833333"}},{"country":"pe","city":"Ahuashiyacu","coordinates":{"lat":"-6.5066667","long":"-76.3369444"}},{"country":"pe","city":"Ahuay","coordinates":{"lat":"-13.0166667","long":"-74.6666667"}},{"country":"pe","city":"Ahuituyoc","coordinates":{"lat":"-11.3347222","long":"-75.9788889"}},{"country":"pe","city":"Aicagranga","coordinates":{"lat":"-11.8341667","long":"-76.1322222"}},{"country":"pe","city":"Aichamarca","coordinates":{"lat":"-13.8666667","long":"-74.6333333"}},{"country":"pe","city":"Aichi","coordinates":{"lat":"-13.1833333","long":"-75.9166667"}},{"country":"pe","city":"Aichune","coordinates":{"lat":"-15.5191667","long":"-74.0219444"}},{"country":"pe","city":"Aichuta Chico","coordinates":{"lat":"-17.35","long":"-69.7333333"}},{"country":"pe","city":"Aichuta Grande","coordinates":{"lat":"-17.35","long":"-69.7166667"}},{"country":"pe","city":"Aigarrobo","coordinates":{"lat":"-4.5319444","long":"-81.1616667"}},{"country":"pe","city":"Aiguay","coordinates":{"lat":"-10.0666667","long":"-78.1"}},{"country":"pe","city":"Aihuarinca","coordinates":{"lat":"-15.6163889","long":"-71.2472222"}},{"country":"pe","city":"Aija","coordinates":{"lat":"-9.7666667","long":"-77.6333333"}},{"country":"pe","city":"Aijadero","coordinates":{"lat":"-10.7261111","long":"-76.72"}},{"country":"pe","city":"Aillo Ccollana","coordinates":{"lat":"-14.7333333","long":"-70.3333333"}},{"country":"pe","city":"Aillo Sillata","coordinates":{"lat":"-14.6833333","long":"-70.3833333"}},{"country":"pe","city":"Aillo Silluta","coordinates":{"lat":"-14.6833333","long":"-70.3833333"}},{"country":"pe","city":"Aiparipa","coordinates":{"lat":"-15.8205556","long":"-74.3722222"}},{"country":"pe","city":"Aipena","coordinates":{"lat":"-5.1","long":"-75.65"}},{"country":"pe","city":"Airabamba","coordinates":{"lat":"-13.4913889","long":"-73.8288889"}},{"country":"pe","city":"Airabamba Hacienda","coordinates":{"lat":"-13.4913889","long":"-73.8288889"}},{"country":"pe","city":"Airampuycco","coordinates":{"lat":"-15.6166667","long":"-73.9166667"}},{"country":"pe","city":"Airihuanca","coordinates":{"lat":"-14.1047222","long":"-72.6125"}},{"country":"pe","city":"Airijas","coordinates":{"lat":"-10.6944444","long":"-73.7883333"}},{"country":"pe","city":"Airiputi","coordinates":{"lat":"-15.9833333","long":"-69.5166667"}},{"country":"pe","city":"Airoca","coordinates":{"lat":"-15.45","long":"-73.5"}},{"country":"pe","city":"Aisan","coordinates":{"lat":"-15.4","long":"-70.3833333"}},{"country":"pe","city":"Aja","coordinates":{"lat":"-14.8166667","long":"-74.95"}},{"country":"pe","city":"Aja Hacienda","coordinates":{"lat":"-14.8166667","long":"-74.95"}},{"country":"pe","city":"Ajalle","coordinates":{"lat":"-13.4833333","long":"-74.6666667"}},{"country":"pe","city":"Ajana","coordinates":{"lat":"-16.2333333","long":"-70.9833333"}},{"country":"pe","city":"Ajana","coordinates":{"lat":"-15.5202778","long":"-70.6255556"}},{"country":"pe","city":"Ajapata","coordinates":{"lat":"-14.4433333","long":"-69.6141667"}},{"country":"pe","city":"Ajepata","coordinates":{"lat":"-15.3216667","long":"-71.1636111"}},{"country":"pe","city":"Ají","coordinates":{"lat":"-8.3011111","long":"-76.6713889"}},{"country":"pe","city":"Ajicata","coordinates":{"lat":"-15.2575","long":"-72.2244444"}},{"country":"pe","city":"Ajlahuito","coordinates":{"lat":"-15.1","long":"-74.4666667"}},{"country":"pe","city":"Ajo","coordinates":{"lat":"-13.1833333","long":"-74.3166667"}},{"country":"pe","city":"Ajobamaba","coordinates":{"lat":"-12.7291667","long":"-75.8644444"}},{"country":"pe","city":"Ajocancha","coordinates":{"lat":"-15.8666667","long":"-70.1666667"}},{"country":"pe","city":"Ajoccasa","coordinates":{"lat":"-13.35","long":"-74.2666667"}},{"country":"pe","city":"Ajococha","coordinates":{"lat":"-13.0666667","long":"-74.3833333"}},{"country":"pe","city":"Ajocucho","coordinates":{"lat":"-15.6833333","long":"-70.1666667"}},{"country":"pe","city":"Ajo Cunca","coordinates":{"lat":"-14.2408333","long":"-69.9883333"}},{"country":"pe","city":"Ajolla","coordinates":{"lat":"-14.9333333","long":"-73.8333333"}},{"country":"pe","city":"Ajolmayo","coordinates":{"lat":"-13.1166667","long":"-74.6666667"}},{"country":"pe","city":"Ajomachay","coordinates":{"lat":"-13.25","long":"-74.4"}},{"country":"pe","city":"Ajonchi","coordinates":{"lat":"-14.6","long":"-74.9"}},{"country":"pe","city":"Ajopampa","coordinates":{"lat":"-13.0333333","long":"-74.7"}},{"country":"pe","city":"Ajopata","coordinates":{"lat":"-15.2522222","long":"-72.9083333"}},{"country":"pe","city":"Ajopita","coordinates":{"lat":"-14.3527778","long":"-73.8822222"}},{"country":"pe","city":"Ajopucro","coordinates":{"lat":"-13.1","long":"-74.75"}},{"country":"pe","city":"Ajopujro","coordinates":{"lat":"-15.1061111","long":"-72.3169444"}},{"country":"pe","city":"Ajoscca","coordinates":{"lat":"-14.9833333","long":"-73.8333333"}},{"country":"pe","city":"Ajoscca Hacienda","coordinates":{"lat":"-14.9833333","long":"-73.8333333"}},{"country":"pe","city":"Ajosmayo","coordinates":{"lat":"-6.8488889","long":"-79.1697222"}},{"country":"pe","city":"Ajotanapata","coordinates":{"lat":"-13.0763889","long":"-74.7458333"}},{"country":"pe","city":"Ajotapampa","coordinates":{"lat":"-15.9666667","long":"-69.9"}},{"country":"pe","city":"Ajoyane","coordinates":{"lat":"-15.3647222","long":"-71.1688889"}},{"country":"pe","city":"Ajoyani","coordinates":{"lat":"-14.1","long":"-70.2"}},{"country":"pe","city":"Ajpi","coordinates":{"lat":"-15.6241667","long":"-72.0877778"}},{"country":"pe","city":"Ajrata","coordinates":{"lat":"-15.9666667","long":"-69.9333333"}},{"country":"pe","city":"Ajtapa","coordinates":{"lat":"-14.4666667","long":"-74.3"}},{"country":"pe","city":"Ajuyoccota","coordinates":{"lat":"-15.3652778","long":"-71.7566667"}},{"country":"pe","city":"Alachay","coordinates":{"lat":"-16.8969444","long":"-71.3922222"}},{"country":"pe","city":"Alacocha","coordinates":{"lat":"-10.55","long":"-76.2"}},{"country":"pe","city":"Alacoto","coordinates":{"lat":"-7.8525","long":"-77.55"}},{"country":"pe","city":"Alamatin","coordinates":{"lat":"-11.0458333","long":"-75.9011111"}},{"country":"pe","city":"Alameda","coordinates":{"lat":"-17.4238889","long":"-70.5130556"}},{"country":"pe","city":"Alamor","coordinates":{"lat":"-4.4833333","long":"-80.4166667"}},{"country":"pe","city":"Alan","coordinates":{"lat":"-6.6708333","long":"-78.4677778"}},{"country":"pe","city":"Alancana","coordinates":{"lat":"-14.5333333","long":"-74.7833333"}},{"country":"pe","city":"Alania Machay","coordinates":{"lat":"-10.6591667","long":"-76.5811111"}},{"country":"pe","city":"Alantaya","coordinates":{"lat":"-16.7833333","long":"-69.25"}},{"country":"pe","city":"Alanya","coordinates":{"lat":"-13.2","long":"-74.1166667"}},{"country":"pe","city":"Alanya","coordinates":{"lat":"-6.8805556","long":"-78.2455556"}},{"country":"pe","city":"Alao","coordinates":{"lat":"-6.5","long":"-76.7166667"}},{"country":"pe","city":"Alaspaya","coordinates":{"lat":"-16.7666667","long":"-70.7333333"}},{"country":"pe","city":"Alaucana","coordinates":{"lat":"-14.5333333","long":"-74.7833333"}},{"country":"pe","city":"Alaypampa","coordinates":{"lat":"-8.4166667","long":"-78.0"}},{"country":"pe","city":"Albacas","coordinates":{"lat":"-4.5172222","long":"-80.6072222"}},{"country":"pe","city":"Albaja","coordinates":{"lat":"-17.0833333","long":"-71.7666667"}},{"country":"pe","city":"Albaja Hacienda","coordinates":{"lat":"-17.0833333","long":"-71.7666667"}},{"country":"pe","city":"Alberca","coordinates":{"lat":"-5.3833333","long":"-79.8166667"}},{"country":"pe","city":"Alberto Fujimori","coordinates":{"lat":"-7.1075","long":"-79.5888889"}},{"country":"pe","city":"Alca","coordinates":{"lat":"-15.1347222","long":"-72.7647222"}},{"country":"pe","city":"Alcacocha","coordinates":{"lat":"-11.0538889","long":"-75.905"}},{"country":"pe","city":"Alcacocha","coordinates":{"lat":"-10.6","long":"-76.3333333"}},{"country":"pe","city":"Alcacoto","coordinates":{"lat":"-11.7166667","long":"-76.8833333"}},{"country":"pe","city":"Alcahuarinan","coordinates":{"lat":"-10.6222222","long":"-76.5108333"}},{"country":"pe","city":"Alcahuito","coordinates":{"lat":"-15.7438889","long":"-71.4091667"}},{"country":"pe","city":"Alcamarine","coordinates":{"lat":"-14.0713889","long":"-71.0563889"}},{"country":"pe","city":"Alcamarine","coordinates":{"lat":"-14.3358333","long":"-69.9652778"}},{"country":"pe","city":"Alcamarine Muto","coordinates":{"lat":"-15.0883333","long":"-71.1488889"}},{"country":"pe","city":"Alcamarini","coordinates":{"lat":"-15.6238889","long":"-70.9486111"}},{"country":"pe","city":"Alcamenca","coordinates":{"lat":"-13.6638889","long":"-74.1047222"}},{"country":"pe","city":"Alcaña","coordinates":{"lat":"-15.5827778","long":"-71.2688889"}},{"country":"pe","city":"Alcania","coordinates":{"lat":"-15.1213889","long":"-71.9583333"}},{"country":"pe","city":"Alcántara","coordinates":{"lat":"-2.6","long":"-76.6166667"}},{"country":"pe","city":"Alcantarilla","coordinates":{"lat":"-11.0833333","long":"-77.55"}},{"country":"pe","city":"Alcantarilla Hacienda","coordinates":{"lat":"-11.0833333","long":"-77.55"}},{"country":"pe","city":"Alcata","coordinates":{"lat":"-15.43","long":"-71.7155556"}},{"country":"pe","city":"Alccamarine","coordinates":{"lat":"-15.5605556","long":"-70.9147222"}},{"country":"pe","city":"Alco-Llacta","coordinates":{"lat":"-15.4861111","long":"-72.5491667"}},{"country":"pe","city":"Aldabas","coordinates":{"lat":"-16.15","long":"-71.1166667"}},{"country":"pe","city":"Alegoma Hacienda","coordinates":{"lat":"-17.0863889","long":"-70.8597222"}},{"country":"pe","city":"Alegría","coordinates":{"lat":"-12.0666667","long":"-69.2"}},{"country":"pe","city":"Alejo Pata","coordinates":{"lat":"-13.65","long":"-73.5"}},{"country":"pe","city":"Aleluyoc","coordinates":{"lat":"-10.9975","long":"-76.7027778"}},{"country":"pe","city":"Alenya","coordinates":{"lat":"-5.6866667","long":"-78.4811111"}},{"country":"pe","city":"Alenya Palacios","coordinates":{"lat":"-5.6802778","long":"-78.4925"}},{"country":"pe","city":"Aleria","coordinates":{"lat":"-10.75","long":"-71.8166667"}},{"country":"pe","city":"Alerta","coordinates":{"lat":"-0.1666667","long":"-75.1333333"}},{"country":"pe","city":"Alerta","coordinates":{"lat":"-11.6666667","long":"-69.2333333"}},{"country":"pe","city":"Alerta","coordinates":{"lat":"-10.75","long":"-71.8166667"}},{"country":"pe","city":"Alfachayoc","coordinates":{"lat":"-14.7","long":"-74.6166667"}},{"country":"pe","city":"Alfalfia","coordinates":{"lat":"-5.5719444","long":"-79.3744444"}},{"country":"pe","city":"Alfalfilla","coordinates":{"lat":"-6.9047222","long":"-79.0938889"}},{"country":"pe","city":"Alfarillo","coordinates":{"lat":"-17.85","long":"-71.0333333"}},{"country":"pe","city":"Alfaro","coordinates":{"lat":"-3.9738889","long":"-70.9330556"}},{"country":"pe","city":"Alfayoc","coordinates":{"lat":"-15.1166667","long":"-74.2333333"}},{"country":"pe","city":"Alfonso Ugarte","coordinates":{"lat":"-7.8280556","long":"-74.8236111"}},{"country":"pe","city":"Alfonso Ugarte","coordinates":{"lat":"-4.7444444","long":"-80.3333333"}},{"country":"pe","city":"Algamarca","coordinates":{"lat":"-7.6","long":"-78.25"}},{"country":"pe","city":"Algamarca Hacienda","coordinates":{"lat":"-7.6","long":"-78.25"}},{"country":"pe","city":"Algamarce Hacienda","coordinates":{"lat":"-7.6","long":"-78.25"}},{"country":"pe","city":"Algarrabo","coordinates":{"lat":"-3.4508333","long":"-80.28"}},{"country":"pe","city":"Algarrobal","coordinates":{"lat":"-9.1333333","long":"-78.1833333"}},{"country":"pe","city":"Algarrobal","coordinates":{"lat":"-7.5333333","long":"-78.9666667"}},{"country":"pe","city":"Algarrobal","coordinates":{"lat":"-6.655","long":"-79.4422222"}},{"country":"pe","city":"Algarrobal","coordinates":{"lat":"-17.6227778","long":"-71.2677778"}},{"country":"pe","city":"Algarrobal","coordinates":{"lat":"-4.7166667","long":"-80.2"}},{"country":"pe","city":"Algarrobillo","coordinates":{"lat":"-4.5044444","long":"-80.3830556"}},{"country":"pe","city":"Algarrobito","coordinates":{"lat":"-6.0522222","long":"-79.1672222"}},{"country":"pe","city":"Algarrobo","coordinates":{"lat":"-4.5319444","long":"-81.1616667"}},{"country":"pe","city":"Algarrobo","coordinates":{"lat":"-3.4508333","long":"-80.28"}},{"country":"pe","city":"Algarrobo Grande","coordinates":{"lat":"-6.2547222","long":"-79.575"}},{"country":"pe","city":"Algarrovillo","coordinates":{"lat":"-4.5594444","long":"-80.7402778"}},{"country":"pe","city":"Algodona","coordinates":{"lat":"-5.8552778","long":"-79.6519444"}},{"country":"pe","city":"Algodonal","coordinates":{"lat":"-7.7472222","long":"-79.3519444"}},{"country":"pe","city":"Algodonal","coordinates":{"lat":"-6.7772222","long":"-79.5588889"}},{"country":"pe","city":"Algodonal","coordinates":{"lat":"-4.1833333","long":"-72.8833333"}},{"country":"pe","city":"Algodonal","coordinates":{"lat":"-4.5291667","long":"-80.7838889"}},{"country":"pe","city":"Algodonales","coordinates":{"lat":"-5.1488889","long":"-79.9166667"}},{"country":"pe","city":"Algodón","coordinates":{"lat":"-7.8766667","long":"-77.6519444"}},{"country":"pe","city":"Algodonalillo","coordinates":{"lat":"-4.4663889","long":"-80.6647222"}},{"country":"pe","city":"Algodoncillo","coordinates":{"lat":"-4.4663889","long":"-80.6647222"}},{"country":"pe","city":"Algohuain","coordinates":{"lat":"-10.0333333","long":"-76.5666667"}},{"country":"pe","city":"Alhacone","coordinates":{"lat":"-14.8","long":"-73.55"}},{"country":"pe","city":"Alhua","coordinates":{"lat":"-10.6027778","long":"-76.9236111"}},{"country":"pe","city":"Aliaga","coordinates":{"lat":"-12.0166667","long":"-77.0666667"}},{"country":"pe","city":"Aliaga Hacienda","coordinates":{"lat":"-12.0166667","long":"-77.0666667"}},{"country":"pe","city":"Ali","coordinates":{"lat":"-8.6333333","long":"-76.5166667"}},{"country":"pe","city":"Alianza","coordinates":{"lat":"-4.6666667","long":"-78.15"}},{"country":"pe","city":"Alianza","coordinates":{"lat":"-3.6666667","long":"-74.2"}},{"country":"pe","city":"Alianza Cristiana","coordinates":{"lat":"-3.4752778","long":"-76.4344444"}},{"country":"pe","city":"Alican","coordinates":{"lat":"-6.8313889","long":"-79.7916667"}},{"country":"pe","city":"Alican Chico","coordinates":{"lat":"-6.8313889","long":"-79.7916667"}},{"country":"pe","city":"Alicia","coordinates":{"lat":"-5.8063889","long":"-79.78"}},{"country":"pe","city":"Alico","coordinates":{"lat":"-16.2094444","long":"-73.6222222"}},{"country":"pe","city":"Alicta","coordinates":{"lat":"-12.9833333","long":"-71.1666667"}},{"country":"pe","city":"Aliluyane","coordinates":{"lat":"-16.0833333","long":"-69.9"}},{"country":"pe","city":"Alipadja","coordinates":{"lat":"-15.9666667","long":"-69.75"}},{"country":"pe","city":"Alip","coordinates":{"lat":"-12.2666667","long":"-75.7833333"}},{"country":"pe","city":"Alisal","coordinates":{"lat":"-5.3166667","long":"-79.2666667"}},{"country":"pe","city":"Alis","coordinates":{"lat":"-12.2666667","long":"-75.7833333"}},{"country":"pe","city":"Aliso","coordinates":{"lat":"-6.65","long":"-78.2166667"}},{"country":"pe","city":"Alisopata","coordinates":{"lat":"-7.05","long":"-78.4666667"}},{"country":"pe","city":"Aliso-Pata","coordinates":{"lat":"-7.3","long":"-78.0"}},{"country":"pe","city":"Alisopat","coordinates":{"lat":"-7.3","long":"-78.0"}},{"country":"pe","city":"Alisos","coordinates":{"lat":"-4.7833333","long":"-79.9166667"}},{"country":"pe","city":"Alito","coordinates":{"lat":"-16.7666667","long":"-70.7"}},{"country":"pe","city":"Alizal","coordinates":{"lat":"-7.5833333","long":"-78.35"}},{"country":"pe","city":"Alizar","coordinates":{"lat":"-7.9716667","long":"-77.6811111"}},{"country":"pe","city":"Alizo","coordinates":{"lat":"-10.05","long":"-77.4666667"}},{"country":"pe","city":"Alizo","coordinates":{"lat":"-5.99","long":"-79.4358333"}},{"country":"pe","city":"Allacas","coordinates":{"lat":"-14.5666667","long":"-73.6333333"}},{"country":"pe","city":"Allachay","coordinates":{"lat":"-15.5233333","long":"-72.2572222"}},{"country":"pe","city":"Allacoracca","coordinates":{"lat":"-15.2072222","long":"-73.1655556"}},{"country":"pe","city":"Allacro","coordinates":{"lat":"-13.5333333","long":"-73.7333333"}},{"country":"pe","city":"Allactaocpata","coordinates":{"lat":"-15.7702778","long":"-71.2241667"}},{"country":"pe","city":"Allacurán","coordinates":{"lat":"-11.2308333","long":"-75.8902778"}},{"country":"pe","city":"Allahuay","coordinates":{"lat":"-15.2502778","long":"-72.8758333"}},{"country":"pe","city":"Allanca","coordinates":{"lat":"-13.8","long":"-75.4833333"}},{"country":"pe","city":"Allancay","coordinates":{"lat":"-15.2583333","long":"-73.0502778"}},{"country":"pe","city":"Allapata","coordinates":{"lat":"-13.3388889","long":"-73.8327778"}},{"country":"pe","city":"Allarpo","coordinates":{"lat":"-13.05","long":"-74.5166667"}},{"country":"pe","city":"Allasura","coordinates":{"lat":"-15.4594444","long":"-71.3163889"}},{"country":"pe","city":"Allate","coordinates":{"lat":"-15.3833333","long":"-73.9833333"}},{"country":"pe","city":"Allato","coordinates":{"lat":"-12.9666667","long":"-74.7333333"}},{"country":"pe","city":"Allauca","coordinates":{"lat":"-14.3166667","long":"-72.5333333"}},{"country":"pe","city":"Allauca","coordinates":{"lat":"-15.1183333","long":"-72.8966667"}},{"country":"pe","city":"Allauca","coordinates":{"lat":"-12.6","long":"-75.9833333"}},{"country":"pe","city":"Allaymucha","coordinates":{"lat":"-8.2666667","long":"-78.0333333"}},{"country":"pe","city":"Allayu","coordinates":{"lat":"-10.5447222","long":"-76.5094444"}},{"country":"pe","city":"Allcas","coordinates":{"lat":"-13.1","long":"-75.65"}},{"country":"pe","city":"Allccane","coordinates":{"lat":"-13.85","long":"-74.8666667"}},{"country":"pe","city":"Allccanja","coordinates":{"lat":"-14.0094444","long":"-75.0969444"}},{"country":"pe","city":"Allcuhuilcca","coordinates":{"lat":"-13.0","long":"-74.25"}},{"country":"pe","city":"Allhuire","coordinates":{"lat":"-15.3019444","long":"-72.2913889"}},{"country":"pe","city":"Allhuiscca","coordinates":{"lat":"-14.35","long":"-74.1833333"}},{"country":"pe","city":"Allipachaca","coordinates":{"lat":"-14.1719444","long":"-73.6958333"}},{"country":"pe","city":"Alloca","coordinates":{"lat":"-12.2833333","long":"-76.25"}},{"country":"pe","city":"Allpabamba","coordinates":{"lat":"-15.0622222","long":"-73.315"}},{"country":"pe","city":"Allpacancha","coordinates":{"lat":"-14.2833333","long":"-72.1"}},{"country":"pe","city":"Allpacancha Hacienda","coordinates":{"lat":"-14.2833333","long":"-72.1"}},{"country":"pe","city":"Allpachaca","coordinates":{"lat":"-13.3897222","long":"-74.2661111"}},{"country":"pe","city":"Allpacopa","coordinates":{"lat":"-10.8833333","long":"-77.5333333"}},{"country":"pe","city":"Allpacoto","coordinates":{"lat":"-10.8833333","long":"-77.5333333"}},{"country":"pe","city":"Allpacoto Hacienda","coordinates":{"lat":"-10.8833333","long":"-77.5333333"}},{"country":"pe","city":"Allpas","coordinates":{"lat":"-13.3833333","long":"-75.6166667"}},{"country":"pe","city":"Allpaspina","coordinates":{"lat":"-14.4833333","long":"-74.2333333"}},{"country":"pe","city":"Allpaurccuna","coordinates":{"lat":"-13.0333333","long":"-74.25"}},{"country":"pe","city":"Allurán","coordinates":{"lat":"-11.8111111","long":"-76.2569444"}},{"country":"pe","city":"Almacén","coordinates":{"lat":"-13.2666667","long":"-75.8833333"}},{"country":"pe","city":"Almacén Hacienda","coordinates":{"lat":"-13.2666667","long":"-75.8833333"}},{"country":"pe","city":"Almajasa","coordinates":{"lat":"-14.1666667","long":"-74.1666667"}},{"country":"pe","city":"Almenares","coordinates":{"lat":"-13.0666667","long":"-76.3333333"}},{"country":"pe","city":"Almendral","coordinates":{"lat":"-5.6258333","long":"-78.4397222"}},{"country":"pe","city":"Almendral","coordinates":{"lat":"-5.7841667","long":"-78.7111111"}},{"country":"pe","city":"Almendral","coordinates":{"lat":"-6.6333333","long":"-79.4166667"}},{"country":"pe","city":"Almendral","coordinates":{"lat":"-6.2666667","long":"-76.3"}},{"country":"pe","city":"Almendras","coordinates":{"lat":"-9.3833333","long":"-75.9333333"}},{"country":"pe","city":"Almendro","coordinates":{"lat":"-5.2641667","long":"-78.3738889"}},{"country":"pe","city":"Almendro","coordinates":{"lat":"-4.4166667","long":"-80.6666667"}},{"country":"pe","city":"Aloacocha","coordinates":{"lat":"-6.9338889","long":"-78.1825"}},{"country":"pe","city":"Alolpuqio","coordinates":{"lat":"-12.15","long":"-75.3666667"}},{"country":"pe","city":"Alonso","coordinates":{"lat":"-10.15","long":"-77.5333333"}},{"country":"pe","city":"Alonso","coordinates":{"lat":"-15.6716667","long":"-70.8391667"}},{"country":"pe","city":"Alonsohue","coordinates":{"lat":"-16.2333333","long":"-69.5333333"}},{"country":"pe","city":"Alpabamba","coordinates":{"lat":"-15.0622222","long":"-73.315"}},{"country":"pe","city":"Alpacollo","coordinates":{"lat":"-15.5061111","long":"-70.7069444"}},{"country":"pe","city":"Alpaluce","coordinates":{"lat":"-15.2","long":"-73.8833333"}},{"country":"pe","city":"Alpamarca","coordinates":{"lat":"-10.7911111","long":"-76.5230556"}},{"country":"pe","city":"Alpamina","coordinates":{"lat":"-11.6061111","long":"-76.1016667"}},{"country":"pe","city":"Alpas","coordinates":{"lat":"-10.6333333","long":"-77.5333333"}},{"country":"pe","city":"Alpas","coordinates":{"lat":"-13.3833333","long":"-75.6166667"}},{"country":"pe","city":"Alpasca","coordinates":{"lat":"-15.0","long":"-73.95"}},{"country":"pe","city":"Alpas Hacienda","coordinates":{"lat":"-10.6333333","long":"-77.5333333"}},{"country":"pe","city":"Alpas Hacienda","coordinates":{"lat":"-13.3833333","long":"-75.6166667"}},{"country":"pe","city":"Alpayoc","coordinates":{"lat":"-15.1","long":"-74.2333333"}},{"country":"pe","city":"Alpechín","coordinates":{"lat":"-17.29","long":"-71.4619444"}},{"country":"pe","city":"Altamioc","coordinates":{"lat":"-13.7833333","long":"-74.6833333"}},{"country":"pe","city":"Altamisa","coordinates":{"lat":"-5.5041667","long":"-78.8958333"}},{"country":"pe","city":"Altamisa","coordinates":{"lat":"-5.0436111","long":"-79.7322222"}},{"country":"pe","city":"Alta Perilla","coordinates":{"lat":"-7.0666667","long":"-75.0166667"}},{"country":"pe","city":"Altarane","coordinates":{"lat":"-16.05","long":"-71.0333333"}},{"country":"pe","city":"Altarani","coordinates":{"lat":"-14.4144444","long":"-69.7486111"}},{"country":"pe","city":"Altaruma","coordinates":{"lat":"-15.2716667","long":"-71.5136111"}},{"country":"pe","city":"Alterpampa","coordinates":{"lat":"-14.3666667","long":"-74.2666667"}},{"country":"pe","city":"Altillo","coordinates":{"lat":"-17.2130556","long":"-70.9786111"}},{"country":"pe","city":"Alto Anapatí","coordinates":{"lat":"-11.7577778","long":"-74.3238889"}},{"country":"pe","city":"Alto Angara","coordinates":{"lat":"-15.0163889","long":"-70.5158333"}},{"country":"pe","city":"Alto Ashaninga","coordinates":{"lat":"-10.9938889","long":"-74.8138889"}},{"country":"pe","city":"Alto Azupizu","coordinates":{"lat":"-10.6561111","long":"-74.9241667"}},{"country":"pe","city":"Alto Blanco","coordinates":{"lat":"-7.82","long":"-77.6105556"}},{"country":"pe","city":"Alto Calera","coordinates":{"lat":"-15.3833333","long":"-73.6166667"}},{"country":"pe","city":"Alto Chirireni","coordinates":{"lat":"-11.8516667","long":"-74.2113889"}},{"country":"pe","city":"Alto de Canchas","coordinates":{"lat":"-7.8166667","long":"-78.5"}},{"country":"pe","city":"Alto de Carrillo","coordinates":{"lat":"-5.3166667","long":"-80.7166667"}},{"country":"pe","city":"Alto de Chapi","coordinates":{"lat":"-17.8230556","long":"-70.5172222"}},{"country":"pe","city":"Alto de la Cruz","coordinates":{"lat":"-5.3333333","long":"-80.7666667"}},{"country":"pe","city":"Alto de la Cruz Hacienda","coordinates":{"lat":"-5.3333333","long":"-80.7666667"}},{"country":"pe","city":"Alto de la Luna","coordinates":{"lat":"-15.7011111","long":"-73.8252778"}},{"country":"pe","city":"Alto de la Paloma","coordinates":{"lat":"-4.9","long":"-81.1166667"}},{"country":"pe","city":"Alto del Molino","coordinates":{"lat":"-15.7611111","long":"-73.3719444"}},{"country":"pe","city":"Alto de los Carrillo","coordinates":{"lat":"-5.3333333","long":"-80.75"}},{"country":"pe","city":"Alto de los Castillo","coordinates":{"lat":"-5.35","long":"-80.7166667"}},{"country":"pe","city":"Alto de los More","coordinates":{"lat":"-5.3333333","long":"-80.6833333"}},{"country":"pe","city":"Alto de Roque","coordinates":{"lat":"-5.9447222","long":"-80.2283333"}},{"country":"pe","city":"Alto Grande","coordinates":{"lat":"-15.4333333","long":"-74.8666667"}},{"country":"pe","city":"Alto Grande","coordinates":{"lat":"-4.8833333","long":"-80.8166667"}},{"country":"pe","city":"Alto Huarangal","coordinates":{"lat":"-5.8566667","long":"-78.3683333"}},{"country":"pe","city":"Alto Kimiriki","coordinates":{"lat":"-10.9905556","long":"-74.8808333"}},{"country":"pe","city":"Alto La Hilaria","coordinates":{"lat":"-7.6911111","long":"-79.3202778"}},{"country":"pe","city":"Alto Laran","coordinates":{"lat":"-14.4636111","long":"-75.2419444"}},{"country":"pe","city":"Alto Laran","coordinates":{"lat":"-13.45","long":"-76.1"}},{"country":"pe","city":"Alto La Villa","coordinates":{"lat":"-17.18","long":"-70.9405556"}},{"country":"pe","city":"Alto Machay","coordinates":{"lat":"-6.9952778","long":"-78.4433333"}},{"country":"pe","city":"Altomira","coordinates":{"lat":"-4.9186111","long":"-81.0858333"}},{"country":"pe","city":"Alto Pacae","coordinates":{"lat":"-9.0138889","long":"-76.0377778"}},{"country":"pe","city":"Alto Pacuy","coordinates":{"lat":"-5.2341667","long":"-78.2566667"}},{"country":"pe","city":"Alto Paiján","coordinates":{"lat":"-7.7175","long":"-79.3086111"}},{"country":"pe","city":"Alto Patacollo","coordinates":{"lat":"-16.45","long":"-69.2166667"}},{"country":"pe","city":"Alto Pauji","coordinates":{"lat":"-14.0055556","long":"-68.9722222"}},{"country":"pe","city":"Alto Perú","coordinates":{"lat":"-15.75","long":"-73.8166667"}},{"country":"pe","city":"Alto Peru","coordinates":{"lat":"-7.1833333","long":"-79.4833333"}},{"country":"pe","city":"Alto Perú","coordinates":{"lat":"-6.6975","long":"-79.7588889"}},{"country":"pe","city":"Alto Peru","coordinates":{"lat":"-11.1213889","long":"-76.5366667"}},{"country":"pe","city":"Alto Perú","coordinates":{"lat":"-17.47","long":"-70.1577778"}},{"country":"pe","city":"Alto Puyeni","coordinates":{"lat":"-10.9558333","long":"-74.8891667"}},{"country":"pe","city":"Alto San Iidefonzo","coordinates":{"lat":"-7.1444444","long":"-79.5844444"}},{"country":"pe","city":"Alto San Ildefonso","coordinates":{"lat":"-7.1444444","long":"-79.5844444"}},{"country":"pe","city":"Altos de Amado","coordinates":{"lat":"-16.4252778","long":"-71.5888889"}},{"country":"pe","city":"Altosillata","coordinates":{"lat":"-15.1666667","long":"-69.6666667"}},{"country":"pe","city":"Alto Somabeni","coordinates":{"lat":"-11.9516667","long":"-74.1766667"}},{"country":"pe","city":"Alto Tincabeni","coordinates":{"lat":"-11.8830556","long":"-74.2177778"}},{"country":"pe","city":"Alto Urubamba","coordinates":{"lat":"-14.0555556","long":"-68.9416667"}},{"country":"pe","city":"Alto Zotani","coordinates":{"lat":"-10.8244444","long":"-74.9280556"}},{"country":"pe","city":"Alumbre","coordinates":{"lat":"-6.8813889","long":"-78.4355556"}},{"country":"pe","city":"Alumbre","coordinates":{"lat":"-8.1","long":"-78.25"}},{"country":"pe","city":"Alumbre","coordinates":{"lat":"-4.5158333","long":"-80.3194444"}},{"country":"pe","city":"Ama","coordinates":{"lat":"-11.4686111","long":"-76.8858333"}},{"country":"pe","city":"Amabula","coordinates":{"lat":"-10.0369444","long":"-76.0527778"}},{"country":"pe","city":"Ama Cancha","coordinates":{"lat":"-13.5166667","long":"-74.95"}},{"country":"pe","city":"Amaclle","coordinates":{"lat":"-13.75","long":"-75.3333333"}},{"country":"pe","city":"Amadochacra","coordinates":{"lat":"-10.6333333","long":"-76.55"}},{"country":"pe","city":"Amadochacra Hacienda","coordinates":{"lat":"-10.6333333","long":"-76.55"}},{"country":"pe","city":"Amado Grande","coordinates":{"lat":"-10.6333333","long":"-76.55"}},{"country":"pe","city":"Amailaca","coordinates":{"lat":"-15.3047222","long":"-71.4116667"}},{"country":"pe","city":"Amailayo","coordinates":{"lat":"-15.6016667","long":"-70.5238889"}},{"country":"pe","city":"Amailla","coordinates":{"lat":"-13.1666667","long":"-75.65"}},{"country":"pe","city":"Amaizama Pata","coordinates":{"lat":"-16.4333333","long":"-69.0666667"}},{"country":"pe","city":"Amancaes","coordinates":{"lat":"-13.4833333","long":"-73.55"}},{"country":"pe","city":"Amani","coordinates":{"lat":"-14.4961111","long":"-69.6713889"}},{"country":"pe","city":"Amantañi","coordinates":{"lat":"-15.5333333","long":"-70.0"}},{"country":"pe","city":"Amapaya","coordinates":{"lat":"-18.0027778","long":"-70.6513889"}},{"country":"pe","city":"Amarani","coordinates":{"lat":"-15.7305556","long":"-71.4108333"}},{"country":"pe","city":"Amarcos","coordinates":{"lat":"-3.8861111","long":"-80.7911111"}},{"country":"pe","city":"Amargoso","coordinates":{"lat":"-15.7647222","long":"-73.3569444"}},{"country":"pe","city":"Amaroucho","coordinates":{"lat":"-6.9358333","long":"-78.2397222"}},{"country":"pe","city":"Amaruyoc","coordinates":{"lat":"-14.0888889","long":"-73.7605556"}},{"country":"pe","city":"Amaruyocc","coordinates":{"lat":"-15.05","long":"-74.3666667"}},{"country":"pe","city":"Amashca","coordinates":{"lat":"-9.2333333","long":"-77.65"}},{"country":"pe","city":"Amata","coordinates":{"lat":"-16.6166667","long":"-71.085"}},{"country":"pe","city":"Amauta","coordinates":{"lat":"-10.9947222","long":"-74.7872222"}},{"country":"pe","city":"Amay","coordinates":{"lat":"-11.1166667","long":"-77.6"}},{"country":"pe","city":"Amayamaya","coordinates":{"lat":"-15.5638889","long":"-71.3122222"}},{"country":"pe","city":"Amayane","coordinates":{"lat":"-15.3455556","long":"-71.5902778"}},{"country":"pe","city":"Amayane","coordinates":{"lat":"-15.0330556","long":"-71.0325"}},{"country":"pe","city":"Amayani","coordinates":{"lat":"-15.05","long":"-69.4"}},{"country":"pe","city":"Amayaque","coordinates":{"lat":"-15.3041667","long":"-71.5375"}},{"country":"pe","city":"Amaycollo","coordinates":{"lat":"-15.4333333","long":"-69.2666667"}},{"country":"pe","city":"Ambar","coordinates":{"lat":"-10.7333333","long":"-77.2666667"}},{"country":"pe","city":"Ambasal","coordinates":{"lat":"-4.5833333","long":"-79.75"}},{"country":"pe","city":"Ambasal Ciudad","coordinates":{"lat":"-4.5833333","long":"-79.75"}},{"country":"pe","city":"Ambato","coordinates":{"lat":"-12.75","long":"-74.85"}},{"country":"pe","city":"Ambisuo","coordinates":{"lat":"-5.9833333","long":"-76.0666667"}},{"country":"pe","city":"Ambo","coordinates":{"lat":"-10.1308333","long":"-76.2047222"}},{"country":"pe","city":"Amboraccay","coordinates":{"lat":"-13.2666667","long":"-74.2166667"}},{"country":"pe","city":"Ambrocio","coordinates":{"lat":"-5.9833333","long":"-76.0666667"}},{"country":"pe","city":"Ambrosio","coordinates":{"lat":"-5.9833333","long":"-76.0666667"}},{"country":"pe","city":"Ambrosio","coordinates":{"lat":"-5.0333333","long":"-79.8166667"}},{"country":"pe","city":"Ambulco","coordinates":{"lat":"-4.7666667","long":"-79.5333333"}},{"country":"pe","city":"Ambulco Ciudad","coordinates":{"lat":"-4.7666667","long":"-79.5333333"}},{"country":"pe","city":"Amelia","coordinates":{"lat":"-4.3316667","long":"-70.1988889"}},{"country":"pe","city":"Americas Unidas","coordinates":{"lat":"-15.6505556","long":"-74.6372222"}},{"country":"pe","city":"Amo","coordinates":{"lat":"-11.4686111","long":"-76.8858333"}},{"country":"pe","city":"Amopaya","coordinates":{"lat":"-18.0027778","long":"-70.6513889"}},{"country":"pe","city":"Amoquinto","coordinates":{"lat":"-17.2813889","long":"-71.4725"}},{"country":"pe","city":"Amotape","coordinates":{"lat":"-4.8816667","long":"-81.0155556"}},{"country":"pe","city":"Amotire","coordinates":{"lat":"-16.8","long":"-69.3666667"}},{"country":"pe","city":"Ampama","coordinates":{"lat":"-3.2452778","long":"-77.8769444"}},{"country":"pe","city":"Ampanú","coordinates":{"lat":"-9.9166667","long":"-78.1666667"}},{"country":"pe","city":"Amparaes","coordinates":{"lat":"-13.1666667","long":"-71.9"}},{"country":"pe","city":"Amparani","coordinates":{"lat":"-16.1","long":"-69.7"}},{"country":"pe","city":"Ampas Pampa","coordinates":{"lat":"-13.5666667","long":"-73.8166667"}},{"country":"pe","city":"Ampato","coordinates":{"lat":"-15.1813889","long":"-71.4069444"}},{"country":"pe","city":"Ampaturi","coordinates":{"lat":"-16.3333333","long":"-69.9333333"}},{"country":"pe","city":"Ampe","coordinates":{"lat":"-12.2","long":"-76.2"}},{"country":"pe","city":"Ampi","coordinates":{"lat":"-14.9166667","long":"-73.3833333"}},{"country":"pe","city":"Ampiyacu","coordinates":{"lat":"-3.8652778","long":"-70.6886111"}},{"country":"pe","city":"Ampoca","coordinates":{"lat":"-12.7333333","long":"-76.1"}},{"country":"pe","city":"Ampuccasa","coordinates":{"lat":"-13.2","long":"-74.2666667"}},{"country":"pe","city":"Amusuy","coordinates":{"lat":"-6.2161111","long":"-79.4113889"}},{"country":"pe","city":"Anacallo","coordinates":{"lat":"-17.2333333","long":"-69.7833333"}},{"country":"pe","city":"Añacaña","coordinates":{"lat":"-15.3102778","long":"-71.5044444"}},{"country":"pe","city":"Anac Ccoponeta","coordinates":{"lat":"-15.5416667","long":"-71.3866667"}},{"country":"pe","city":"Anaccocha","coordinates":{"lat":"-14.1713889","long":"-73.6230556"}},{"country":"pe","city":"Anac-Huito","coordinates":{"lat":"-15.5969444","long":"-71.0766667"}},{"country":"pe","city":"Anacota","coordinates":{"lat":"-17.1","long":"-69.4666667"}},{"country":"pe","city":"Anadiaz","coordinates":{"lat":"-7.6405556","long":"-77.9897222"}},{"country":"pe","city":"Anahuanca","coordinates":{"lat":"-14.8166667","long":"-70.85"}},{"country":"pe","city":"Añahuane","coordinates":{"lat":"-17.1833333","long":"-69.65"}},{"country":"pe","city":"Anahuili","coordinates":{"lat":"-15.1177778","long":"-70.7766667"}},{"country":"pe","city":"Anahuita","coordinates":{"lat":"-14.9372222","long":"-71.6605556"}},{"country":"pe","city":"Analachayoc","coordinates":{"lat":"-14.2111111","long":"-73.8188889"}},{"country":"pe","city":"Analayoc","coordinates":{"lat":"-14.0741667","long":"-73.7480556"}},{"country":"pe","city":"Anama","coordinates":{"lat":"-13.2063889","long":"-73.6597222"}},{"country":"pe","city":"Anamaray","coordinates":{"lat":"-11.1075","long":"-76.5519444"}},{"country":"pe","city":"Ana María","coordinates":{"lat":"-7.1","long":"-79.5833333"}},{"country":"pe","city":"Ana María","coordinates":{"lat":"-7.0","long":"-74.0333333"}},{"country":"pe","city":"Anamias","coordinates":{"lat":"-14.05","long":"-75.7166667"}},{"country":"pe","city":"Ananea","coordinates":{"lat":"-14.7","long":"-69.55"}},{"country":"pe","city":"Anansalla","coordinates":{"lat":"-15.7019444","long":"-72.1341667"}},{"country":"pe","city":"Anansaya","coordinates":{"lat":"-14.1769444","long":"-71.3705556"}},{"country":"pe","city":"Anansaya","coordinates":{"lat":"-15.3666667","long":"-70.3"}},{"country":"pe","city":"Anansaya Huasca","coordinates":{"lat":"-14.3333333","long":"-72.0666667"}},{"country":"pe","city":"Ananta","coordinates":{"lat":"-15.7883333","long":"-73.3347222"}},{"country":"pe","city":"Ananta","coordinates":{"lat":"-16.3333333","long":"-70.2"}},{"country":"pe","city":"Añapaca","coordinates":{"lat":"-17.45","long":"-69.5666667"}},{"country":"pe","city":"Añaque Putina","coordinates":{"lat":"-17.4","long":"-69.9166667"}},{"country":"pe","city":"Añarane","coordinates":{"lat":"-15.7905556","long":"-70.5991667"}},{"country":"pe","city":"Anarqui","coordinates":{"lat":"-13.7","long":"-72.4166667"}},{"country":"pe","city":"Anarqui Hacienda","coordinates":{"lat":"-13.7","long":"-72.4166667"}},{"country":"pe","city":"Anascancha","coordinates":{"lat":"-13.1","long":"-74.6833333"}},{"country":"pe","city":"Añascancha","coordinates":{"lat":"-13.0833333","long":"-75.8833333"}},{"country":"pe","city":"Añascanchanan","coordinates":{"lat":"-13.0027778","long":"-75.8422222"}},{"country":"pe","city":"Anascapa","coordinates":{"lat":"-16.4166667","long":"-70.8333333"}},{"country":"pe","city":"Añascipina","coordinates":{"lat":"-14.65","long":"-74.3"}},{"country":"pe","city":"Anascocha","coordinates":{"lat":"-15.0","long":"-73.7833333"}},{"country":"pe","city":"Anas Orco","coordinates":{"lat":"-7.65","long":"-78.0166667"}},{"country":"pe","city":"Anaspampa","coordinates":{"lat":"-8.9166667","long":"-78.1666667"}},{"country":"pe","city":"Añaspampa","coordinates":{"lat":"-10.35","long":"-76.75"}},{"country":"pe","city":"Anatico","coordinates":{"lat":"-3.4972222","long":"-76.4488889"}},{"country":"pe","city":"Añatoyoc","coordinates":{"lat":"-15.2777778","long":"-72.5008333"}},{"country":"pe","city":"Anavlli Hacienda","coordinates":{"lat":"-15.8583333","long":"-70.5475"}},{"country":"pe","city":"Añay","coordinates":{"lat":"-10.2797222","long":"-76.2355556"}},{"country":"pe","city":"Anay","coordinates":{"lat":"-11.8444444","long":"-76.3625"}},{"country":"pe","city":"Añaycancha","coordinates":{"lat":"-13.4833333","long":"-74.05"}},{"country":"pe","city":"Añaypampa","coordinates":{"lat":"-11.1275","long":"-76.7841667"}},{"country":"pe","city":"Añaza","coordinates":{"lat":"-13.5333333","long":"-75.0166667"}},{"country":"pe","city":"Ancacc","coordinates":{"lat":"-13.0833333","long":"-75.95"}},{"country":"pe","city":"Ancache","coordinates":{"lat":"-15.3980556","long":"-71.4241667"}},{"country":"pe","city":"Ancache","coordinates":{"lat":"-16.7","long":"-69.2333333"}},{"country":"pe","city":"Ancacollo","coordinates":{"lat":"-17.2333333","long":"-69.7833333"}},{"country":"pe","city":"Ancahuachana","coordinates":{"lat":"-13.55","long":"-72.7333333"}},{"country":"pe","city":"Ancahuasi","coordinates":{"lat":"-13.45","long":"-72.3"}},{"country":"pe","city":"Ancallachi","coordinates":{"lat":"-15.4416667","long":"-71.3944444"}},{"country":"pe","city":"Ancamani","coordinates":{"lat":"-15.6927778","long":"-71.0930556"}},{"country":"pe","city":"Ancamarca","coordinates":{"lat":"-13.2180556","long":"-73.8713889"}},{"country":"pe","city":"Ancapampa","coordinates":{"lat":"-7.9277778","long":"-77.5861111"}},{"country":"pe","city":"Ancaro","coordinates":{"lat":"-15.2563889","long":"-72.9091667"}},{"country":"pe","city":"Ancas","coordinates":{"lat":"-16.0008333","long":"-71.2402778"}},{"country":"pe","city":"Ancasccocha","coordinates":{"lat":"-14.9333333","long":"-73.8333333"}},{"country":"pe","city":"Ancascocha","coordinates":{"lat":"-11.0955556","long":"-76.9513889"}},{"country":"pe","city":"Ancascocha Dique","coordinates":{"lat":"-14.9333333","long":"-73.8333333"}},{"country":"pe","city":"Ancasi","coordinates":{"lat":"-16.4","long":"-71.0666667"}},{"country":"pe","city":"Ancata","coordinates":{"lat":"-16.1833333","long":"-70.5"}},{"country":"pe","city":"Ancata","coordinates":{"lat":"-15.5166667","long":"-70.4333333"}},{"country":"pe","city":"Ancaya Pampa","coordinates":{"lat":"-13.6333333","long":"-75.5333333"}},{"country":"pe","city":"Anccas","coordinates":{"lat":"-13.8666667","long":"-74.8833333"}},{"country":"pe","city":"Anccase","coordinates":{"lat":"-15.9441667","long":"-71.1088889"}},{"country":"pe","city":"Anccasuyo","coordinates":{"lat":"-15.4927778","long":"-71.4241667"}},{"country":"pe","city":"Ancco","coordinates":{"lat":"-10.5077778","long":"-76.9341667"}},{"country":"pe","city":"Anccoccahua","coordinates":{"lat":"-15.2538889","long":"-71.7686111"}},{"country":"pe","city":"Anccoccota","coordinates":{"lat":"-15.2413889","long":"-71.7694444"}},{"country":"pe","city":"Anccochoco","coordinates":{"lat":"-15.1547222","long":"-71.3086111"}},{"country":"pe","city":"Anccontaña","coordinates":{"lat":"-15.6519444","long":"-71.1263889"}},{"country":"pe","city":"Anchaca","coordinates":{"lat":"-15.0041667","long":"-71.8891667"}},{"country":"pe","city":"Anchaca","coordinates":{"lat":"-14.8494444","long":"-71.8041667"}},{"country":"pe","city":"Anchaca","coordinates":{"lat":"-16.1833333","long":"-70.5"}},{"country":"pe","city":"Anchacahuasi","coordinates":{"lat":"-13.2833333","long":"-74.3333333"}},{"country":"pe","city":"Anchacalla","coordinates":{"lat":"-15.9088889","long":"-71.5811111"}},{"country":"pe","city":"Anchaccui","coordinates":{"lat":"-14.6983333","long":"-71.5769444"}},{"country":"pe","city":"Anchacotana","coordinates":{"lat":"-15.2333333","long":"-70.75"}},{"country":"pe","city":"Anchala","coordinates":{"lat":"-4.65","long":"-79.6166667"}},{"country":"pe","city":"Anchalay","coordinates":{"lat":"-4.5","long":"-79.8166667"}},{"country":"pe","city":"Anchalcapo","coordinates":{"lat":"-4.65","long":"-79.6166667"}},{"country":"pe","city":"Ancha Palca","coordinates":{"lat":"-15.4169444","long":"-71.4933333"}},{"country":"pe","city":"Anchapalla","coordinates":{"lat":"-15.5641667","long":"-72.4158333"}},{"country":"pe","city":"Anchapilla","coordinates":{"lat":"-15.3333333","long":"-73.7166667"}},{"country":"pe","city":"Anchapillay","coordinates":{"lat":"-14.0166667","long":"-72.4"}},{"country":"pe","city":"Anchaqui","coordinates":{"lat":"-15.75","long":"-73.3805556"}},{"country":"pe","city":"Anchayaque","coordinates":{"lat":"-14.6197222","long":"-72.0666667"}},{"country":"pe","city":"Anchayllioc","coordinates":{"lat":"-14.32","long":"-71.9983333"}},{"country":"pe","city":"Anche","coordinates":{"lat":"-11.7302778","long":"-76.2636111"}},{"country":"pe","city":"Anchicha","coordinates":{"lat":"-13.9833333","long":"-73.0"}},{"country":"pe","city":"Anchicocha","coordinates":{"lat":"-12.2","long":"-76.4"}},{"country":"pe","city":"Anchicocha Bajo","coordinates":{"lat":"-12.1833333","long":"-76.4"}},{"country":"pe","city":"Anchiguay","coordinates":{"lat":"-13.0058333","long":"-73.7730556"}},{"country":"pe","city":"Anchihuay","coordinates":{"lat":"-13.0166667","long":"-73.7333333"}},{"country":"pe","city":"Anchilhuay","coordinates":{"lat":"-13.0166667","long":"-73.7333333"}},{"country":"pe","city":"Anchimaja","coordinates":{"lat":"-11.8694444","long":"-76.4352778"}},{"country":"pe","city":"Anchivay","coordinates":{"lat":"-12.3166667","long":"-72.8333333"}},{"country":"pe","city":"Anchocotaña","coordinates":{"lat":"-15.2333333","long":"-70.75"}},{"country":"pe","city":"Anchocotara","coordinates":{"lat":"-15.2333333","long":"-70.75"}},{"country":"pe","city":"Anchonga","coordinates":{"lat":"-12.8833333","long":"-74.7"}},{"country":"pe","city":"Anchovira Alta","coordinates":{"lat":"-6.2755556","long":"-79.7422222"}},{"country":"pe","city":"Anchovira","coordinates":{"lat":"-6.2755556","long":"-79.7422222"}},{"country":"pe","city":"Anchovira Baja","coordinates":{"lat":"-6.2858333","long":"-79.7422222"}},{"country":"pe","city":"Anchuara","coordinates":{"lat":"-14.4763889","long":"-71.3733333"}},{"country":"pe","city":"Anchuyo","coordinates":{"lat":"-15.2833333","long":"-69.5166667"}},{"country":"pe","city":"Ancoamaya","coordinates":{"lat":"-16.1166667","long":"-69.9666667"}},{"country":"pe","city":"Ancoamayo","coordinates":{"lat":"-16.15","long":"-69.5833333"}},{"country":"pe","city":"Anco","coordinates":{"lat":"-15.5080556","long":"-73.895"}},{"country":"pe","city":"Anco","coordinates":{"lat":"-13.1169444","long":"-73.6897222"}},{"country":"pe","city":"Anco","coordinates":{"lat":"-12.6333333","long":"-74.6"}},{"country":"pe","city":"Anco","coordinates":{"lat":"-11.0286111","long":"-76.78"}},{"country":"pe","city":"Anco Anco","coordinates":{"lat":"-15.4569444","long":"-71.2141667"}},{"country":"pe","city":"Ancoanco","coordinates":{"lat":"-16.95","long":"-69.7666667"}},{"country":"pe","city":"Ancobamba","coordinates":{"lat":"-14.0491667","long":"-73.0938889"}},{"country":"pe","city":"Ancocahua","coordinates":{"lat":"-15.2011111","long":"-71.4230556"}},{"country":"pe","city":"Ancocala","coordinates":{"lat":"-14.55","long":"-69.6"}},{"country":"pe","city":"Ancocala","coordinates":{"lat":"-17.31","long":"-70.3858333"}},{"country":"pe","city":"Ancocamaña","coordinates":{"lat":"-16.9333333","long":"-69.5"}},{"country":"pe","city":"Ancoccahua","coordinates":{"lat":"-15.5958333","long":"-70.9719444"}},{"country":"pe","city":"Ancochaque","coordinates":{"lat":"-16.5333333","long":"-69.2833333"}},{"country":"pe","city":"Ancochaque","coordinates":{"lat":"-17.1136111","long":"-70.16"}},{"country":"pe","city":"Ancochuco","coordinates":{"lat":"-15.1611111","long":"-71.2311111"}},{"country":"pe","city":"Ancocirca","coordinates":{"lat":"-17.4180556","long":"-70.3983333"}},{"country":"pe","city":"Ancocollo","coordinates":{"lat":"-17.2547222","long":"-70.0980556"}},{"country":"pe","city":"Ancocoto","coordinates":{"lat":"-10.9833333","long":"-76.5"}},{"country":"pe","city":"Ancocucho","coordinates":{"lat":"-12.5230556","long":"-75.5952778"}},{"country":"pe","city":"Ancocullo","coordinates":{"lat":"-15.1916667","long":"-71.2072222"}},{"country":"pe","city":"Ancohaque","coordinates":{"lat":"-17.115","long":"-70.0613889"}},{"country":"pe","city":"Ancohuyo","coordinates":{"lat":"-17.2333333","long":"-69.7833333"}},{"country":"pe","city":"Ancolacaya","coordinates":{"lat":"-15.7616667","long":"-71.0230556"}},{"country":"pe","city":"Ancolaccaya","coordinates":{"lat":"-15.8238889","long":"-70.9563889"}},{"country":"pe","city":"Ancolaya","coordinates":{"lat":"-16.5666667","long":"-69.4"}},{"country":"pe","city":"Ancol Chico","coordinates":{"lat":"-5.9227778","long":"-80.0063889"}},{"country":"pe","city":"Ancol Chiquito","coordinates":{"lat":"-5.9227778","long":"-80.0063889"}},{"country":"pe","city":"Ancol Grande","coordinates":{"lat":"-5.9077778","long":"-80.0611111"}},{"country":"pe","city":"Ancollagua","coordinates":{"lat":"-15.3975","long":"-71.7808333"}},{"country":"pe","city":"Ancollo","coordinates":{"lat":"-15.1666667","long":"-69.3"}},{"country":"pe","city":"Ancoma","coordinates":{"lat":"-17.6208333","long":"-69.9580556"}},{"country":"pe","city":"Anco Marca","coordinates":{"lat":"-15.1980556","long":"-71.1833333"}},{"country":"pe","city":"Ancomarca","coordinates":{"lat":"-17.2","long":"-69.65"}},{"country":"pe","city":"Ancomarca Hacienda","coordinates":{"lat":"-17.2","long":"-69.65"}},{"country":"pe","city":"Ancón","coordinates":{"lat":"-11.7702778","long":"-77.1730556"}},{"country":"pe","city":"Ancón","coordinates":{"lat":"-3.2066667","long":"-72.0027778"}},{"country":"pe","city":"Anconasa","coordinates":{"lat":"-16.6","long":"-69.75"}},{"country":"pe","city":"Ancopadre","coordinates":{"lat":"-16.6333333","long":"-69.5833333"}},{"country":"pe","city":"Ancoparqui","coordinates":{"lat":"-15.25","long":"-69.15"}},{"country":"pe","city":"Ancopiteac","coordinates":{"lat":"-10.0","long":"-76.6"}},{"country":"pe","city":"Ancopoto","coordinates":{"lat":"-16.4666667","long":"-69.1666667"}},{"country":"pe","city":"Ancoquishcachayoj","coordinates":{"lat":"-14.8333333","long":"-74.55"}},{"country":"pe","city":"Ancorane","coordinates":{"lat":"-17.1333333","long":"-69.6166667"}},{"country":"pe","city":"Ancos","coordinates":{"lat":"-8.4833333","long":"-78.1"}},{"country":"pe","city":"Ancoyane","coordinates":{"lat":"-17.3333333","long":"-69.9666667"}},{"country":"pe","city":"Ancoyo","coordinates":{"lat":"-15.4430556","long":"-72.1272222"}},{"country":"pe","city":"Ancuna","coordinates":{"lat":"-15.5763889","long":"-70.5386111"}},{"country":"pe","city":"Ancuylla","coordinates":{"lat":"-14.85","long":"-73.5333333"}},{"country":"pe","city":"Ancuyo","coordinates":{"lat":"-17.6002778","long":"-69.6258333"}},{"country":"pe","city":"Anda","coordinates":{"lat":"-9.0544444","long":"-76.0738889"}},{"country":"pe","city":"Andabamba","coordinates":{"lat":"-12.65","long":"-74.6166667"}},{"country":"pe","city":"Andabay","coordinates":{"lat":"-17.4022222","long":"-70.3558333"}},{"country":"pe","city":"Andacancha Viejo","coordinates":{"lat":"-10.6716667","long":"-76.5469444"}},{"country":"pe","city":"Andachaca","coordinates":{"lat":"-10.6333333","long":"-76.55"}},{"country":"pe","city":"Andachaca Viejo","coordinates":{"lat":"-10.6722222","long":"-76.5708333"}},{"country":"pe","city":"Andagua","coordinates":{"lat":"-15.4986111","long":"-72.3552778"}},{"country":"pe","city":"Andahua","coordinates":{"lat":"-15.4986111","long":"-72.3552778"}},{"country":"pe","city":"Andahuailas","coordinates":{"lat":"-13.6605556","long":"-73.3866667"}},{"country":"pe","city":"Andahuailillas","coordinates":{"lat":"-13.6725","long":"-71.6794444"}},{"country":"pe","city":"Andahuasi","coordinates":{"lat":"-11.1166667","long":"-77.25"}},{"country":"pe","city":"Andahuavlas","coordinates":{"lat":"-13.6605556","long":"-73.3866667"}},{"country":"pe","city":"Andahuayasi","coordinates":{"lat":"-10.3166667","long":"-76.5333333"}},{"country":"pe","city":"Andahuaylas","coordinates":{"lat":"-13.6605556","long":"-73.3866667"}},{"country":"pe","city":"Andahuaylillas","coordinates":{"lat":"-13.6725","long":"-71.6794444"}},{"country":"pe","city":"Andahuaylla","coordinates":{"lat":"-10.4","long":"-76.5833333"}},{"country":"pe","city":"Andaimarca","coordinates":{"lat":"-13.9333333","long":"-75.3333333"}},{"country":"pe","city":"Andajes","coordinates":{"lat":"-10.7922222","long":"-76.9094444"}},{"country":"pe","city":"Andalaca","coordinates":{"lat":"-15.7680556","long":"-71.1561111"}},{"country":"pe","city":"Andalmailillas","coordinates":{"lat":"-13.6725","long":"-71.6794444"}},{"country":"pe","city":"Andalucia","coordinates":{"lat":"-7.2666667","long":"-78.0166667"}},{"country":"pe","city":"Andamarca","coordinates":{"lat":"-15.2208333","long":"-73.0066667"}},{"country":"pe","city":"Andamarca","coordinates":{"lat":"-13.6833333","long":"-74.0166667"}},{"country":"pe","city":"Andamarca","coordinates":{"lat":"-11.7666667","long":"-74.8333333"}},{"country":"pe","city":"Andamarca","coordinates":{"lat":"-6.2308333","long":"-79.4466667"}},{"country":"pe","city":"Andamarca","coordinates":{"lat":"-11.3","long":"-76.7666667"}},{"country":"pe","city":"Andamarca","coordinates":{"lat":"-15.6383333","long":"-70.5875"}},{"country":"pe","city":"Andamarca Hacienda","coordinates":{"lat":"-15.6383333","long":"-70.5875"}},{"country":"pe","city":"Andamayo","coordinates":{"lat":"-8.6666667","long":"-77.6333333"}},{"country":"pe","city":"Andamayo","coordinates":{"lat":"-15.1836111","long":"-71.5847222"}},{"country":"pe","city":"Andamayo","coordinates":{"lat":"-10.3988889","long":"-76.3077778"}},{"country":"pe","city":"Andamayo Hacienda","coordinates":{"lat":"-15.8436111","long":"-72.4508333"}},{"country":"pe","city":"Andanjo","coordinates":{"lat":"-5.3666667","long":"-79.6333333"}},{"country":"pe","city":"Andapicho","coordinates":{"lat":"-15.6547222","long":"-71.3075"}},{"country":"pe","city":"Andarapa","coordinates":{"lat":"-13.5277778","long":"-73.3633333"}},{"country":"pe","city":"Andarapa","coordinates":{"lat":"-15.8666667","long":"-72.7833333"}},{"country":"pe","city":"Andaray","coordinates":{"lat":"-15.7966667","long":"-72.8605556"}},{"country":"pe","city":"Andaymarca","coordinates":{"lat":"-13.9333333","long":"-75.3333333"}},{"country":"pe","city":"Andaymayo","coordinates":{"lat":"-8.6666667","long":"-77.6333333"}},{"country":"pe","city":"Andaymayo Hacienda","coordinates":{"lat":"-8.6666667","long":"-77.6333333"}},{"country":"pe","city":"Andenes","coordinates":{"lat":"-15.4833333","long":"-73.8666667"}},{"country":"pe","city":"Andenes","coordinates":{"lat":"-13.45","long":"-72.25"}},{"country":"pe","city":"Andenes Hacienda","coordinates":{"lat":"-13.45","long":"-72.25"}},{"country":"pe","city":"Andoas","coordinates":{"lat":"-2.9","long":"-76.4"}},{"country":"pe","city":"Anduma","coordinates":{"lat":"-15.4152778","long":"-71.1413889"}},{"country":"pe","city":"Andumayo","coordinates":{"lat":"-15.8436111","long":"-72.4508333"}},{"country":"pe","city":"Anduyu","coordinates":{"lat":"-15.735","long":"-71.0805556"}},{"country":"pe","city":"Anexo","coordinates":{"lat":"-14.1833333","long":"-75.7"}},{"country":"pe","city":"Anexo de la Hacienda Ongoro","coordinates":{"lat":"-15.9102778","long":"-72.4786111"}},{"country":"pe","city":"Angamos","coordinates":{"lat":"-8.4166667","long":"-74.4833333"}},{"country":"pe","city":"Angana","coordinates":{"lat":"-15.0666667","long":"-74.3833333"}},{"country":"pe","city":"Angaraya","coordinates":{"lat":"-4.8666667","long":"-79.5333333"}},{"country":"pe","city":"Angarayo","coordinates":{"lat":"-4.8666667","long":"-79.5333333"}},{"country":"pe","city":"Angas","coordinates":{"lat":"-13.7833333","long":"-74.5666667"}},{"country":"pe","city":"Angas","coordinates":{"lat":"-12.6333333","long":"-75.4333333"}},{"country":"pe","city":"Angasha","coordinates":{"lat":"-5.6077778","long":"-79.3725"}},{"country":"pe","city":"Angashi","coordinates":{"lat":"-2.8166667","long":"-76.7166667"}},{"country":"pe","city":"Angasjucha","coordinates":{"lat":"-14.05","long":"-73.5333333"}},{"country":"pe","city":"Angasjuclia","coordinates":{"lat":"-14.0647222","long":"-73.5311111"}},{"country":"pe","city":"Angasllanche","coordinates":{"lat":"-7.5552778","long":"-77.78"}},{"country":"pe","city":"Angasmarca","coordinates":{"lat":"-10.2405556","long":"-76.2322222"}},{"country":"pe","city":"Angasmarca","coordinates":{"lat":"-8.1333333","long":"-78.0666667"}},{"country":"pe","city":"Angasmarca Hacienda","coordinates":{"lat":"-8.1333333","long":"-78.0666667"}},{"country":"pe","city":"Angasmarquilla","coordinates":{"lat":"-7.7166667","long":"-78.1333333"}},{"country":"pe","city":"Angasmayo","coordinates":{"lat":"-13.3333333","long":"-74.3666667"}},{"country":"pe","city":"Angayaco","coordinates":{"lat":"-7.5344444","long":"-77.5780556"}},{"country":"pe","city":"Angaypahua","coordinates":{"lat":"-13.75","long":"-73.55"}},{"country":"pe","city":"Angela Arellano","coordinates":{"lat":"-10.7163889","long":"-73.7597222"}},{"country":"pe","city":"Angelo Tiana","coordinates":{"lat":"-6.945","long":"-78.16"}},{"country":"pe","city":"Angelpata","coordinates":{"lat":"-12.1666667","long":"-74.6833333"}},{"country":"pe","city":"Angiay","coordinates":{"lat":"-13.1116667","long":"-73.7825"}},{"country":"pe","city":"Angleya","coordinates":{"lat":"-16.8","long":"-70.75"}},{"country":"pe","city":"Ango","coordinates":{"lat":"-10.6905556","long":"-76.6963889"}},{"country":"pe","city":"Angola","coordinates":{"lat":"-4.1144444","long":"-80.9925"}},{"country":"pe","city":"Angola","coordinates":{"lat":"-18.1063889","long":"-70.6666667"}},{"country":"pe","city":"Angolla","coordinates":{"lat":"-8.2333333","long":"-78.3333333"}},{"country":"pe","city":"Angolo","coordinates":{"lat":"-6.5263889","long":"-80.0430556"}},{"country":"pe","city":"Angolo","coordinates":{"lat":"-4.1083333","long":"-81.0158333"}},{"country":"pe","city":"Angomachay","coordinates":{"lat":"-13.2166667","long":"-74.8833333"}},{"country":"pe","city":"Angosteros","coordinates":{"lat":"-1.5833333","long":"-74.5833333"}},{"country":"pe","city":"Angostura","coordinates":{"lat":"-15.3666667","long":"-74.15"}},{"country":"pe","city":"Angostura","coordinates":{"lat":"-14.4166667","long":"-74.7666667"}},{"country":"pe","city":"Angostura","coordinates":{"lat":"-14.6461111","long":"-71.6313889"}},{"country":"pe","city":"Angostura","coordinates":{"lat":"-14.0441667","long":"-75.7491667"}},{"country":"pe","city":"Angostura","coordinates":{"lat":"-5.9833333","long":"-80.3333333"}},{"country":"pe","city":"Angostura","coordinates":{"lat":"-4.4691667","long":"-81.0066667"}},{"country":"pe","city":"Angostura","coordinates":{"lat":"-16.4166667","long":"-69.9166667"}},{"country":"pe","city":"Angostura","coordinates":{"lat":"-17.305","long":"-70.2586111"}},{"country":"pe","city":"Angostura","coordinates":{"lat":"-3.7530556","long":"-80.4019444"}},{"country":"pe","city":"Angostura Ciudad","coordinates":{"lat":"-5.9833333","long":"-80.3333333"}},{"country":"pe","city":"Angostura Hacienda","coordinates":{"lat":"-4.9419444","long":"-80.3777778"}},{"country":"pe","city":"Angoteros","coordinates":{"lat":"-1.5833333","long":"-74.5833333"}},{"country":"pe","city":"Anguia","coordinates":{"lat":"-13.2","long":"-73.6333333"}},{"country":"pe","city":"Anguía","coordinates":{"lat":"-6.3166667","long":"-78.6"}},{"country":"pe","city":"Angulis","coordinates":{"lat":"-6.36","long":"-79.3661111"}},{"country":"pe","city":"Angulis Hacienda","coordinates":{"lat":"-6.36","long":"-79.3661111"}},{"country":"pe","city":"Angura","coordinates":{"lat":"-6.3166667","long":"-78.6"}},{"country":"pe","city":"Angurgo","coordinates":{"lat":"-4.9833333","long":"-80.0333333"}},{"country":"pe","city":"Angusilla","coordinates":{"lat":"-0.4333333","long":"-75.15"}},{"country":"pe","city":"Anguy","coordinates":{"lat":"-8.95","long":"-78.1166667"}},{"country":"pe","city":"Anguyo","coordinates":{"lat":"-14.1494444","long":"-71.1686111"}},{"country":"pe","city":"Anillune","coordinates":{"lat":"-16.8333333","long":"-70.5333333"}},{"country":"pe","city":"Animas","coordinates":{"lat":"-15.6780556","long":"-73.8138889"}},{"country":"pe","city":"Ánimas","coordinates":{"lat":"-6.9666667","long":"-79.6"}},{"country":"pe","city":"Animas","coordinates":{"lat":"-16.4333333","long":"-70.8"}},{"country":"pe","city":"Ánimas","coordinates":{"lat":"-3.7833333","long":"-80.6333333"}},{"country":"pe","city":"Animascancha","coordinates":{"lat":"-11.2272222","long":"-75.9208333"}},{"country":"pe","city":"Aniso","coordinates":{"lat":"-14.8086111","long":"-73.2911111"}},{"country":"pe","city":"Aniuma","coordinates":{"lat":"-14.9611111","long":"-71.9338889"}},{"country":"pe","city":"Anjolajaya","coordinates":{"lat":"-14.4463889","long":"-69.9122222"}},{"country":"pe","city":"Anjolla","coordinates":{"lat":"-13.4166667","long":"-74.6833333"}},{"country":"pe","city":"Anjo Uta","coordinates":{"lat":"-14.3672222","long":"-69.9383333"}},{"country":"pe","city":"Annape","coordinates":{"lat":"-6.5180556","long":"-80.0027778"}},{"country":"pe","city":"Annatira","coordinates":{"lat":"-15.5705556","long":"-71.2902778"}},{"country":"pe","city":"Añocalla","coordinates":{"lat":"-13.9666667","long":"-72.2666667"}},{"country":"pe","city":"Añoccalla","coordinates":{"lat":"-14.3833333","long":"-72.5333333"}},{"country":"pe","city":"Anoccara Pampa","coordinates":{"lat":"-13.95","long":"-74.0166667"}},{"country":"pe","city":"Anosmarca","coordinates":{"lat":"-13.5166667","long":"-74.5833333"}},{"country":"pe","city":"Anqui","coordinates":{"lat":"-15.4333333","long":"-74.3833333"}},{"country":"pe","city":"Anquicha","coordinates":{"lat":"-15.3094444","long":"-72.4086111"}},{"country":"pe","city":"Ansiacasa","coordinates":{"lat":"-15.3","long":"-69.8666667"}},{"country":"pe","city":"Anta","coordinates":{"lat":"-9.25","long":"-78.05"}},{"country":"pe","city":"Anta","coordinates":{"lat":"-15.1772222","long":"-71.3497222"}},{"country":"pe","city":"Anta","coordinates":{"lat":"-13.3480556","long":"-73.8325"}},{"country":"pe","city":"Anta","coordinates":{"lat":"-13.4630556","long":"-72.1552778"}},{"country":"pe","city":"Anta","coordinates":{"lat":"-12.7666667","long":"-74.65"}},{"country":"pe","city":"Anta","coordinates":{"lat":"-11.4591667","long":"-75.6844444"}},{"country":"pe","city":"Anta","coordinates":{"lat":"-10.3833333","long":"-77.6833333"}},{"country":"pe","city":"Anta","coordinates":{"lat":"-15.2833333","long":"-69.3833333"}},{"country":"pe","city":"Anta Anta","coordinates":{"lat":"-14.2333333","long":"-72.2833333"}},{"country":"pe","city":"Antabamba","coordinates":{"lat":"-13.4872222","long":"-73.5119444"}},{"country":"pe","city":"Antabamba","coordinates":{"lat":"-15.0994444","long":"-72.7694444"}},{"country":"pe","city":"Antabamba","coordinates":{"lat":"-13.4833333","long":"-72.55"}},{"country":"pe","city":"Antabamba","coordinates":{"lat":"-13.0333333","long":"-74.3166667"}},{"country":"pe","city":"Antabamba Hacienda","coordinates":{"lat":"-13.4833333","long":"-72.55"}},{"country":"pe","city":"Antacalla","coordinates":{"lat":"-14.3866667","long":"-71.3586111"}},{"country":"pe","city":"Antacalla","coordinates":{"lat":"-10.365","long":"-76.3069444"}},{"country":"pe","city":"Antacancha","coordinates":{"lat":"-12.9905556","long":"-75.5213889"}},{"country":"pe","city":"Antacancha","coordinates":{"lat":"-13.9333333","long":"-75.25"}},{"country":"pe","city":"Antacancha","coordinates":{"lat":"-12.7475","long":"-75.7052778"}},{"country":"pe","city":"Antacarana","coordinates":{"lat":"-14.1833333","long":"-71.2075"}},{"country":"pe","city":"Antacarca","coordinates":{"lat":"-15.2038889","long":"-72.0011111"}},{"country":"pe","city":"Antaccahua","coordinates":{"lat":"-15.8186111","long":"-71.3938889"}},{"country":"pe","city":"Antaccasa","coordinates":{"lat":"-13.5","long":"-72.9666667"}},{"country":"pe","city":"Antaccollo","coordinates":{"lat":"-15.3138889","long":"-71.7041667"}},{"country":"pe","city":"Antacocha","coordinates":{"lat":"-11.2111111","long":"-75.7927778"}},{"country":"pe","city":"Antacocha","coordinates":{"lat":"-10.5897222","long":"-76.9716667"}},{"country":"pe","city":"Antacollo","coordinates":{"lat":"-15.2219444","long":"-71.9486111"}},{"country":"pe","city":"Antacolpa","coordinates":{"lat":"-10.25","long":"-76.6833333"}},{"country":"pe","city":"Antacorral","coordinates":{"lat":"-13.1166667","long":"-73.8"}},{"country":"pe","city":"Antacucho","coordinates":{"lat":"-13.0666667","long":"-74.2833333"}},{"country":"pe","city":"Antacunca","coordinates":{"lat":"-15.0166667","long":"-69.7166667"}},{"country":"pe","city":"Anta Hacienda","coordinates":{"lat":"-15.2833333","long":"-69.3833333"}},{"country":"pe","city":"Anta Huaca","coordinates":{"lat":"-11.1394444","long":"-76.7455556"}},{"country":"pe","city":"Anta Huaico","coordinates":{"lat":"-14.9666667","long":"-73.6666667"}},{"country":"pe","city":"Antahualla","coordinates":{"lat":"-12.8833333","long":"-76.0833333"}},{"country":"pe","city":"Antahuancan","coordinates":{"lat":"-10.5808333","long":"-76.9130556"}},{"country":"pe","city":"Antahuanco","coordinates":{"lat":"-13.6333333","long":"-74.7"}},{"country":"pe","city":"Antahuara","coordinates":{"lat":"-10.7172222","long":"-76.8386111"}},{"country":"pe","city":"Antahuayco","coordinates":{"lat":"-14.4361111","long":"-71.2527778"}},{"country":"pe","city":"Antahuiri","coordinates":{"lat":"-14.4230556","long":"-71.1008333"}},{"country":"pe","city":"Antahuyo","coordinates":{"lat":"-15.0833333","long":"-69.65"}},{"country":"pe","city":"Antaimarca","coordinates":{"lat":"-14.4130556","long":"-71.3130556"}},{"country":"pe","city":"Antajahua","coordinates":{"lat":"-16.1333333","long":"-70.6"}},{"country":"pe","city":"Antajahuinto","coordinates":{"lat":"-16.2666667","long":"-69.6666667"}},{"country":"pe","city":"Antajave","coordinates":{"lat":"-16.1666667","long":"-70.0833333"}},{"country":"pe","city":"Antajo","coordinates":{"lat":"-12.3","long":"-75.4833333"}},{"country":"pe","city":"Antalla","coordinates":{"lat":"-13.1833333","long":"-75.9333333"}},{"country":"pe","city":"Antallane","coordinates":{"lat":"-15.2166667","long":"-73.9"}},{"country":"pe","city":"Antamachay","coordinates":{"lat":"-13.0833333","long":"-74.4833333"}},{"country":"pe","city":"Antamala","coordinates":{"lat":"-12.6327778","long":"-75.9841667"}},{"country":"pe","city":"Antamaray","coordinates":{"lat":"-10.39","long":"-76.0758333"}},{"country":"pe","city":"Antamarca","coordinates":{"lat":"-15.2166667","long":"-73.4827778"}},{"country":"pe","city":"Antamarca","coordinates":{"lat":"-12.9605556","long":"-75.8355556"}},{"country":"pe","city":"Antamasa","coordinates":{"lat":"-11.65","long":"-76.75"}},{"country":"pe","city":"Antamina","coordinates":{"lat":"-9.7666667","long":"-77.1"}},{"country":"pe","city":"Antaña","coordinates":{"lat":"-14.6541667","long":"-71.6355556"}},{"country":"pe","city":"Antanaiso","coordinates":{"lat":"-15.4666667","long":"-73.25"}},{"country":"pe","city":"Antanga","coordinates":{"lat":"-6.1391667","long":"-79.3561111"}},{"country":"pe","city":"Antanta","coordinates":{"lat":"-15.5838889","long":"-71.5802778"}},{"country":"pe","city":"Antapaccha","coordinates":{"lat":"-11.5","long":"-76.15"}},{"country":"pe","city":"Antapacha","coordinates":{"lat":"-12.925","long":"-75.7869444"}},{"country":"pe","city":"Anta Palca","coordinates":{"lat":"-15.1772222","long":"-71.3497222"}},{"country":"pe","city":"Antapalca","coordinates":{"lat":"-17.0166667","long":"-69.3833333"}},{"country":"pe","city":"Antapalca Hacienda","coordinates":{"lat":"-17.0166667","long":"-69.3833333"}},{"country":"pe","city":"Antapallpa","coordinates":{"lat":"-14.1277778","long":"-71.7169444"}},{"country":"pe","city":"Antapampa","coordinates":{"lat":"-15.9369444","long":"-71.7430556"}},{"country":"pe","city":"Antapampa","coordinates":{"lat":"-10.8191667","long":"-76.7097222"}},{"country":"pe","city":"Antaparara","coordinates":{"lat":"-14.3155556","long":"-69.9886111"}},{"country":"pe","city":"Antaparco","coordinates":{"lat":"-13.0736111","long":"-74.4119444"}},{"country":"pe","city":"Antaparera","coordinates":{"lat":"-14.2255556","long":"-71.4894444"}},{"country":"pe","city":"Antapata","coordinates":{"lat":"-10.1447222","long":"-76.4419444"}},{"country":"pe","city":"Antapata","coordinates":{"lat":"-13.9666667","long":"-70.5"}},{"country":"pe","city":"Anta Picho","coordinates":{"lat":"-15.415","long":"-71.2294444"}},{"country":"pe","city":"Antapirca","coordinates":{"lat":"-10.3666667","long":"-76.3394444"}},{"country":"pe","city":"Antapita","coordinates":{"lat":"-7.8377778","long":"-77.5961111"}},{"country":"pe","city":"Anta Piteac","coordinates":{"lat":"-10.0666667","long":"-76.5166667"}},{"country":"pe","city":"Antapitec","coordinates":{"lat":"-10.5208333","long":"-76.6702778"}},{"country":"pe","city":"Antapucro","coordinates":{"lat":"-12.0333333","long":"-76.6333333"}},{"country":"pe","city":"Antapucro Hacienda","coordinates":{"lat":"-12.0333333","long":"-76.6333333"}},{"country":"pe","city":"Antapunco","coordinates":{"lat":"-14.2666667","long":"-72.1833333"}},{"country":"pe","city":"Antarajra","coordinates":{"lat":"-13.2333333","long":"-74.7666667"}},{"country":"pe","city":"Antarana","coordinates":{"lat":"-15.2511111","long":"-71.4797222"}},{"country":"pe","city":"Antarco","coordinates":{"lat":"-12.665","long":"-75.9486111"}},{"country":"pe","city":"Antarraga","coordinates":{"lat":"-9.9833333","long":"-77.3333333"}},{"country":"pe","city":"Antasco","coordinates":{"lat":"-13.7","long":"-73.65"}},{"country":"pe","city":"Antasgo","coordinates":{"lat":"-13.7666667","long":"-73.5333333"}},{"country":"pe","city":"Antashallalle","coordinates":{"lat":"-14.6202778","long":"-71.8877778"}},{"country":"pe","city":"Antasuma","coordinates":{"lat":"-15.1833333","long":"-73.0672222"}},{"country":"pe","city":"Antasura","coordinates":{"lat":"-15.7736111","long":"-71.6"}},{"country":"pe","city":"Antataca","coordinates":{"lat":"-14.2333333","long":"-72.0666667"}},{"country":"pe","city":"Antataca Hacienda","coordinates":{"lat":"-14.2333333","long":"-72.0666667"}},{"country":"pe","city":"Anta Ucro","coordinates":{"lat":"-11.4797222","long":"-75.7380556"}},{"country":"pe","city":"Antaullo","coordinates":{"lat":"-12.8063889","long":"-75.7802778"}},{"country":"pe","city":"Antauta","coordinates":{"lat":"-14.2666667","long":"-70.5666667"}},{"country":"pe","city":"Antayacce","coordinates":{"lat":"-15.1866667","long":"-71.3772222"}},{"country":"pe","city":"Antayaque","coordinates":{"lat":"-15.2775","long":"-71.4963889"}},{"country":"pe","city":"Antemasa","coordinates":{"lat":"-15.7344444","long":"-72.5530556"}},{"country":"pe","city":"Anticura","coordinates":{"lat":"-5.3666667","long":"-74.2833333"}},{"country":"pe","city":"Antigua","coordinates":{"lat":"-13.2","long":"-70.3666667"}},{"country":"pe","city":"Antigua Misión de Miaria","coordinates":{"lat":"-11.2925","long":"-72.9977778"}},{"country":"pe","city":"Antiguo","coordinates":{"lat":"-13.2","long":"-70.3666667"}},{"country":"pe","city":"Antilla","coordinates":{"lat":"-13.65","long":"-72.5666667"}},{"country":"pe","city":"Antillas","coordinates":{"lat":"-6.4833333","long":"-79.7333333"}},{"country":"pe","city":"Antio","coordinates":{"lat":"-14.0833333","long":"-72.2666667"}},{"country":"pe","city":"Antioquía","coordinates":{"lat":"-12.0833333","long":"-76.5166667"}},{"country":"pe","city":"Antioquia","coordinates":{"lat":"-3.05","long":"-73.35"}},{"country":"pe","city":"Antonioco","coordinates":{"lat":"-16.0333333","long":"-70.3333333"}},{"country":"pe","city":"Antonio Pampa","coordinates":{"lat":"-14.0197222","long":"-71.0863889"}},{"country":"pe","city":"Antotaña","coordinates":{"lat":"-15.7547222","long":"-71.4480556"}},{"country":"pe","city":"Antoyo","coordinates":{"lat":"-15.6805556","long":"-71.5930556"}},{"country":"pe","city":"Antucrun","coordinates":{"lat":"-11.0069444","long":"-76.705"}},{"country":"pe","city":"Antune","coordinates":{"lat":"-15.1427778","long":"-71.4011111"}},{"country":"pe","city":"Antuyo","coordinates":{"lat":"-14.7522222","long":"-71.7163889"}},{"country":"pe","city":"Antuyo","coordinates":{"lat":"-15.7572222","long":"-70.8016667"}},{"country":"pe","city":"Anucara","coordinates":{"lat":"-12.6588889","long":"-75.6605556"}},{"country":"pe","city":"Anuro","coordinates":{"lat":"-15.3961111","long":"-72.3072222"}},{"country":"pe","city":"Añutani","coordinates":{"lat":"-16.4833333","long":"-69.5"}},{"country":"pe","city":"Anyay","coordinates":{"lat":"-14.65","long":"-74.6833333"}},{"country":"pe","city":"Anyay","coordinates":{"lat":"-10.355","long":"-76.2022222"}},{"country":"pe","city":"Anyo","coordinates":{"lat":"-14.2833333","long":"-72.2833333"}},{"country":"pe","city":"Apachaco","coordinates":{"lat":"-14.87","long":"-71.5352778"}},{"country":"pe","city":"Apache","coordinates":{"lat":"-11.0497222","long":"-76.9597222"}},{"country":"pe","city":"Apacheta","coordinates":{"lat":"-15.0902778","long":"-72.3958333"}},{"country":"pe","city":"Apacheta","coordinates":{"lat":"-14.3833333","long":"-74.7666667"}},{"country":"pe","city":"Apacheta","coordinates":{"lat":"-14.2805556","long":"-71.4063889"}},{"country":"pe","city":"Apacheta","coordinates":{"lat":"-14.4794444","long":"-69.5863889"}},{"country":"pe","city":"Apacheta de Jaisura","coordinates":{"lat":"-15.7666667","long":"-72.7680556"}},