[{"country":"se","city":"Å","coordinates":{"lat":"62.9","long":"17.833333"}},{"country":"se","city":"Å","coordinates":{"lat":"58.266667","long":"11.85"}},{"country":"se","city":"Aapua","coordinates":{"lat":"66.85","long":"23.533333"}},{"country":"se","city":"Aareavaara","coordinates":{"lat":"67.45","long":"23.5"}},{"country":"se","city":"Åbacka","coordinates":{"lat":"65.466667","long":"16.9"}},{"country":"se","city":"Åbacken","coordinates":{"lat":"63.15","long":"16.983333"}},{"country":"se","city":"Åbarp","coordinates":{"lat":"56.033333","long":"13.633333"}},{"country":"se","city":"Abbantorp","coordinates":{"lat":"56.75","long":"16.65"}},{"country":"se","city":"Åbbåsen","coordinates":{"lat":"63.033333","long":"14.366667"}},{"country":"se","city":"Abbekås","coordinates":{"lat":"55.4","long":"13.6"}},{"country":"se","city":"Abbeshult","coordinates":{"lat":"56.666667","long":"13.416667"}},{"country":"se","city":"Abbetorp","coordinates":{"lat":"56.95","long":"16.133333"}},{"country":"se","city":"Abbetorp","coordinates":{"lat":"58.3","long":"14.95"}},{"country":"se","city":"Abborkroken","coordinates":{"lat":"59.369444","long":"18.633333"}},{"country":"se","city":"Abborraslätt","coordinates":{"lat":"56.6","long":"13.983333"}},{"country":"se","city":"Abborrberg","coordinates":{"lat":"60.15","long":"14.8"}},{"country":"se","city":"Abborrberg","coordinates":{"lat":"65.483333","long":"16.6"}},{"country":"se","city":"Abborrberget","coordinates":{"lat":"60.15","long":"14.8"}},{"country":"se","city":"Abborremåla","coordinates":{"lat":"56.383333","long":"14.733333"}},{"country":"se","city":"Abborrholmberget","coordinates":{"lat":"64.433333","long":"15.633333"}},{"country":"se","city":"Abborrhult","coordinates":{"lat":"57.35","long":"12.666667"}},{"country":"se","city":"Abborrselet","coordinates":{"lat":"62.85","long":"15.866667"}},{"country":"se","city":"Abborrsjöknoppen","coordinates":{"lat":"61.6","long":"14.666667"}},{"country":"se","city":"Abborrtjärn","coordinates":{"lat":"64.233333","long":"19.733333"}},{"country":"se","city":"Abborrtorp","coordinates":{"lat":"58.666667","long":"16.75"}},{"country":"se","city":"Abborrträsk","coordinates":{"lat":"65.45","long":"19.383333"}},{"country":"se","city":"Abborrträsk","coordinates":{"lat":"64.5","long":"19.333333"}},{"country":"se","city":"Abborträsk","coordinates":{"lat":"65.45","long":"19.383333"}},{"country":"se","city":"Åberga","coordinates":{"lat":"61.166667","long":"14.766667"}},{"country":"se","city":"Aberga","coordinates":{"lat":"59.65","long":"16.666667"}},{"country":"se","city":"Åberget","coordinates":{"lat":"65.966667","long":"19.483333"}},{"country":"se","city":"Åberget","coordinates":{"lat":"60.783333","long":"12.666667"}},{"country":"se","city":"Åberget","coordinates":{"lat":"63.15","long":"16.983333"}},{"country":"se","city":"Abild","coordinates":{"lat":"56.933333","long":"12.716667"}},{"country":"se","city":"Abisko","coordinates":{"lat":"68.333333","long":"18.85"}},{"country":"se","city":"Abjörnahall","coordinates":{"lat":"56.1","long":"15.783333"}},{"country":"se","city":"Åbo","coordinates":{"lat":"61.766667","long":"15.816667"}},{"country":"se","city":"Aboda","coordinates":{"lat":"57.066667","long":"15.966667"}},{"country":"se","city":"Åboda","coordinates":{"lat":"57.083333","long":"14.466667"}},{"country":"se","city":"Åboda","coordinates":{"lat":"59.716667","long":"15.133333"}},{"country":"se","city":"Åbogen","coordinates":{"lat":"56.5","long":"14.6"}},{"country":"se","city":"Åboland","coordinates":{"lat":"58.533056","long":"11.7"}},{"country":"se","city":"Åbord","coordinates":{"lat":"62.783333","long":"17.966667"}},{"country":"se","city":"Åbosjö","coordinates":{"lat":"63.75","long":"17.766667"}},{"country":"se","city":"Åbosjön","coordinates":{"lat":"63.75","long":"17.766667"}},{"country":"se","city":"Abrahamså","coordinates":{"lat":"66.066667","long":"21.65"}},{"country":"se","city":"Abrahamsån","coordinates":{"lat":"66.066667","long":"21.65"}},{"country":"se","city":"Abramså","coordinates":{"lat":"66.066667","long":"21.65"}},{"country":"se","city":"Abramsån","coordinates":{"lat":"66.066667","long":"21.65"}},{"country":"se","city":"Åbränna","coordinates":{"lat":"63.816667","long":"13.1"}},{"country":"se","city":"Åbro","coordinates":{"lat":"56.883333","long":"16.333333"}},{"country":"se","city":"Åbron","coordinates":{"lat":"60.85","long":"16.7"}},{"country":"se","city":"Åbrotorpen","coordinates":{"lat":"60.833333","long":"16.7"}},{"country":"se","city":"Åbuen","coordinates":{"lat":"56.316667","long":"13.916667"}},{"country":"se","city":"Åby","coordinates":{"lat":"60.65","long":"17.033333"}},{"country":"se","city":"Åby","coordinates":{"lat":"56.583333","long":"16.65"}},{"country":"se","city":"Åby","coordinates":{"lat":"56.7","long":"15.55"}},{"country":"se","city":"Åby","coordinates":{"lat":"59.15","long":"15.283333"}},{"country":"se","city":"Åby","coordinates":{"lat":"58.666667","long":"16.183333"}},{"country":"se","city":"Åby","coordinates":{"lat":"59.633333","long":"17.45"}},{"country":"se","city":"Åby","coordinates":{"lat":"59.6","long":"16.3"}},{"country":"se","city":"Åby","coordinates":{"lat":"59.9","long":"18.716667"}},{"country":"se","city":"Åby","coordinates":{"lat":"56.05","long":"14.466667"}},{"country":"se","city":"Åby","coordinates":{"lat":"57.65","long":"12"}},{"country":"se","city":"Åbyfors","coordinates":{"lat":"57.033333","long":"14.766667"}},{"country":"se","city":"Åbyggeby","coordinates":{"lat":"60.733333","long":"17.116667"}},{"country":"se","city":"Åbyholm","coordinates":{"lat":"56.433333","long":"15.616667"}},{"country":"se","city":"Åbylund","coordinates":{"lat":"58.966667","long":"17.416667"}},{"country":"se","city":"Åbyn","coordinates":{"lat":"60.916667","long":"17.033333"}},{"country":"se","city":"Åbyn","coordinates":{"lat":"63.95","long":"20.416667"}},{"country":"se","city":"Åbysäter","coordinates":{"lat":"58.283333","long":"15.483333"}},{"country":"se","city":"Åbytorp","coordinates":{"lat":"59.116667","long":"15.066667"}},{"country":"se","city":"Åckelsjö","coordinates":{"lat":"63.85","long":"19.7"}},{"country":"se","city":"Åckelsta","coordinates":{"lat":"59.7","long":"18.066667"}},{"country":"se","city":"Acklinga","coordinates":{"lat":"58.2","long":"13.866667"}},{"country":"se","city":"Äcklingsedet","coordinates":{"lat":"63.716667","long":"12.966667"}},{"country":"se","city":"Äckran","coordinates":{"lat":"57.666667","long":"11.866667"}},{"country":"se","city":"Äckron","coordinates":{"lat":"57.666667","long":"11.866667"}},{"country":"se","city":"Acksi","coordinates":{"lat":"60.916667","long":"14.233056"}},{"country":"se","city":"Acksjöåsen","coordinates":{"lat":"60.333333","long":"13.833333"}},{"country":"se","city":"Acksjöhyttan","coordinates":{"lat":"59.683333","long":"13.75"}},{"country":"se","city":"Acksjön","coordinates":{"lat":"59.633056","long":"13.733056"}},{"country":"se","city":"Acktjära","coordinates":{"lat":"61.266667","long":"16.483333"}},{"country":"se","city":"Acktjärn","coordinates":{"lat":"60.283333","long":"15.8"}},{"country":"se","city":"Åd","coordinates":{"lat":"56.433333","long":"16.116667"}},{"country":"se","city":"Adak","coordinates":{"lat":"65.35","long":"18.616667"}},{"country":"se","city":"Adakgruvan","coordinates":{"lat":"65.366667","long":"18.6"}},{"country":"se","city":"Adakjaure","coordinates":{"lat":"66.666667","long":"20.55"}},{"country":"se","city":"Adakliden","coordinates":{"lat":"65.333333","long":"18.583333"}},{"country":"se","city":"Ådala","coordinates":{"lat":"59.033056","long":"17.983056"}},{"country":"se","city":"Ådal","coordinates":{"lat":"62.866667","long":"18.333333"}},{"country":"se","city":"Ådalen","coordinates":{"lat":"59.833333","long":"16.916667"}},{"country":"se","city":"Adbodarna","coordinates":{"lat":"61.183056","long":"13.533056"}},{"country":"se","city":"Ädelfors","coordinates":{"lat":"57.416667","long":"15.316667"}},{"country":"se","city":"Adelöv","coordinates":{"lat":"58.033333","long":"14.666667"}},{"country":"se","city":"Ådö","coordinates":{"lat":"59.466667","long":"17.583333"}},{"country":"se","city":"Adolfsberg","coordinates":{"lat":"59.25","long":"15.166667"}},{"country":"se","city":"Adolfsfors","coordinates":{"lat":"59.8","long":"12.216667"}},{"country":"se","city":"Adolfsström","coordinates":{"lat":"66.283333","long":"16.666667"}},{"country":"se","city":"Adolfström","coordinates":{"lat":"66.283333","long":"16.666667"}},{"country":"se","city":"Ådran","coordinates":{"lat":"59.133056","long":"18"}},{"country":"se","city":"Adriansnäs","coordinates":{"lat":"57.546389","long":"16.590833"}},{"country":"se","city":"Adseke","coordinates":{"lat":"56.033333","long":"13.733333"}},{"country":"se","city":"Åfärd","coordinates":{"lat":"57.883333","long":"13.533333"}},{"country":"se","city":"Afholm","coordinates":{"lat":"61.9","long":"16.55"}},{"country":"se","city":"Åflo","coordinates":{"lat":"63.483333","long":"13.866667"}},{"country":"se","city":"Åfors","coordinates":{"lat":"56.75","long":"15.483333"}},{"country":"se","city":"Åfors","coordinates":{"lat":"65.25","long":"20.7"}},{"country":"se","city":"Afva","coordinates":{"lat":"61.816667","long":"16.55"}},{"country":"se","city":"Afva","coordinates":{"lat":"62.448889","long":"17.649722"}},{"country":"se","city":"Afvaliden","coordinates":{"lat":"64.866667","long":"19.416667"}},{"country":"se","city":"Afvan","coordinates":{"lat":"65.683333","long":"21.8"}},{"country":"se","city":"Afvan","coordinates":{"lat":"64.333333","long":"21.3"}},{"country":"se","city":"Afvasjö","coordinates":{"lat":"64.266667","long":"16.916667"}},{"country":"se","city":"Afvaträsk","coordinates":{"lat":"64.333333","long":"16.283333"}},{"country":"se","city":"Afvaudden","coordinates":{"lat":"66.433333","long":"20.666667"}},{"country":"se","city":"Afvelsäter","coordinates":{"lat":"59.1","long":"12.8"}},{"country":"se","city":"Afvelsbol","coordinates":{"lat":"59.533333","long":"12.816667"}},{"country":"se","city":"Agalma","coordinates":{"lat":"60.316667","long":"18.308333"}},{"country":"se","city":"Ågård","coordinates":{"lat":"56.433333","long":"13.333333"}},{"country":"se","city":"Agebo","coordinates":{"lat":"56.666667","long":"15.833333"}},{"country":"se","city":"Ägelsta","coordinates":{"lat":"59.1","long":"14.85"}},{"country":"se","city":"Ägenas","coordinates":{"lat":"59.216667","long":"12.3"}},{"country":"se","city":"Ageröd","coordinates":{"lat":"55.933333","long":"13.4"}},{"country":"se","city":"Agerör","coordinates":{"lat":"56.916667","long":"12.4"}},{"country":"se","city":"Ägersgöl","coordinates":{"lat":"57.683333","long":"15.116667"}},{"country":"se","city":"Ägersryd","coordinates":{"lat":"57.766667","long":"14.983333"}},{"country":"se","city":"Ågersta","coordinates":{"lat":"59.583333","long":"17.333333"}},{"country":"se","city":"Agerum","coordinates":{"lat":"56.15","long":"14.633333"}},{"country":"se","city":"Ågesta","coordinates":{"lat":"59.233333","long":"18.083333"}},{"country":"se","city":"Äggarna","coordinates":{"lat":"62.016667","long":"14.3"}},{"country":"se","city":"Aggarp","coordinates":{"lat":"57.583333","long":"14.866667"}},{"country":"se","city":"Aggarp","coordinates":{"lat":"55.5","long":"13.233333"}},{"country":"se","city":"Aggarp","coordinates":{"lat":"57.35","long":"13.333333"}},{"country":"se","city":"Aggatorp","coordinates":{"lat":"57.3","long":"15.533333"}},{"country":"se","city":"Äggdal","coordinates":{"lat":"57.85","long":"11.683333"}},{"country":"se","city":"Aggebo","coordinates":{"lat":"57.783333","long":"15.266667"}},{"country":"se","city":"Äggen","coordinates":{"lat":"62.016667","long":"14.3"}},{"country":"se","city":"Äggen","coordinates":{"lat":"60.583333","long":"13.8"}},{"country":"se","city":"Aggerud","coordinates":{"lat":"59.316667","long":"14.5"}},{"country":"se","city":"Äggfors","coordinates":{"lat":"63.316667","long":"13.683333"}},{"country":"se","city":"Aggnäs","coordinates":{"lat":"63.85","long":"19.266667"}},{"country":"se","city":"Aggösund","coordinates":{"lat":"63.3","long":"19.083333"}},{"country":"se","city":"Aggösundet","coordinates":{"lat":"63.3","long":"19.083333"}},{"country":"se","city":"Äggsjön","coordinates":{"lat":"63.55","long":"12.833333"}},{"country":"se","city":"Agnaryd","coordinates":{"lat":"57","long":"14.4"}},{"country":"se","city":"Agnesberg","coordinates":{"lat":"57.783333","long":"12"}},{"country":"se","city":"Agnesund","coordinates":{"lat":"59.516667","long":"16.966667"}},{"country":"se","city":"Agnetar","coordinates":{"lat":"57.1","long":"13.533333"}},{"country":"se","city":"Agnetaryd","coordinates":{"lat":"57.1","long":"13.533333"}},{"country":"se","city":"Ägnö","coordinates":{"lat":"59.25","long":"18.383333"}},{"country":"se","city":"Agö Hamn","coordinates":{"lat":"61.539167","long":"17.434444"}},{"country":"se","city":"Ågs Bruk","coordinates":{"lat":"60.766667","long":"16.05"}},{"country":"se","city":"Agunnaryd","coordinates":{"lat":"56.75","long":"14.15"}},{"country":"se","city":"Agusa","coordinates":{"lat":"55.766667","long":"13.983333"}},{"country":"se","city":"Aha","coordinates":{"lat":"65.466667","long":"17.75"}},{"country":"se","city":"Åhaga","coordinates":{"lat":"58.033333","long":"16.116667"}},{"country":"se","city":"Åheden","coordinates":{"lat":"63.683333","long":"20.05"}},{"country":"se","city":"Åholmen","coordinates":{"lat":"59.483333","long":"16.283333"}},{"country":"se","city":"Åhult","coordinates":{"lat":"57.416667","long":"14.833333"}},{"country":"se","city":"Åhult","coordinates":{"lat":"56.9","long":"15.333333"}},{"country":"se","city":"Åhult","coordinates":{"lat":"57.316667","long":"13.333333"}},{"country":"se","city":"Åhus","coordinates":{"lat":"55.916667","long":"14.283333"}},{"country":"se","city":"Åhusby","coordinates":{"lat":"59.6","long":"17.9"}},{"country":"se","city":"Åhuskärr","coordinates":{"lat":"55.816667","long":"14.183333"}},{"country":"se","city":"Åhylte","coordinates":{"lat":"57.05","long":"13.116667"}},{"country":"se","city":"Äijävaara","coordinates":{"lat":"66.933333","long":"22.05"}},{"country":"se","city":"Äijävara","coordinates":{"lat":"66.933333","long":"22.05"}},{"country":"se","city":"Airivaara","coordinates":{"lat":"67.383333","long":"23.716667"}},{"country":"se","city":"Aitejokk","coordinates":{"lat":"67.816667","long":"19.716667"}},{"country":"se","city":"Ajaur","coordinates":{"lat":"64.766667","long":"19.233333"}},{"country":"se","city":"Ajaureforsen","coordinates":{"lat":"65.5","long":"15.666667"}},{"country":"se","city":"Äjmunds","coordinates":{"lat":"57.45","long":"18.266667"}},{"country":"se","city":"Ajumunds","coordinates":{"lat":"57.45","long":"18.266667"}},{"country":"se","city":"Åkarp","coordinates":{"lat":"57.75","long":"14.266667"}},{"country":"se","city":"Åkarp","coordinates":{"lat":"57.516667","long":"15.7"}},{"country":"se","city":"Åkarp","coordinates":{"lat":"55.65","long":"13.116667"}},{"country":"se","city":"Åkarp","coordinates":{"lat":"58.233333","long":"13.65"}},{"country":"se","city":"Akastugan","coordinates":{"lat":"67.633333","long":"17.433333"}},{"country":"se","city":"Åkebo","coordinates":{"lat":"57.483333","long":"15.716667"}},{"country":"se","city":"Åkeholm","coordinates":{"lat":"56.283333","long":"14.75"}},{"country":"se","city":"Åker","coordinates":{"lat":"56.983333","long":"13.333333"}},{"country":"se","city":"Åker","coordinates":{"lat":"57.383333","long":"13.983333"}},{"country":"se","city":"Åker","coordinates":{"lat":"57.116667","long":"15.266667"}},{"country":"se","city":"Åker","coordinates":{"lat":"59.25","long":"17.083333"}},{"country":"se","city":"Åker","coordinates":{"lat":"58.183333","long":"11.75"}},{"country":"se","city":"Åkeräng","coordinates":{"lat":"63.133333","long":"14.5"}},{"country":"se","city":"Åkerängen","coordinates":{"lat":"66.116667","long":"22.8"}},{"country":"se","city":"Åkerbäck","coordinates":{"lat":"64.066667","long":"20.316667"}},{"country":"se","city":"Åkerbergshult","coordinates":{"lat":"56.716667","long":"13.466667"}},{"country":"se","city":"Åkerbränna","coordinates":{"lat":"63.9","long":"16.933333"}},{"country":"se","city":"Åkerby","coordinates":{"lat":"60.883333","long":"16.683333"}},{"country":"se","city":"Åkerby","coordinates":{"lat":"56.683333","long":"16.683333"}},{"country":"se","city":"Åkerby","coordinates":{"lat":"56.65","long":"15.333333"}},{"country":"se","city":"Åkerby","coordinates":{"lat":"65.983333","long":"21.2"}},{"country":"se","city":"Åkerby","coordinates":{"lat":"59.2","long":"15.5"}},{"country":"se","city":"Åkerby","coordinates":{"lat":"59.55","long":"17.316667"}},{"country":"se","city":"Åkerby","coordinates":{"lat":"59.566667","long":"15.866667"}},{"country":"se","city":"Åkerby","coordinates":{"lat":"59.05","long":"17.55"}},{"country":"se","city":"Åkered","coordinates":{"lat":"57.635278","long":"11.904444"}},{"country":"se","city":"Åkerhög","coordinates":{"lat":"57.833333","long":"11.716667"}},{"country":"se","city":"Åkerhöjden","coordinates":{"lat":"60.083333","long":"14.166667"}},{"country":"se","city":"Åkerholm","coordinates":{"lat":"65.883333","long":"21.016667"}},{"country":"se","city":"Åkerholmen","coordinates":{"lat":"65.883333","long":"21.016667"}},{"country":"se","city":"Åkerlund","coordinates":{"lat":"64.816667","long":"20.266667"}},{"country":"se","city":"Åkern","coordinates":{"lat":"60.55","long":"15.566667"}},{"country":"se","city":"Åkerö","coordinates":{"lat":"57.3","long":"15.85"}},{"country":"se","city":"Åkerö","coordinates":{"lat":"60.716667","long":"14.983333"}},{"country":"se","city":"Åkerö","coordinates":{"lat":"59.733333","long":"18.933333"}},{"country":"se","city":"Åkeröd","coordinates":{"lat":"57.635278","long":"11.904444"}},{"country":"se","city":"Åkersände","coordinates":{"lat":"57.5","long":"14.816667"}},{"country":"se","city":"Åkersberga","coordinates":{"lat":"59.483333","long":"18.3"}},{"country":"se","city":"Åkersberg","coordinates":{"lat":"59.5","long":"18.283333"}},{"country":"se","city":"Åkersberg","coordinates":{"lat":"58.266667","long":"12.25"}},{"country":"se","city":"Åkersholm","coordinates":{"lat":"56.275","long":"12.883333"}},{"country":"se","city":"Åkersjön","coordinates":{"lat":"63.766667","long":"14.1"}},{"country":"se","city":"Åkers Krutbruk","coordinates":{"lat":"59.266667","long":"17.116667"}},{"country":"se","city":"Åkersström","coordinates":{"lat":"58.266667","long":"12.216667"}},{"country":"se","city":"Åkers Styckebruk","coordinates":{"lat":"59.25","long":"17.083333"}},{"country":"se","city":"Åkerström","coordinates":{"lat":"58.266667","long":"12.216667"}},{"country":"se","city":"Åkersvass","coordinates":{"lat":"58.266667","long":"12.25"}},{"country":"se","city":"Åkervik","coordinates":{"lat":"57.975","long":"11.65"}},{"country":"se","city":"Åkesäter","coordinates":{"lat":"58.616667","long":"11.966667"}},{"country":"se","city":"Åkeshov","coordinates":{"lat":"59.333333","long":"17.916667"}},{"country":"se","city":"Åketorp","coordinates":{"lat":"56.8","long":"16.633333"}},{"country":"se","city":"Åketorp","coordinates":{"lat":"58.65","long":"16.65"}},{"country":"se","city":"Åketorp","coordinates":{"lat":"58.033333","long":"11.883333"}},{"country":"se","city":"Akkastugan","coordinates":{"lat":"67.633333","long":"17.433333"}},{"country":"se","city":"Akkavaara","coordinates":{"lat":"67.216667","long":"19.816667"}},{"country":"se","city":"Akkavare","coordinates":{"lat":"65.633333","long":"19.216667"}},{"country":"se","city":"Akmarsbruk","coordinates":{"lat":"61.05","long":"17.133333"}},{"country":"se","city":"Åkne","coordinates":{"lat":"62.066667","long":"17.266667"}},{"country":"se","city":"Åkra","coordinates":{"lat":"60.483333","long":"16.666667"}},{"country":"se","city":"Åkra","coordinates":{"lat":"60.933333","long":"13.35"}},{"country":"se","city":"Åkra","coordinates":{"lat":"60.133333","long":"17.633333"}},{"country":"se","city":"Åkra","coordinates":{"lat":"57.516667","long":"13.166667"}},{"country":"se","city":"Åkraberg","coordinates":{"lat":"57.3","long":"12.2"}},{"country":"se","city":"Åkrarna","coordinates":{"lat":"60.916667","long":"16.666667"}},{"country":"se","city":"Åkre","coordinates":{"lat":"61.516667","long":"16.366667"}},{"country":"se","city":"Åkre","coordinates":{"lat":"60.416667","long":"15.65"}},{"country":"se","city":"Åkroken","coordinates":{"lat":"63.733333","long":"13.45"}},{"country":"se","city":"Åkroken","coordinates":{"lat":"62.933333","long":"17.233333"}},{"country":"se","city":"Aktseberg","coordinates":{"lat":"65.966667","long":"19.133333"}},{"country":"se","city":"Åkulla","coordinates":{"lat":"64.9","long":"20.25"}},{"country":"se","city":"Åkullsjön","coordinates":{"lat":"64.266667","long":"20.5"}},{"country":"se","city":"Åkvarn","coordinates":{"lat":"57.1","long":"15.55"}},{"country":"se","city":"Ala","coordinates":{"lat":"61.216667","long":"17.15"}},{"country":"se","city":"Ala","coordinates":{"lat":"57.416667","long":"18.633333"}},{"country":"se","city":"Ala","coordinates":{"lat":"56.5","long":"13.066667"}},{"country":"se","city":"Alabo","coordinates":{"lat":"57.516667","long":"13.683333"}},{"country":"se","city":"Ålabodarna","coordinates":{"lat":"55.933333","long":"12.766667"}},{"country":"se","city":"Alaby","coordinates":{"lat":"57.516667","long":"13.683333"}},{"country":"se","city":"Alafors","coordinates":{"lat":"57.566667","long":"12.1"}},{"country":"se","city":"Alafors","coordinates":{"lat":"57.933333","long":"12.083333"}},{"country":"se","city":"Älåkra","coordinates":{"lat":"57.666667","long":"15.866667"}},{"country":"se","city":"Ål","coordinates":{"lat":"57.8","long":"15.8"}},{"country":"se","city":"Ål","coordinates":{"lat":"59.916667","long":"16.883333"}},{"country":"se","city":"Alanäs","coordinates":{"lat":"64.166667","long":"15.7"}},{"country":"se","city":"Alanäset","coordinates":{"lat":"62.783333","long":"16.016667"}},{"country":"se","city":"Ålanda","coordinates":{"lat":"57.983333","long":"12.433333"}},{"country":"se","city":"Äland","coordinates":{"lat":"62.683333","long":"17.833333"}},{"country":"se","city":"Älandsbro","coordinates":{"lat":"62.666667","long":"17.833333"}},{"country":"se","city":"Alandsköp","coordinates":{"lat":"56.516667","long":"13.7"}},{"country":"se","city":"Alandsryd","coordinates":{"lat":"57.2","long":"14"}},{"country":"se","city":"Alanen Kassa","coordinates":{"lat":"67.05","long":"23.683333"}},{"country":"se","city":"Alanenviita","coordinates":{"lat":"66.45","long":"23.2"}},{"country":"se","city":"Aläng","coordinates":{"lat":"57.916667","long":"16.7"}},{"country":"se","city":"Ala Parakka","coordinates":{"lat":"67.5","long":"21.666667"}},{"country":"se","city":"Alarp","coordinates":{"lat":"57.483333","long":"15.083333"}},{"country":"se","city":"Alarp","coordinates":{"lat":"58.066667","long":"13.483333"}},{"country":"se","city":"Ålaryd","coordinates":{"lat":"57.433333","long":"13.95"}},{"country":"se","city":"Ålåsen","coordinates":{"lat":"63.866667","long":"14.6"}},{"country":"se","city":"Ålatorp","coordinates":{"lat":"56.983333","long":"15.383333"}},{"country":"se","city":"Alavaara","coordinates":{"lat":"67.05","long":"21.366667"}},{"country":"se","city":"Alavattnet","coordinates":{"lat":"64.05","long":"15.55"}},{"country":"se","city":"Alavita","coordinates":{"lat":"66.45","long":"23.2"}},{"country":"se","city":"Albäck","coordinates":{"lat":"59.766667","long":"16.9"}},{"country":"se","city":"Albacken","coordinates":{"lat":"62.766667","long":"16.016667"}},{"country":"se","city":"Albacken","coordinates":{"lat":"60.7","long":"13.716667"}},{"country":"se","city":"Albåga","coordinates":{"lat":"57.95","long":"14.433333"}},{"country":"se","city":"Albano","coordinates":{"lat":"59.35","long":"18.05"}},{"country":"se","city":"Ålberga","coordinates":{"lat":"58.733333","long":"16.566667"}},{"country":"se","city":"Alberga","coordinates":{"lat":"60.1","long":"17.583333"}},{"country":"se","city":"Alberta","coordinates":{"lat":"55.633333","long":"13.316667"}},{"country":"se","city":"Ålbo","coordinates":{"lat":"60.35","long":"16.983333"}},{"country":"se","city":"Albo","coordinates":{"lat":"57.25","long":"13.766667"}},{"country":"se","city":"Alboga","coordinates":{"lat":"57.95","long":"14.433333"}},{"country":"se","city":"Alboga","coordinates":{"lat":"57.966667","long":"13.233333"}},{"country":"se","city":"Albogården","coordinates":{"lat":"58.183333","long":"12.333333"}},{"country":"se","city":"Alböke","coordinates":{"lat":"56.95","long":"16.783333"}},{"country":"se","city":"Alborga","coordinates":{"lat":"60.65","long":"17.066667"}},{"country":"se","city":"Albrunna","coordinates":{"lat":"56.316667","long":"16.4"}},{"country":"se","city":"Alby","coordinates":{"lat":"57.816667","long":"18.95"}},{"country":"se","city":"Alby","coordinates":{"lat":"56.483333","long":"16.566667"}},{"country":"se","city":"Älby","coordinates":{"lat":"60.1","long":"17.566667"}},{"country":"se","city":"Alby","coordinates":{"lat":"62.5","long":"15.466667"}},{"country":"se","city":"Alby","coordinates":{"lat":"59.116667","long":"17.65"}},{"country":"se","city":"Albybyn","coordinates":{"lat":"62.466667","long":"15.433333"}},{"country":"se","city":"Ålbyn","coordinates":{"lat":"60.683333","long":"15.1"}},{"country":"se","city":"Äldbodarna","coordinates":{"lat":"62.616667","long":"14.416667"}},{"country":"se","city":"Alderbäck","coordinates":{"lat":"60.45","long":"15.416667"}},{"country":"se","city":"Alderbäcken","coordinates":{"lat":"60.45","long":"15.416667"}},{"country":"se","city":"Alderhulten","coordinates":{"lat":"60.366667","long":"16.766667"}},{"country":"se","city":"Alderlund","coordinates":{"lat":"63.8","long":"16.7"}},{"country":"se","city":"Aldernäset","coordinates":{"lat":"64.283333","long":"15.733333"}},{"country":"se","city":"Aldernäset","coordinates":{"lat":"62.449167","long":"17.4825"}},{"country":"se","city":"Alderskog","coordinates":{"lat":"62.933333","long":"18.15"}},{"country":"se","city":"Äldodarna","coordinates":{"lat":"62.616667","long":"14.416667"}},{"country":"se","city":"Äldsanden","coordinates":{"lat":"62.616667","long":"14.383333"}},{"country":"se","city":"Ale","coordinates":{"lat":"61.366667","long":"16.95"}},{"country":"se","city":"Ale","coordinates":{"lat":"57.816667","long":"18.983333"}},{"country":"se","city":"Ale","coordinates":{"lat":"65.616667","long":"21.683333"}},{"country":"se","city":"Alebäck","coordinates":{"lat":"58.616667","long":"13.566667"}},{"country":"se","city":"Ålebäcksås","coordinates":{"lat":"56.683333","long":"15.316667"}},{"country":"se","city":"Åleberg","coordinates":{"lat":"56.65","long":"15.5"}},{"country":"se","city":"Ålebo","coordinates":{"lat":"56.533333","long":"16"}},{"country":"se","city":"Alebohult","coordinates":{"lat":"57.266667","long":"16.3"}},{"country":"se","city":"Äleby","coordinates":{"lat":"57.883333","long":"15.85"}},{"country":"se","city":"Åleby","coordinates":{"lat":"59.85","long":"13.2"}},{"country":"se","city":"Aledal","coordinates":{"lat":"56.7","long":"16.5"}},{"country":"se","city":"Åled","coordinates":{"lat":"56.75","long":"12.933333"}},{"country":"se","city":"Aleglo","coordinates":{"lat":"57.9","long":"16.716667"}},{"country":"se","city":"Älekärr","coordinates":{"lat":"57.7","long":"15.333333"}},{"country":"se","city":"Äleklinta","coordinates":{"lat":"56.966667","long":"16.766667"}},{"country":"se","city":"Älekulla","coordinates":{"lat":"57.35","long":"12.7"}},{"country":"se","city":"Ålem","coordinates":{"lat":"56.95","long":"16.383333"}},{"country":"se","city":"Alenenviita","coordinates":{"lat":"66.45","long":"23.2"}},{"country":"se","city":"Alerås","coordinates":{"lat":"56.9","long":"15.566667"}},{"country":"se","city":"Aleslöv","coordinates":{"lat":"57.15","long":"12.433333"}},{"country":"se","city":"Alesta","coordinates":{"lat":"55.716667","long":"13.733333"}},{"country":"se","city":"Aleviken","coordinates":{"lat":"58.736111","long":"11.216667"}},{"country":"se","city":"Älfängen","coordinates":{"lat":"57.966667","long":"12.116667"}},{"country":"se","city":"Alfhem","coordinates":{"lat":"58","long":"12.15"}},{"country":"se","city":"Ålfors","coordinates":{"lat":"60.266667","long":"17.4"}},{"country":"se","city":"Alfredshem","coordinates":{"lat":"63.266667","long":"18.7"}},{"country":"se","city":"Älfsborg","coordinates":{"lat":"65.933333","long":"20.05"}},{"country":"se","city":"Alfsta","coordinates":{"lat":"61.966667","long":"17.25"}},{"country":"se","city":"Älfsund","coordinates":{"lat":"62.05","long":"16.816667"}},{"country":"se","city":"Alfta","coordinates":{"lat":"61.35","long":"16.083333"}},{"country":"se","city":"Älfva","coordinates":{"lat":"62.435","long":"17.409722"}},{"country":"se","city":"Älgabäcksryd","coordinates":{"lat":"57.633333","long":"14.316667"}},{"country":"se","city":"Älgafall","coordinates":{"lat":"57.816667","long":"13.983333"}},{"country":"se","city":"Älgafallen","coordinates":{"lat":"57.816667","long":"13.983333"}},{"country":"se","city":"Älgåna","coordinates":{"lat":"59.266667","long":"12.35"}},{"country":"se","city":"Älgånäs","coordinates":{"lat":"59.516667","long":"13.9"}},{"country":"se","city":"Älgarås","coordinates":{"lat":"58.4","long":"14.283333"}},{"country":"se","city":"Ålgården","coordinates":{"lat":"59.666667","long":"12.666667"}},{"country":"se","city":"Älgaryd","coordinates":{"lat":"57.183333","long":"14.266667"}},{"country":"se","city":"Älgaryd","coordinates":{"lat":"57.116667","long":"14.75"}},{"country":"se","city":"Älgåsen","coordinates":{"lat":"60.316667","long":"14.35"}},{"country":"se","city":"Älgåsen","coordinates":{"lat":"59.383333","long":"14.533333"}},{"country":"se","city":"Älgebo","coordinates":{"lat":"57.4","long":"14.016667"}},{"country":"se","city":"Älgered","coordinates":{"lat":"62.016667","long":"16.95"}},{"country":"se","city":"Älgerum","coordinates":{"lat":"57.033333","long":"16.416667"}},{"country":"se","city":"Älgesta","coordinates":{"lat":"59.333333","long":"15.033333"}},{"country":"se","city":"Älgesta","coordinates":{"lat":"59.65","long":"17.883333"}},{"country":"se","city":"Älgestad","coordinates":{"lat":"59.783333","long":"12.15"}},{"country":"se","city":"Älghallen","coordinates":{"lat":"63.933333","long":"15.166667"}},{"country":"se","city":"Älgholmen","coordinates":{"lat":"59.166667","long":"18.399722"}},{"country":"se","city":"Älghornsudd","coordinates":{"lat":"59.4","long":"17.733333"}},{"country":"se","city":"Älghult","coordinates":{"lat":"57.366667","long":"13.65"}},{"country":"se","city":"Älghult","coordinates":{"lat":"57.016667","long":"15.566667"}},{"country":"se","city":"Älgkärr","coordinates":{"lat":"59.266667","long":"14.916667"}},{"country":"se","city":"Älglund","coordinates":{"lat":"64.3","long":"20.55"}},{"country":"se","city":"Älgnäs","coordinates":{"lat":"61.1","long":"16.85"}},{"country":"se","city":"Älgnäs","coordinates":{"lat":"64.433333","long":"21.433333"}},{"country":"se","city":"Älgö","coordinates":{"lat":"58.383333","long":"16.833333"}},{"country":"se","city":"Älgö","coordinates":{"lat":"59.258333","long":"18.333333"}},{"country":"se","city":"Älgöö","coordinates":{"lat":"59.258333","long":"18.333333"}},{"country":"se","city":"Algrena","coordinates":{"lat":"58.766667","long":"14.783333"}},{"country":"se","city":"Algrena","coordinates":{"lat":"57.633333","long":"13.65"}},{"country":"se","city":"Algryt","coordinates":{"lat":"59.35","long":"16.083333"}},{"country":"se","city":"Älgsjö","coordinates":{"lat":"64.216667","long":"17.5"}},{"country":"se","city":"Älgsjö","coordinates":{"lat":"62.616667","long":"17.683333"}},{"country":"se","city":"Älgsjöbo","coordinates":{"lat":"60.066667","long":"15.7"}},{"country":"se","city":"Älgsjös Älen","coordinates":{"lat":"60.616667","long":"13.483056"}},{"country":"se","city":"Älgtån","coordinates":{"lat":"59.3","long":"12.3"}},{"country":"se","city":"Älgträska","coordinates":{"lat":"65.033333","long":"19.95"}},{"country":"se","city":"Älgträsk","coordinates":{"lat":"65.033333","long":"19.95"}},{"country":"se","city":"Algunås","coordinates":{"lat":"56.533333","long":"15.383333"}},{"country":"se","city":"Algusered","coordinates":{"lat":"57.516667","long":"11.95"}},{"country":"se","city":"Alguserud","coordinates":{"lat":"57.516667","long":"11.95"}},{"country":"se","city":"Algustorp","coordinates":{"lat":"57.433333","long":"13.633333"}},{"country":"se","city":"Algustorp","coordinates":{"lat":"58.333333","long":"15.2"}},{"country":"se","city":"Algustorp","coordinates":{"lat":"56.216667","long":"13.866667"}},{"country":"se","city":"Algutsrum","coordinates":{"lat":"56.683333","long":"16.516667"}},{"country":"se","city":"Algutstorp","coordinates":{"lat":"57.433333","long":"13.633333"}},{"country":"se","city":"Algutstorp","coordinates":{"lat":"59.366667","long":"15.016667"}},{"country":"se","city":"Algutstorp","coordinates":{"lat":"58.333333","long":"15.2"}},{"country":"se","city":"Algutstorp","coordinates":{"lat":"57.516667","long":"13.416667"}},{"country":"se","city":"Älgviken","coordinates":{"lat":"58.95","long":"17.916667"}},{"country":"se","city":"Alhammar","coordinates":{"lat":"59.266667","long":"15.85"}},{"country":"se","city":"Alhammar","coordinates":{"lat":"57.733333","long":"13.366667"}},{"country":"se","city":"Alhamn","coordinates":{"lat":"65.416667","long":"21.983333"}},{"country":"se","city":"Alholmen","coordinates":{"lat":"59.45","long":"17.533333"}},{"country":"se","city":"Ålhult","coordinates":{"lat":"57.833333","long":"16.133333"}},{"country":"se","city":"Ålhult","coordinates":{"lat":"57.966667","long":"15.966667"}},{"country":"se","city":"Åliden","coordinates":{"lat":"64.05","long":"20.166667"}},{"country":"se","city":"Alingsås","coordinates":{"lat":"57.933333","long":"12.516667"}},{"country":"se","city":"Ålkistan","coordinates":{"lat":"57.208333","long":"16.933333"}},{"country":"se","city":"Alkkula","coordinates":{"lat":"66.333333","long":"23.65"}},{"country":"se","city":"Alkullen","coordinates":{"lat":"66.333333","long":"23.65"}},{"country":"se","city":"Alla","coordinates":{"lat":"66.583333","long":"17.466667"}},{"country":"se","city":"Allaboda","coordinates":{"lat":"56.35","long":"15.533333"}},{"country":"se","city":"Allakjaure","coordinates":{"lat":"66.666667","long":"20.55"}},{"country":"se","city":"Allared","coordinates":{"lat":"56.633333","long":"13.166667"}},{"country":"se","city":"Allarp","coordinates":{"lat":"56.45","long":"12.933333"}},{"country":"se","city":"Allarp","coordinates":{"lat":"55.983333","long":"13.216667"}},{"country":"se","city":"Allatorp","coordinates":{"lat":"56.75","long":"14.75"}},{"country":"se","city":"Allavaara","coordinates":{"lat":"67.25","long":"20.116667"}},{"country":"se","city":"Allavare","coordinates":{"lat":"67.25","long":"20.116667"}},{"country":"se","city":"Allberg","coordinates":{"lat":"56.916667","long":"12.633333"}},{"country":"se","city":"Älleböke","coordinates":{"lat":"56.483333","long":"13.85"}},{"country":"se","city":"Ållebråta","coordinates":{"lat":"58.283333","long":"16.633333"}},{"country":"se","city":"Alleby","coordinates":{"lat":"57.766667","long":"11.866667"}},{"country":"se","city":"Allejaur","coordinates":{"lat":"65.866667","long":"18.4"}},{"country":"se","city":"Allejaure","coordinates":{"lat":"65.866667","long":"18.4"}},{"country":"se","city":"Allerum","coordinates":{"lat":"56.116667","long":"12.683333"}},{"country":"se","city":"Ällestad","coordinates":{"lat":"56.166667","long":"14.916667"}},{"country":"se","city":"Allgunnaryd","coordinates":{"lat":"57.25","long":"14.633333"}},{"country":"se","city":"Allgunnås","coordinates":{"lat":"56.533333","long":"15.383333"}},{"country":"se","city":"Allgunnen","coordinates":{"lat":"57.05","long":"15.983333"}},{"country":"se","city":"Allgustorp","coordinates":{"lat":"57.516667","long":"13.416667"}},{"country":"se","city":"Allmag","coordinates":{"lat":"58.211111","long":"11.833333"}},{"country":"se","city":"Allmagsvik","coordinates":{"lat":"58.211111","long":"11.833333"}},{"country":"se","city":"Ällmajärvi","coordinates":{"lat":"66.766667","long":"22.45"}},{"country":"se","city":"Allmänningbo","coordinates":{"lat":"59.75","long":"15.5"}},{"country":"se","city":"Allmänninge","coordinates":{"lat":"60.633333","long":"17.05"}},{"country":"se","city":"Allmänningsbo","coordinates":{"lat":"59.75","long":"15.5"}},{"country":"se","city":"Ällmora","coordinates":{"lat":"59.206944","long":"18.366667"}},{"country":"se","city":"Ällön","coordinates":{"lat":"63.216667","long":"19.016667"}},{"country":"se","city":"Allsån","coordinates":{"lat":"66.383333","long":"22.916667"}},{"country":"se","city":"Allsarp","coordinates":{"lat":"57.266667","long":"14.5"}},{"country":"se","city":"Allsjärv","coordinates":{"lat":"66.416667","long":"22.866667"}},{"country":"se","city":"Ållsjön","coordinates":{"lat":"63.3","long":"17.433333"}},{"country":"se","city":"Allsta","coordinates":{"lat":"62.316667","long":"17.233333"}},{"country":"se","city":"Allstakan","coordinates":{"lat":"59.883333","long":"12.516667"}},{"country":"se","city":"Alltorp","coordinates":{"lat":"58.85","long":"12.166667"}},{"country":"se","city":"Alm","coordinates":{"lat":"59.083333","long":"15.183333"}},{"country":"se","city":"Almar","coordinates":{"lat":"59.45","long":"13.45"}},{"country":"se","city":"Almarkaröd","coordinates":{"lat":"55.833333","long":"13.716667"}},{"country":"se","city":"Almaröd","coordinates":{"lat":"55.416667","long":"13.533333"}},{"country":"se","city":"Älmarsrum","coordinates":{"lat":"57.816667","long":"16.316667"}},{"country":"se","city":"Almåsa","coordinates":{"lat":"63.516667","long":"14.05"}},{"country":"se","city":"Älmås","coordinates":{"lat":"56.866667","long":"13.35"}},{"country":"se","city":"Almås","coordinates":{"lat":"63.516667","long":"14.05"}},{"country":"se","city":"Älmås","coordinates":{"lat":"57.283333","long":"13.766667"}},{"country":"se","city":"Almås","coordinates":{"lat":"56.516667","long":"14.15"}},{"country":"se","city":"Älmås","coordinates":{"lat":"57.866667","long":"13.35"}},{"country":"se","city":"Almåsen","coordinates":{"lat":"63.516667","long":"14.05"}},{"country":"se","city":"Almberg","coordinates":{"lat":"60.75","long":"15.15"}},{"country":"se","city":"Almberget","coordinates":{"lat":"60.799722","long":"13.3"}},{"country":"se","city":"Almbergsbjörken","coordinates":{"lat":"60.75","long":"15.15"}},{"country":"se","city":"Almby","coordinates":{"lat":"59.266667","long":"15.25"}},{"country":"se","city":"Almby","coordinates":{"lat":"59.35","long":"16.283333"}},{"country":"se","city":"Älmeberg","coordinates":{"lat":"57.25","long":"14.616667"}},{"country":"se","city":"Älmeberg","coordinates":{"lat":"56.733333","long":"15.816667"}},{"country":"se","city":"Älmeboda","coordinates":{"lat":"56.583333","long":"15.25"}},{"country":"se","city":"Älmedal","coordinates":{"lat":"57.166667","long":"15.266667"}},{"country":"se","city":"Älmehult","coordinates":{"lat":"56.533333","long":"14.733333"}},{"country":"se","city":"Älmeliden","coordinates":{"lat":"56.983333","long":"13.366667"}},{"country":"se","city":"Almered","coordinates":{"lat":"57.55","long":"12.483333"}},{"country":"se","city":"Almesåkra","coordinates":{"lat":"57.55","long":"14.6"}},{"country":"se","city":"Älmesås","coordinates":{"lat":"57.033333","long":"14.633333"}},{"country":"se","city":"Älmeshult","coordinates":{"lat":"57.716667","long":"14.833333"}},{"country":"se","city":"Älmeshult","coordinates":{"lat":"57.05","long":"15.183333"}},{"country":"se","city":"Almesjö","coordinates":{"lat":"56.9","long":"13.583333"}},{"country":"se","city":"Älmestad","coordinates":{"lat":"57.916667","long":"13.333333"}},{"country":"se","city":"Almetorp","coordinates":{"lat":"58.25","long":"12.7"}},{"country":"se","city":"Älmhult","coordinates":{"lat":"56.566667","long":"13.416667"}},{"country":"se","city":"Älmhult","coordinates":{"lat":"57.233333","long":"14.283333"}},{"country":"se","city":"Älmhult","coordinates":{"lat":"57.083333","long":"16.45"}},{"country":"se","city":"Älmhult","coordinates":{"lat":"56.55","long":"14.133333"}},{"country":"se","city":"Älmhult","coordinates":{"lat":"55.616667","long":"14.166667"}},{"country":"se","city":"Älmhult","coordinates":{"lat":"57.283333","long":"12.85"}},{"country":"se","city":"Älmö","coordinates":{"lat":"57","long":"12.966667"}},{"country":"se","city":"Almo","coordinates":{"lat":"60.766667","long":"14.85"}},{"country":"se","city":"Älmora","coordinates":{"lat":"59.206944","long":"18.366667"}},{"country":"se","city":"Almösund","coordinates":{"lat":"58.066667","long":"11.75"}},{"country":"se","city":"Almsele","coordinates":{"lat":"64.316667","long":"17.083333"}},{"country":"se","city":"Almsjönäs","coordinates":{"lat":"63.066667","long":"18.016667"}},{"country":"se","city":"Älmsta","coordinates":{"lat":"59.966667","long":"18.8"}},{"country":"se","city":"Älmta","coordinates":{"lat":"56.316667","long":"14.883333"}},{"country":"se","city":"Älmtamåla","coordinates":{"lat":"56.466667","long":"15.533333"}},{"country":"se","city":"Älmtåsa","coordinates":{"lat":"56.716667","long":"14.1"}},{"country":"se","city":"Almtuna","coordinates":{"lat":"59.866667","long":"17.666667"}},{"country":"se","city":"Almundsryd","coordinates":{"lat":"56.466667","long":"14.683333"}},{"country":"se","city":"Almunge","coordinates":{"lat":"59.883333","long":"18.05"}},{"country":"se","city":"Älmvik","coordinates":{"lat":"57.65","long":"14.316667"}},{"country":"se","city":"Almvik","coordinates":{"lat":"57.833333","long":"16.466667"}},{"country":"se","city":"Almvik","coordinates":{"lat":"59.618333","long":"18.894444"}},{"country":"se","city":"Alnarp","coordinates":{"lat":"55.658333","long":"13.083333"}},{"country":"se","city":"Alnaryd","coordinates":{"lat":"56.333333","long":"15.433333"}},{"country":"se","city":"Alnäs","coordinates":{"lat":"60.45","long":"15.416667"}},{"country":"se","city":"Alnäs","coordinates":{"lat":"63.316667","long":"18.566667"}},{"country":"se","city":"Alnäs","coordinates":{"lat":"57.25","long":"12.966667"}},{"country":"se","city":"Alnö","coordinates":{"lat":"62.448889","long":"17.404722"}},{"country":"se","city":"Alntorp","coordinates":{"lat":"59.516667","long":"15.083333"}},{"country":"se","city":"Älö","coordinates":{"lat":"57.55","long":"16.683333"}},{"country":"se","city":"Åloppe","coordinates":{"lat":"59.8","long":"17.166667"}},{"country":"se","city":"Alså","coordinates":{"lat":"66.383333","long":"22.916667"}},{"country":"se","city":"Ålsäng","coordinates":{"lat":"59.416667","long":"15.7"}},{"country":"se","city":"Alsarp","coordinates":{"lat":"57.266667","long":"14.5"}},{"country":"se","city":"Alsarp","coordinates":{"lat":"57.533333","long":"16.033333"}},{"country":"se","city":"Ålsäter","coordinates":{"lat":"59.016667","long":"16.083333"}},{"country":"se","city":"Ålsätter","coordinates":{"lat":"59.016667","long":"16.083333"}},{"country":"se","city":"Alsbäck","coordinates":{"lat":"60.483333","long":"15.483333"}},{"country":"se","city":"Alsbo","coordinates":{"lat":"60.1","long":"16.266667"}},{"country":"se","city":"Alsbyn","coordinates":{"lat":"59.133333","long":"12.316667"}},{"country":"se","city":"Alseda","coordinates":{"lat":"57.416667","long":"15.25"}},{"country":"se","city":"Alsen","coordinates":{"lat":"63.383333","long":"13.933333"}},{"country":"se","city":"Alserum","coordinates":{"lat":"58.216667","long":"16.05"}},{"country":"se","city":"Ålshult","coordinates":{"lat":"56.516667","long":"14.666667"}},{"country":"se","city":"Alsike","coordinates":{"lat":"59.75","long":"17.75"}},{"country":"se","city":"Alsjärv","coordinates":{"lat":"66.416667","long":"22.866667"}},{"country":"se","city":"Alsjö","coordinates":{"lat":"61.7","long":"16.733333"}},{"country":"se","city":"Alsjö","coordinates":{"lat":"56.616667","long":"15.816667"}},{"country":"se","city":"Alsjöholm","coordinates":{"lat":"56.616667","long":"15.833333"}},{"country":"se","city":"Alsjökulla","coordinates":{"lat":"56.616667","long":"15.633333"}},{"country":"se","city":"Alsjöområdet","coordinates":{"lat":"57.85","long":"12.316667"}},{"country":"se","city":"Alskaliden","coordinates":{"lat":"64.366667","long":"18.183333"}},{"country":"se","city":"Alskog","coordinates":{"lat":"57.333333","long":"18.616667"}},{"country":"se","city":"Alslöv","coordinates":{"lat":"57.516667","long":"12.116667"}},{"country":"se","city":"Alsnäs","coordinates":{"lat":"58.883333","long":"15"}},{"country":"se","city":"Ålsta","coordinates":{"lat":"62.983333","long":"14.566667"}},{"country":"se","city":"Alsta","coordinates":{"lat":"57.7","long":"15.95"}},{"country":"se","city":"Ålsta","coordinates":{"lat":"59.083333","long":"15.2"}},{"country":"se","city":"Alsta","coordinates":{"lat":"59.75","long":"17.25"}},{"country":"se","city":"Ålsta","coordinates":{"lat":"62.516667","long":"16.2"}},{"country":"se","city":"Alstad","coordinates":{"lat":"55.45","long":"13.216667"}},{"country":"se","city":"Ålstad","coordinates":{"lat":"58.166667","long":"12.216667"}},{"country":"se","city":"Ålsten","coordinates":{"lat":"59.316667","long":"17.95"}},{"country":"se","city":"Alster","coordinates":{"lat":"59.4","long":"13.6"}},{"country":"se","city":"Alsterbro","coordinates":{"lat":"56.95","long":"15.916667"}},{"country":"se","city":"Alsterfors","coordinates":{"lat":"56.95","long":"15.6"}},{"country":"se","city":"Alstermo","coordinates":{"lat":"56.966667","long":"15.633333"}},{"country":"se","city":"Ålstorp","coordinates":{"lat":"56.483333","long":"13.15"}},{"country":"se","city":"Ålstorp","coordinates":{"lat":"55.816667","long":"12.983333"}},{"country":"se","city":"Alstugorna","coordinates":{"lat":"56.216667","long":"15.583333"}},{"country":"se","city":"Ålsunda","coordinates":{"lat":"60.033333","long":"18.166667"}},{"country":"se","city":"Ålsvarta","coordinates":{"lat":"59.95","long":"16.25"}},{"country":"se","city":"Alsvik","coordinates":{"lat":"59.44","long":"18.650556"}},{"country":"se","city":"Älta","coordinates":{"lat":"59.266667","long":"18.183333"}},{"country":"se","city":"Alter","coordinates":{"lat":"65.483333","long":"21.4"}},{"country":"se","city":"Altersbruk","coordinates":{"lat":"65.483333","long":"21.4"}},{"country":"se","city":"Altervattnet","coordinates":{"lat":"65.7","long":"21.233333"}},{"country":"se","city":"Åltorp","coordinates":{"lat":"56.983333","long":"15.383333"}},{"country":"se","city":"Åltorp","coordinates":{"lat":"59.333333","long":"15.95"}},{"country":"se","city":"Altsarbyn","coordinates":{"lat":"60.85","long":"15.116667"}},{"country":"se","city":"Altuna","coordinates":{"lat":"59.916667","long":"17.483333"}},{"country":"se","city":"Alunda","coordinates":{"lat":"60.266667","long":"18.4"}},{"country":"se","city":"Alva","coordinates":{"lat":"57.216667","long":"18.35"}},{"country":"se","city":"Älva","coordinates":{"lat":"62.435","long":"17.409722"}},{"country":"se","city":"Älvan","coordinates":{"lat":"58.483333","long":"15.283333"}},{"country":"se","city":"Alväng","coordinates":{"lat":"59.383333","long":"15.616667"}},{"country":"se","city":"Älvängen","coordinates":{"lat":"57.966667","long":"12.116667"}},{"country":"se","city":"Alvara","coordinates":{"lat":"57.216667","long":"17.05"}},{"country":"se","city":"Alvared","coordinates":{"lat":"58.016667","long":"13.533333"}},{"country":"se","city":"Alvarsmåla","coordinates":{"lat":"56.433333","long":"15.466667"}},{"country":"se","city":"Älvås","coordinates":{"lat":"58.316667","long":"12.3"}},{"country":"se","city":"Älvasjö","coordinates":{"lat":"56.733333","long":"12.9"}},{"country":"se","city":"Älvbro","coordinates":{"lat":"60.166667","long":"16.15"}},{"country":"se","city":"Älvdalen","coordinates":{"lat":"61.233333","long":"14.033333"}},{"country":"se","city":"Älvdebäck","coordinates":{"lat":"60.166667","long":"13.5"}},{"country":"se","city":"Alvedsjö","coordinates":{"lat":"57.166667","long":"16.95"}},{"country":"se","city":"Alvedsjö Bodar","coordinates":{"lat":"57.166667","long":"16.916667"}},{"country":"se","city":"Älven","coordinates":{"lat":"62.933333","long":"14.266667"}},{"country":"se","city":"Alvered","coordinates":{"lat":"57.616667","long":"12.016667"}},{"country":"se","city":"Älverslösa","coordinates":{"lat":"56.7","long":"16.3"}},{"country":"se","city":"Älvesered","coordinates":{"lat":"57.233333","long":"12.866667"}},{"country":"se","city":"Alvesta","coordinates":{"lat":"56.9","long":"14.55"}},{"country":"se","city":"Älvesta","coordinates":{"lat":"59.116667","long":"15.183333"}},{"country":"se","city":"Alvesta","coordinates":{"lat":"59.6","long":"15.683333"}},{"country":"se","city":"Älvestad","coordinates":{"lat":"58.433333","long":"15.766667"}},{"country":"se","city":"Alvestorp","coordinates":{"lat":"57.683333","long":"15.366667"}},{"country":"se","city":"Alvetorp","coordinates":{"lat":"58.549722","long":"13.116667"}},{"country":"se","city":"Alvhem","coordinates":{"lat":"58","long":"12.15"}},{"country":"se","city":"Älvho","coordinates":{"lat":"61.5","long":"14.733333"}},{"country":"se","city":"Älvhyttan","coordinates":{"lat":"59.45","long":"14.816667"}},{"country":"se","city":"Alvik","coordinates":{"lat":"60.75","long":"14.85"}},{"country":"se","city":"Alvik","coordinates":{"lat":"65.516667","long":"21.766667"}},{"country":"se","city":"Alvik","coordinates":{"lat":"62.4275","long":"17.408611"}},{"country":"se","city":"Alvik","coordinates":{"lat":"59.333333","long":"17.983333"}},{"country":"se","city":"Alviken","coordinates":{"lat":"58.399722","long":"12.183056"}},{"country":"se","city":"Alviksträsk","coordinates":{"lat":"65.616667","long":"21.783333"}},{"country":"se","city":"Älvisjö","coordinates":{"lat":"60.333333","long":"18.183333"}},{"country":"se","city":"Älvkarhed","coordinates":{"lat":"61.316667","long":"15.966667"}},{"country":"se","city":"Älvkarleby","coordinates":{"lat":"60.566667","long":"17.45"}},{"country":"se","city":"Älvkarleö","coordinates":{"lat":"60.533333","long":"17.4"}},{"country":"se","city":"Älvkarleö Bruk","coordinates":{"lat":"60.533333","long":"17.4"}},{"country":"se","city":"Älvkarlhed","coordinates":{"lat":"61.316667","long":"15.966667"}},{"country":"se","city":"Alvlösa","coordinates":{"lat":"56.416667","long":"16.433333"}},{"country":"se","city":"Älvlösa","coordinates":{"lat":"59.7","long":"17.4"}},{"country":"se","city":"Älvnäs","coordinates":{"lat":"59.283333","long":"17.766667"}},{"country":"se","city":"Älvras","coordinates":{"lat":"62.05","long":"14.65"}},{"country":"se","city":"Älvros","coordinates":{"lat":"62.05","long":"14.65"}},{"country":"se","city":"Älvros","coordinates":{"lat":"61.8","long":"12.916667"}},{"country":"se","city":"Älvsåker","coordinates":{"lat":"57.55","long":"12.1"}},{"country":"se","city":"Älvsätern","coordinates":{"lat":"59.9","long":"13.383333"}},{"country":"se","city":"Älvsbo","coordinates":{"lat":"58.25","long":"15.433333"}},{"country":"se","city":"Älvsborg","coordinates":{"lat":"65.933333","long":"20.05"}},{"country":"se","city":"Älvsborg","coordinates":{"lat":"57.673056","long":"11.866667"}},{"country":"se","city":"Älvsborgs fästning","coordinates":{"lat":"57.673056","long":"11.866667"}},{"country":"se","city":"Älvsby","coordinates":{"lat":"59.333333","long":"18.55"}},{"country":"se","city":"Älvsbyn","coordinates":{"lat":"65.666667","long":"21"}},{"country":"se","city":"Älvsered","coordinates":{"lat":"57.233333","long":"12.866667"}},{"country":"se","city":"Älvsjö","coordinates":{"lat":"59.283333","long":"18"}},{"country":"se","city":"Älvsjöhyttan","coordinates":{"lat":"60","long":"14.316667"}},{"country":"se","city":"Älvsnäs","coordinates":{"lat":"60.216667","long":"18.55"}},{"country":"se","city":"Älvsöden","coordinates":{"lat":"63.35","long":"18.766667"}},{"country":"se","city":"Älvsta","coordinates":{"lat":"61.966667","long":"17.25"}},{"country":"se","city":"Älvstorp","coordinates":{"lat":"58.2","long":"13.833333"}},{"country":"se","city":"Älvsund","coordinates":{"lat":"62.05","long":"16.816667"}},{"country":"se","city":"Åmål","coordinates":{"lat":"59.05","long":"12.7"}},{"country":"se","city":"Åm","coordinates":{"lat":"62.716667","long":"17.833333"}},{"country":"se","city":"Amåsäng","coordinates":{"lat":"60.966667","long":"14.566667"}},{"country":"se","city":"Åmåt","coordinates":{"lat":"59","long":"11.166667"}},{"country":"se","city":"Åmått","coordinates":{"lat":"59.7","long":"12.866667"}},{"country":"se","city":"Åmberg","coordinates":{"lat":"60.916667","long":"14.35"}},{"country":"se","city":"Åmberg","coordinates":{"lat":"59.766667","long":"13.45"}},{"country":"se","city":"Ambjörby","coordinates":{"lat":"60.5","long":"13.166667"}},{"country":"se","city":"Ambjörbyn","coordinates":{"lat":"59.55","long":"13.766667"}},{"country":"se","city":"Ambjörnarp","coordinates":{"lat":"57.416667","long":"13.283333"}},{"country":"se","city":"Ambjörntorp","coordinates":{"lat":"57.266667","long":"12.216667"}},{"country":"se","city":"Ambjörntorp","coordinates":{"lat":"58.033333","long":"12.833333"}},{"country":"se","city":"Amböke","coordinates":{"lat":"56.783333","long":"13.05"}},{"country":"se","city":"Ambricka","coordinates":{"lat":"60.5","long":"17.416667"}},{"country":"se","city":"Amdal","coordinates":{"lat":"58.566667","long":"11.3"}},{"country":"se","city":"Amfrebo","coordinates":{"lat":"57.016667","long":"13.166667"}},{"country":"se","city":"Amhult","coordinates":{"lat":"57.716667","long":"11.766667"}},{"country":"se","city":"Åminne","coordinates":{"lat":"57.616667","long":"18.75"}},{"country":"se","city":"Åminne","coordinates":{"lat":"57.116667","long":"14"}},{"country":"se","city":"Åminne Bruk","coordinates":{"lat":"57.116667","long":"14"}},{"country":"se","city":"Åmliden","coordinates":{"lat":"65.033333","long":"19.033333"}},{"country":"se","city":"Ammarnäs","coordinates":{"lat":"65.966667","long":"16.2"}},{"country":"se","city":"Ammarp","coordinates":{"lat":"57.7","long":"13.133333"}},{"country":"se","city":"Ämmaryd","coordinates":{"lat":"57.416667","long":"15.35"}},{"country":"se","city":"Åmme","coordinates":{"lat":"58.883333","long":"15"}},{"country":"se","city":"Åmmeberg","coordinates":{"lat":"58.866667","long":"15"}},{"country":"se","city":"Åmmebergs zinkgruva","coordinates":{"lat":"58.816667","long":"15.083333"}},{"country":"se","city":"Ämmenäs","coordinates":{"lat":"57.383333","long":"15.816667"}},{"country":"se","city":"Ammenäs","coordinates":{"lat":"58.308333","long":"11.833333"}},{"country":"se","city":"Ammer","coordinates":{"lat":"62.833333","long":"15.3"}},{"country":"se","city":"Ämmeråsen","coordinates":{"lat":"61.1","long":"14.983056"}},{"country":"se","city":"Ämmingarp","coordinates":{"lat":"57.533333","long":"15.133333"}},{"country":"se","city":"Ammundtorp","coordinates":{"lat":"57.5","long":"13.15"}},{"country":"se","city":"Ämnebo","coordinates":{"lat":"61.366667","long":"15.85"}},{"country":"se","city":"Amnerud","coordinates":{"lat":"60.583333","long":"13.083333"}},{"country":"se","city":"Åmot","coordinates":{"lat":"60.966667","long":"16.45"}},{"country":"se","city":"Åmot","coordinates":{"lat":"56.516667","long":"12.958333"}},{"country":"se","city":"Åmot","coordinates":{"lat":"56.466667","long":"13.55"}},{"country":"se","city":"Åmot","coordinates":{"lat":"59.7","long":"12.866667"}},{"country":"se","city":"Åmot","coordinates":{"lat":"59","long":"11.166667"}},{"country":"se","city":"Åmotfors","coordinates":{"lat":"59.766667","long":"12.366667"}},{"country":"se","city":"Åmotsfors","coordinates":{"lat":"59.766667","long":"12.366667"}},{"country":"se","city":"Åmots Kapell","coordinates":{"lat":"60.966667","long":"16.45"}},{"country":"se","city":"Ampiaslanto","coordinates":{"lat":"67.033333","long":"21.383333"}},{"country":"se","city":"Amsberg","coordinates":{"lat":"60.533333","long":"15.35"}},{"country":"se","city":"Åmsele","coordinates":{"lat":"64.533333","long":"19.333333"}},{"country":"se","city":"Amshyttan","coordinates":{"lat":"60.433333","long":"15.933333"}},{"country":"se","city":"Ämtatorp","coordinates":{"lat":"58.75","long":"14.633333"}},{"country":"se","city":"Ämtbjörk","coordinates":{"lat":"60.1","long":"13.55"}},{"country":"se","city":"Ämtefall","coordinates":{"lat":"58.1","long":"15.416667"}},{"country":"se","city":"Ämteshult","coordinates":{"lat":"57.4","long":"13.316667"}},{"country":"se","city":"Ämtevik","coordinates":{"lat":"58.333056","long":"16.85"}},{"country":"se","city":"Amtorp","coordinates":{"lat":"59.433333","long":"16.416667"}},{"country":"se","city":"Åmträsk","coordinates":{"lat":"64.883333","long":"19.1"}},{"country":"se","city":"Amundarp","coordinates":{"lat":"57.666667","long":"15.316667"}},{"country":"se","city":"Amundebo","coordinates":{"lat":"58.133333","long":"15.433333"}},{"country":"se","city":"Amunderud","coordinates":{"lat":"59.583333","long":"11.8"}},{"country":"se","city":"Amundstorp","coordinates":{"lat":"57.75","long":"15.333333"}},{"country":"se","city":"Amundtorp","coordinates":{"lat":"57.5","long":"13.15"}},{"country":"se","city":"Åmyanet","coordinates":{"lat":"63.183333","long":"18.516667"}},{"country":"se","city":"Åmynnet","coordinates":{"lat":"63.183333","long":"18.516667"}},{"country":"se","city":"Åmyran","coordinates":{"lat":"66.466667","long":"22.783333"}},{"country":"se","city":"Åna","coordinates":{"lat":"59.633333","long":"13.183333"}},{"country":"se","city":"Anådalen","coordinates":{"lat":"62.633333","long":"12.766667"}},{"country":"se","city":"Ån","coordinates":{"lat":"63.183333","long":"13.916667"}},{"country":"se","city":"Ånaryd","coordinates":{"lat":"57.933333","long":"14.383333"}},{"country":"se","city":"Ånäs","coordinates":{"lat":"65.433333","long":"19.333333"}},{"country":"se","city":"Ånäset","coordinates":{"lat":"65.433333","long":"19.333333"}},{"country":"se","city":"Ånäset","coordinates":{"lat":"64.233333","long":"19.983333"}},{"country":"se","city":"Andalen","coordinates":{"lat":"57.7","long":"11.75"}},{"country":"se","city":"Andåsen","coordinates":{"lat":"62.1","long":"14.666667"}},{"country":"se","city":"Ändebol","coordinates":{"lat":"58.85","long":"16.183333"}},{"country":"se","city":"Åndenäs","coordinates":{"lat":"58.85","long":"15.916667"}},{"country":"se","city":"Ändenäs","coordinates":{"lat":"60.45","long":"13.2"}},{"country":"se","city":"Änderarfvet","coordinates":{"lat":"61.15","long":"15.1"}},{"country":"se","city":"Änderarvet","coordinates":{"lat":"61.15","long":"15.1"}},{"country":"se","city":"Anderåsen","coordinates":{"lat":"61.033333","long":"15.183333"}},{"country":"se","city":"Anderbo","coordinates":{"lat":"61.916667","long":"16.6"}},{"country":"se","city":"Andersbenning","coordinates":{"lat":"60.133333","long":"16.05"}},{"country":"se","city":"Andersberg","coordinates":{"lat":"56.666667","long":"12.9"}},{"country":"se","city":"Andersberg","coordinates":{"lat":"59.7","long":"17.733333"}},{"country":"se","city":"Andersbo","coordinates":{"lat":"60.25","long":"16.483333"}},{"country":"se","city":"Andersbo","coordinates":{"lat":"60.283333","long":"17.933333"}},{"country":"se","city":"Andersbodarna","coordinates":{"lat":"61.316667","long":"13.916667"}},{"country":"se","city":"Andersböle","coordinates":{"lat":"63.333333","long":"13.716667"}},{"country":"se","city":"Andersby","coordinates":{"lat":"60.15","long":"17.816667"}},{"country":"se","city":"Andersbygget","coordinates":{"lat":"56.033333","long":"13.416667"}},{"country":"se","city":"Andersfors","coordinates":{"lat":"62","long":"16.916667"}},{"country":"se","city":"Anderslöv","coordinates":{"lat":"55.433333","long":"13.333333"}},{"country":"se","city":"Andersmark","coordinates":{"lat":"64.6","long":"16.25"}},{"country":"se","city":"Andersnäset","coordinates":{"lat":"64.083333","long":"16.233333"}},{"country":"se","city":"Andersro","coordinates":{"lat":"55.783333","long":"12.966667"}},{"country":"se","city":"Anderssvedja","coordinates":{"lat":"59.85","long":"18.85"}},{"country":"se","city":"Ändersta","coordinates":{"lat":"59.766667","long":"16.933333"}},{"country":"se","city":"Anderstorp","coordinates":{"lat":"56.9","long":"12.5"}},{"country":"se","city":"Anderstorp","coordinates":{"lat":"57.316667","long":"14.666667"}},{"country":"se","city":"Anderstorp","coordinates":{"lat":"56.016667","long":"13.35"}},{"country":"se","city":"Anderstorp","coordinates":{"lat":"58.433333","long":"14.183333"}},{"country":"se","city":"Andersträsk","coordinates":{"lat":"65.2","long":"20"}},{"country":"se","city":"Andersvattnet","coordinates":{"lat":"64.4","long":"20.616667"}},{"country":"se","city":"Andersviksberg","coordinates":{"lat":"60.366667","long":"13.866667"}},{"country":"se","city":"Ändesta","coordinates":{"lat":"59.6","long":"16.783333"}},{"country":"se","city":"Andlabo","coordinates":{"lat":"57.533333","long":"13.433333"}},{"country":"se","city":"Andrarum","coordinates":{"lat":"55.716667","long":"13.983333"}},{"country":"se","city":"Andviken","coordinates":{"lat":"62.933333","long":"15.083333"}},{"country":"se","city":"Äne","coordinates":{"lat":"58.016667","long":"12.916667"}},{"country":"se","city":"Anebo","coordinates":{"lat":"56.65","long":"15.916667"}},{"country":"se","city":"Aneboda","coordinates":{"lat":"57.116667","long":"14.55"}},{"country":"se","city":"Aneby","coordinates":{"lat":"57.833333","long":"14.8"}},{"country":"se","city":"Anelsered","coordinates":{"lat":"57.316667","long":"12.933333"}},{"country":"se","city":"Anemåla","coordinates":{"lat":"56.716667","long":"15.466667"}},{"country":"se","city":"Ånestad","coordinates":{"lat":"58.066667","long":"15.766667"}},{"country":"se","city":"Änet","coordinates":{"lat":"58.016667","long":"12.916667"}},{"country":"se","city":"Änga","coordinates":{"lat":"61.316667","long":"16.483333"}},{"country":"se","city":"Änga","coordinates":{"lat":"57.2","long":"15.616667"}},{"country":"se","city":"Ängabäck","coordinates":{"lat":"56.483333","long":"13.5"}},{"country":"se","city":"Ängabo","coordinates":{"lat":"57.7","long":"13.483333"}},{"country":"se","city":"Ängaboda","coordinates":{"lat":"59.683333","long":"15.1"}},{"country":"se","city":"Ängafallet","coordinates":{"lat":"58.666667","long":"14.233333"}},{"country":"se","city":"Ängalag","coordinates":{"lat":"56.433333","long":"12.683333"}},{"country":"se","city":"Änganäs","coordinates":{"lat":"56.883333","long":"14.516667"}},{"country":"se","city":"Äng","coordinates":{"lat":"57.7","long":"14.566667"}},{"country":"se","city":"Äng","coordinates":{"lat":"58.070833","long":"11.516667"}},{"country":"se","city":"Ängården","coordinates":{"lat":"57.683333","long":"11.95"}},{"country":"se","city":"Ängarna","coordinates":{"lat":"60.383333","long":"15.716667"}},{"country":"se","city":"Ängarna","coordinates":{"lat":"58.816667","long":"14.983333"}},{"country":"se","city":"Ängarna","coordinates":{"lat":"59.683333","long":"13.4"}},{"country":"se","city":"Ängarna","coordinates":{"lat":"60.116667","long":"18.533333"}},{"country":"se","city":"Angarn","coordinates":{"lat":"59.533333","long":"18.166667"}},{"country":"se","city":"Ängarne","coordinates":{"lat":"59.683333","long":"13.4"}},{"country":"se","city":"Ängås","coordinates":{"lat":"58.15","long":"11.816667"}},{"country":"se","city":"Ängasjö","coordinates":{"lat":"57.3","long":"13"}},{"country":"se","city":"Ängaskog","coordinates":{"lat":"57.95","long":"14.4"}},{"country":"se","city":"Ängatorp","coordinates":{"lat":"59.166667","long":"14.65"}},{"country":"se","city":"Ängatorp","coordinates":{"lat":"58","long":"12.666667"}},{"country":"se","city":"Ängdalsro","coordinates":{"lat":"65.416667","long":"21.916667"}},{"country":"se","city":"Änge","coordinates":{"lat":"63.45","long":"14.05"}},{"country":"se","city":"Änge","coordinates":{"lat":"60.433333","long":"14.516667"}},{"country":"se","city":"Ånge","coordinates":{"lat":"65.916667","long":"17.916667"}},{"country":"se","city":"Ånge","coordinates":{"lat":"62.516667","long":"15.616667"}},{"country":"se","city":"Ängebäck","coordinates":{"lat":"59.25","long":"14.4"}},{"country":"se","city":"Ängebäck","coordinates":{"lat":"59.366667","long":"11.983333"}},{"country":"se","city":"Ängebacken","coordinates":{"lat":"58.916667","long":"13.133056"}},{"country":"se","city":"Ängebäckstorp","coordinates":{"lat":"59.55","long":"13.916667"}},{"country":"se","city":"Ängebo","coordinates":{"lat":"61.966667","long":"16.35"}},{"country":"se","city":"Ängebo","coordinates":{"lat":"59.1","long":"12.016667"}},{"country":"se","city":"Ängebodane","coordinates":{"lat":"59.1","long":"12.016667"}},{"country":"se","city":"Ängeby","coordinates":{"lat":"59.933333","long":"17.45"}},{"country":"se","city":"Ängeby","coordinates":{"lat":"59.5","long":"15.933333"}},{"country":"se","city":"Ängegärde","coordinates":{"lat":"57.883333","long":"11.966667"}},{"country":"se","city":"Ängelholm","coordinates":{"lat":"57.15","long":"15.15"}},{"country":"se","city":"Ängelholm","coordinates":{"lat":"56.25","long":"12.866667"}},{"country":"se","city":"Ängelholms Havsbad","coordinates":{"lat":"56.266667","long":"12.833333"}},{"country":"se","city":"Ängelsbäck","coordinates":{"lat":"56.375","long":"12.775"}},{"country":"se","city":"Ängelsbäcksstrand","coordinates":{"lat":"56.35","long":"12.733333"}},{"country":"se","city":"Ängelsberg","coordinates":{"lat":"59.966667","long":"16"}},{"country":"se","city":"Ängelsfors","coordinates":{"lat":"60.55","long":"16.116667"}},{"country":"se","city":"Angelstad","coordinates":{"lat":"56.833333","long":"13.75"}},{"country":"se","city":"Ängeltofta","coordinates":{"lat":"60.7","long":"17.233333"}},{"country":"se","city":"Ängena","coordinates":{"lat":"63.4","long":"13"}},{"country":"se","city":"Ången","coordinates":{"lat":"61.25","long":"14.8"}},{"country":"se","city":"Ängen","coordinates":{"lat":"59.333333","long":"15.083333"}},{"country":"se","city":"Ängen","coordinates":{"lat":"59.483056","long":"13.466667"}},{"country":"se","city":"Ängenäs","coordinates":{"lat":"58.7","long":"12.483333"}},{"country":"se","city":"Angered","coordinates":{"lat":"57.783333","long":"12.1"}},{"country":"se","city":"Ångermansbo","coordinates":{"lat":"60.133333","long":"16.433333"}},{"country":"se","city":"Angersby","coordinates":{"lat":"59.8","long":"13.2"}},{"country":"se","city":"Ängersjö","coordinates":{"lat":"61.983333","long":"14.866667"}},{"country":"se","city":"Ängersjö","coordinates":{"lat":"63.633333","long":"19.783333"}},{"country":"se","city":"Ängeså","coordinates":{"lat":"66.733333","long":"22.3"}},{"country":"se","city":"Ängesberg","coordinates":{"lat":"60.733333","long":"17.283333"}},{"country":"se","city":"Ängesberg","coordinates":{"lat":"64.583333","long":"15.483333"}},{"country":"se","city":"Ängesbyn","coordinates":{"lat":"65.766667","long":"22.05"}},{"country":"se","city":"Ängesdal","coordinates":{"lat":"65.633333","long":"15.2"}},{"country":"se","city":"Ängesgårdarna","coordinates":{"lat":"60.55","long":"15.35"}},{"country":"se","city":"Ängesiå","coordinates":{"lat":"66.733333","long":"22.3"}},{"country":"se","city":"Ängesträsk","coordinates":{"lat":"66","long":"22.183333"}},{"country":"se","city":"Ånget","coordinates":{"lat":"62.133333","long":"17.4"}},{"country":"se","city":"Änggården","coordinates":{"lat":"57.683333","long":"11.95"}},{"country":"se","city":"Änggrufvan","coordinates":{"lat":"59.75","long":"14.166667"}},{"country":"se","city":"Änggruvan","coordinates":{"lat":"59.75","long":"14.166667"}},{"country":"se","city":"Änggruvorna","coordinates":{"lat":"59.75","long":"14.166667"}},{"country":"se","city":"Änghagen","coordinates":{"lat":"58.279167","long":"11.516667"}},{"country":"se","city":"Ängkärret","coordinates":{"lat":"59.266667","long":"18.45"}},{"country":"se","city":"Ängland","coordinates":{"lat":"63.4","long":"13.016667"}},{"country":"se","city":"Änglarp","coordinates":{"lat":"56.283333","long":"13.533333"}},{"country":"se","city":"Änglarp","coordinates":{"lat":"57.466667","long":"13.116667"}},{"country":"se","city":"Angnäs","coordinates":{"lat":"63.85","long":"19.266667"}},{"country":"se","city":"Ängö","coordinates":{"lat":"59.033333","long":"16.933333"}},{"country":"se","city":"Ängom","coordinates":{"lat":"62.25","long":"17.25"}},{"country":"se","city":"Ängra","coordinates":{"lat":"61.933333","long":"15.4"}},{"country":"se","city":"Ångsäter","coordinates":{"lat":"61.85","long":"16.05"}},{"country":"se","city":"Ängsbo","coordinates":{"lat":"58.466667","long":"13.133333"}},{"country":"se","city":"Angsboda","coordinates":{"lat":"60.066667","long":"17.433333"}},{"country":"se","city":"Angseboda","coordinates":{"lat":"57.233333","long":"14.8"}},{"country":"se","city":"Ängsholm","coordinates":{"lat":"59.05","long":"15.35"}},{"country":"se","city":"Angshult","coordinates":{"lat":"56.4","long":"14.066667"}},{"country":"se","city":"Ängsjömåla","coordinates":{"lat":"56.4","long":"15.3"}},{"country":"se","city":"Angskär","coordinates":{"lat":"59.733333","long":"18.8"}},{"country":"se","city":"Ängsnäs","coordinates":{"lat":"60.333333","long":"16.633333"}},{"country":"se","city":"Ängsösund","coordinates":{"lat":"59.566667","long":"16.85"}},{"country":"se","city":"Angsta","coordinates":{"lat":"63.333333","long":"18.833333"}},{"country":"se","city":"Ängstugan","coordinates":{"lat":"58.916667","long":"15.833333"}},{"country":"se","city":"Ängsvik","coordinates":{"lat":"59.35","long":"18.516667"}},{"country":"se","city":"Ängvreta","coordinates":{"lat":"60.533333","long":"17.816667"}},{"country":"se","city":"Ånhult","coordinates":{"lat":"57.583333","long":"14.766667"}},{"country":"se","city":"Ånimskog","coordinates":{"lat":"58.883333","long":"12.566667"}},{"country":"se","city":"Åninge","coordinates":{"lat":"57.866667","long":"16.05"}},{"country":"se","city":"Anjan","coordinates":{"lat":"63.683333","long":"12.633333"}},{"country":"se","city":"Anjehem","coordinates":{"lat":"63.683333","long":"12.633333"}},{"country":"se","city":"Ankarede","coordinates":{"lat":"64.816667","long":"14.233333"}},{"country":"se","city":"Ankarlöv","coordinates":{"lat":"56.15","long":"13.216667"}},{"country":"se","city":"Ankarskatan","coordinates":{"lat":"65.35","long":"21.466667"}},{"country":"se","city":"Ankarsrum","coordinates":{"lat":"57.7","long":"16.316667"}},{"country":"se","city":"Ankarsund","coordinates":{"lat":"65.366667","long":"16.5"}},{"country":"se","city":"Ankarsvattnet","coordinates":{"lat":"64.866667","long":"14.216667"}},{"country":"se","city":"Ankarsvik","coordinates":{"lat":"62.370278","long":"17.411667"}},{"country":"se","city":"Ankarvattnet","coordinates":{"lat":"64.866667","long":"14.216667"}},{"country":"se","city":"Ånkersta","coordinates":{"lat":"59.2","long":"15.533333"}},{"country":"se","city":"Ånnäs","coordinates":{"lat":"59.75","long":"14.816667"}},{"country":"se","city":"Anneberg","coordinates":{"lat":"57.533333","long":"12.1"}},{"country":"se","city":"Anneberg","coordinates":{"lat":"57.716667","long":"15.8"}},{"country":"se","city":"Anneberg","coordinates":{"lat":"60.241667","long":"18.416667"}},{"country":"se","city":"Anneberg","coordinates":{"lat":"60.083333","long":"18.783333"}},{"country":"se","city":"Anneberg","coordinates":{"lat":"57.583333","long":"11.933333"}},{"country":"se","city":"Ånnebo","coordinates":{"lat":"58.233333","long":"15.4"}},{"country":"se","city":"Ånnebol","coordinates":{"lat":"59.783333","long":"12.283333"}},{"country":"se","city":"Anneborg","coordinates":{"lat":"59.95","long":"12.883333"}},{"country":"se","city":"Annedal","coordinates":{"lat":"63","long":"16.666667"}},{"country":"se","city":"Annefors","coordinates":{"lat":"61.25","long":"16.133333"}},{"country":"se","city":"Annefors","coordinates":{"lat":"60.133333","long":"14.35"}},{"country":"se","city":"Annelöv","coordinates":{"lat":"55.833333","long":"13.016667"}},{"country":"se","city":"Annelund","coordinates":{"lat":"60","long":"16.033333"}},{"country":"se","city":"Annelund","coordinates":{"lat":"55.9","long":"12.866667"}},{"country":"se","city":"Annelund","coordinates":{"lat":"58","long":"13.1"}},{"country":"se","city":"Annemossen","coordinates":{"lat":"58.533333","long":"13.4"}},{"country":"se","city":"Ånnenäs","coordinates":{"lat":"59.75","long":"14.816667"}},{"country":"se","city":"Annenäset","coordinates":{"lat":"58.833056","long":"12.483056"}},{"country":"se","city":"Annero","coordinates":{"lat":"55.95","long":"12.783333"}},{"country":"se","city":"Anneröd","coordinates":{"lat":"57.4","long":"12.033333"}},{"country":"se","city":"Annerössle","coordinates":{"lat":"57.683333","long":"16.4"}},{"country":"se","city":"Annerstad","coordinates":{"lat":"56.766667","long":"13.716667"}},{"country":"se","city":"Ånnerud","coordinates":{"lat":"58.7","long":"12.016667"}},{"country":"se","city":"Ännesta","coordinates":{"lat":"59.533333","long":"17.4"}},{"country":"se","city":"Annestad","coordinates":{"lat":"58.266667","long":"12.716667"}},{"country":"se","city":"Annestorp","coordinates":{"lat":"57.583333","long":"12.083333"}},{"country":"se","city":"Annestorp","coordinates":{"lat":"57.85","long":"13.066667"}},{"country":"se","city":"Annita","coordinates":{"lat":"59.583056","long":"13.3"}},{"country":"se","city":"Annö","coordinates":{"lat":"60.266667","long":"18.183333"}},{"country":"se","city":"Annolfsbyn","coordinates":{"lat":"58.766667","long":"12.4"}},{"country":"se","city":"Annrössle","coordinates":{"lat":"57.683333","long":"16.4"}},{"country":"se","city":"Annrötsle","coordinates":{"lat":"57.683333","long":"16.4"}},{"country":"se","city":"Annsjötorp","coordinates":{"lat":"62.116667","long":"17.033333"}},{"country":"se","city":"Ånö","coordinates":{"lat":"60.25","long":"18.266667"}},{"country":"se","city":"Anolfsbol","coordinates":{"lat":"58.633333","long":"12.316667"}},{"country":"se","city":"Anrås","coordinates":{"lat":"58.016667","long":"11.816667"}},{"country":"se","city":"Ansätten","coordinates":{"lat":"63.866667","long":"13.9"}},{"country":"se","city":"Ansgarii","coordinates":{"lat":"60.3","long":"17.1"}},{"country":"se","city":"Ansjö","coordinates":{"lat":"62.966667","long":"16.1"}},{"country":"se","city":"Ansmark","coordinates":{"lat":"63.75","long":"20.133333"}},{"country":"se","city":"Ånsöga","coordinates":{"lat":"59.383333","long":"16.566667"}},{"country":"se","city":"Ansta","coordinates":{"lat":"60.383333","long":"15.916667"}},{"country":"se","city":"Ånsta","coordinates":{"lat":"59.266667","long":"15.166667"}},{"country":"se","city":"Anstahyttan","coordinates":{"lat":"60.383333","long":"15.916667"}},{"country":"se","city":"Ånsund","coordinates":{"lat":"58.9","long":"17.116667"}},{"country":"se","city":"Ansvar","coordinates":{"lat":"66.6","long":"22.766667"}},{"country":"se","city":"Anten","coordinates":{"lat":"57.983333","long":"12.433333"}},{"country":"se","city":"Antinrova","coordinates":{"lat":"67.25","long":"22.75"}},{"country":"se","city":"Antjärn","coordinates":{"lat":"62.583333","long":"17.766667"}},{"country":"se","city":"Antnäs","coordinates":{"lat":"65.55","long":"21.866667"}},{"country":"se","city":"Antonsberg","coordinates":{"lat":"60.65","long":"17.116667"}},{"country":"se","city":"Äntsebo","coordinates":{"lat":"57.466667","long":"15.65"}},{"country":"se","city":"Anttis","coordinates":{"lat":"67.266667","long":"22.75"}},{"country":"se","city":"Anulvsbäcken","coordinates":{"lat":"58.533333","long":"12.183333"}},{"country":"se","city":"Anumark","coordinates":{"lat":"63.85","long":"20.383333"}},{"country":"se","city":"Anunderud","coordinates":{"lat":"59.583333","long":"11.8"}},{"country":"se","city":"Anundgård","coordinates":{"lat":"62.65","long":"16.633333"}},{"country":"se","city":"Anundsböle","coordinates":{"lat":"63.266667","long":"18.183333"}},{"country":"se","city":"Anundsjö","coordinates":{"lat":"63.433333","long":"18.15"}},{"country":"se","city":"Anvågen","coordinates":{"lat":"63.633333","long":"14"}},{"country":"se","city":"Anviken","coordinates":{"lat":"62.933333","long":"15.083333"}},{"country":"se","city":"Apalle","coordinates":{"lat":"59.6","long":"17.466667"}},{"country":"se","city":"Apelås","coordinates":{"lat":"57.4","long":"13.116667"}},{"country":"se","city":"Apelgården","coordinates":{"lat":"58.077778","long":"11.666667"}},{"country":"se","city":"Apelhester","coordinates":{"lat":"57.416667","long":"15.183333"}},{"country":"se","city":"Apelhult","coordinates":{"lat":"56.566667","long":"14.266667"}},{"country":"se","city":"Apelskift","coordinates":{"lat":"57.85","long":"13.966667"}},{"country":"se","city":"Apelvik","coordinates":{"lat":"57.783333","long":"11.616667"}},{"country":"se","city":"Apelviken","coordinates":{"lat":"57.083333","long":"12.25"}},{"country":"se","city":"Apelvikshöjd","coordinates":{"lat":"57.091667","long":"12.25"}},{"country":"se","city":"Äperöd","coordinates":{"lat":"55.616667","long":"13.916667"}},{"country":"se","city":"Aplakärr","coordinates":{"lat":"56.2","long":"14.933333"}},{"country":"se","city":"Aplakulla","coordinates":{"lat":"57.816667","long":"12.85"}},{"country":"se","city":"Aplared","coordinates":{"lat":"57.65","long":"13.066667"}},{"country":"se","city":"Aplaryd","coordinates":{"lat":"56.883333","long":"15.783333"}},{"country":"se","city":"Aplehult","coordinates":{"lat":"57.233333","long":"14.433333"}},{"country":"se","city":"Apleröd","coordinates":{"lat":"58.116667","long":"11.866667"}},{"country":"se","city":"Apleryd","coordinates":{"lat":"56.333333","long":"15.966667"}},{"country":"se","city":"Aplung","coordinates":{"lat":"59.716667","long":"13.116667"}},{"country":"se","city":"Aplungsåsen","coordinates":{"lat":"59.666667","long":"13.133333"}},{"country":"se","city":"Apparp","coordinates":{"lat":"57.583333","long":"15.5"}},{"country":"se","city":"Äppelbo","coordinates":{"lat":"60.483333","long":"14"}},{"country":"se","city":"Appelby","coordinates":{"lat":"58.466667","long":"14.983333"}},{"country":"se","city":"Appelhester","coordinates":{"lat":"57.416667","long":"15.183333"}},{"country":"se","city":"Appelskift","coordinates":{"lat":"57.85","long":"13.966667"}},{"country":"se","city":"Äppelviken","coordinates":{"lat":"59.333333","long":"17.966667"}},{"country":"se","city":"Äpperum","coordinates":{"lat":"58.116667","long":"16.416667"}},{"country":"se","city":"Applakärr","coordinates":{"lat":"56.2","long":"14.933333"}},{"country":"se","city":"Äpplanäs","coordinates":{"lat":"56.9","long":"13.85"}},{"country":"se","city":"Äpplarö","coordinates":{"lat":"59.488333","long":"18.7225"}},{"country":"se","city":"Äpplaryd","coordinates":{"lat":"57.233333","long":"14.716667"}},{"country":"se","city":"Applaryd","coordinates":{"lat":"56.883333","long":"15.783333"}},{"country":"se","city":"Applehult","coordinates":{"lat":"57.233333","long":"14.433333"}},{"country":"se","city":"Applehult","coordinates":{"lat":"56.433333","long":"13.75"}},{"country":"se","city":"Applekulla","coordinates":{"lat":"57.333333","long":"16.166667"}},{"country":"se","city":"Äpplerum","coordinates":{"lat":"56.833333","long":"16.666667"}},{"country":"se","city":"Äpplerum","coordinates":{"lat":"57.9","long":"15.8"}},{"country":"se","city":"Applerund","coordinates":{"lat":"56.833333","long":"16.666667"}},{"country":"se","city":"Appleryd","coordinates":{"lat":"56.333333","long":"15.966667"}},{"country":"se","city":"Äppleudden","coordinates":{"lat":"57.808333","long":"16.586389"}},{"country":"se","city":"Appleund","coordinates":{"lat":"56.833333","long":"16.666667"}},{"country":"se","city":"Appuna","coordinates":{"lat":"58.333333","long":"14.95"}},{"country":"se","city":"Arådalen","coordinates":{"lat":"62.95","long":"13.633333"}},{"country":"se","city":"Araksuolo","coordinates":{"lat":"65.766667","long":"18.85"}},{"country":"se","city":"Aramo","coordinates":{"lat":"56.5","long":"14.833333"}},{"country":"se","city":"Årängen","coordinates":{"lat":"60.05","long":"15.55"}},{"country":"se","city":"Ar","coordinates":{"lat":"57.916667","long":"18.933333"}},{"country":"se","city":"Åraslöv","coordinates":{"lat":"56.1","long":"13.966667"}},{"country":"se","city":"Aratorp","coordinates":{"lat":"57.55","long":"12.783333"}},{"country":"se","city":"Arbelunda","coordinates":{"lat":"56.933333","long":"16.866667"}},{"country":"se","city":"Årberg","coordinates":{"lat":"58.483333","long":"12.183333"}},{"country":"se","city":"Arboga","coordinates":{"lat":"59.4","long":"15.833333"}},{"country":"se","city":"Årboheden","coordinates":{"lat":"60.733333","long":"15.266667"}},{"country":"se","city":"Årbohult","coordinates":{"lat":"56.466667","long":"13.933333"}},{"country":"se","city":"Årbol","coordinates":{"lat":"58.583333","long":"12.216667"}},{"country":"se","city":"Årböle","coordinates":{"lat":"60.416667","long":"17.983333"}},{"country":"se","city":"Årbotten","coordinates":{"lat":"59.8","long":"12.6"}},{"country":"se","city":"Arbrå","coordinates":{"lat":"61.466667","long":"16.383333"}},{"country":"se","city":"Arby","coordinates":{"lat":"56.566667","long":"16.116667"}},{"country":"se","city":"Årby","coordinates":{"lat":"60.466667","long":"15.45"}},{"country":"se","city":"Årby","coordinates":{"lat":"59.033333","long":"16.5"}},{"country":"se","city":"Årby","coordinates":{"lat":"59.733333","long":"17.733333"}},{"country":"se","city":"Årby","coordinates":{"lat":"59.583333","long":"16.266667"}},{"country":"se","city":"Årby","coordinates":{"lat":"58.283333","long":"14.05"}},{"country":"se","city":"Årbyn","coordinates":{"lat":"65.95","long":"22.116667"}},{"country":"se","city":"Ardala","coordinates":{"lat":"58.35","long":"13.333333"}},{"country":"se","city":"Ardal","coordinates":{"lat":"57.697222","long":"11.829722"}},{"country":"se","city":"Ardre","coordinates":{"lat":"57.383333","long":"18.683333"}},{"country":"se","city":"Åre","coordinates":{"lat":"63.4","long":"12.916667"}},{"country":"se","city":"Areavaara","coordinates":{"lat":"67.45","long":"23.5"}},{"country":"se","city":"Areavara","coordinates":{"lat":"67.45","long":"23.5"}},{"country":"se","city":"Areavarra","coordinates":{"lat":"67.45","long":"23.5"}},{"country":"se","city":"Årebol","coordinates":{"lat":"58.85","long":"12.55"}},{"country":"se","city":"Årebolet","coordinates":{"lat":"58.366667","long":"14.15"}},{"country":"se","city":"Åreda","coordinates":{"lat":"56.9","long":"14.983333"}},{"country":"se","city":"Årekärr","coordinates":{"lat":"57.583333","long":"11.983333"}},{"country":"se","city":"Årenäs","coordinates":{"lat":"57.5","long":"12.35"}},{"country":"se","city":"Ärendal","coordinates":{"lat":"58.983333","long":"17.333333"}},{"country":"se","city":"Arendal","coordinates":{"lat":"57.697222","long":"11.829722"}},{"country":"se","city":"Arentorp","coordinates":{"lat":"58.233333","long":"12.866667"}},{"country":"se","city":"Åreryd","coordinates":{"lat":"57.683333","long":"15.45"}},{"country":"se","city":"Åreved","coordinates":{"lat":"57.116667","long":"13.866667"}},{"country":"se","city":"Arfslindan","coordinates":{"lat":"60.533333","long":"15.15"}},{"country":"se","city":"Arfvesund","coordinates":{"lat":"63.25","long":"14.066667"}},{"country":"se","city":"Arfvet","coordinates":{"lat":"61.15","long":"15.116667"}},{"country":"se","city":"Arfvidstorp","coordinates":{"lat":"56.9","long":"12.466667"}},{"country":"se","city":"Arfvidstorp","coordinates":{"lat":"59.75","long":"13.183333"}},{"country":"se","city":"Arholma","coordinates":{"lat":"59.85","long":"19.1"}},{"country":"se","city":"Århult","coordinates":{"lat":"56.966667","long":"16.333333"}},{"country":"se","city":"Århult","coordinates":{"lat":"56.766667","long":"14.166667"}},{"country":"se","city":"Århult","coordinates":{"lat":"59.133333","long":"12.716667"}},{"country":"se","city":"Arild","coordinates":{"lat":"56.275","long":"12.575"}},{"country":"se","city":"Arildsläge","coordinates":{"lat":"56.275","long":"12.575"}},{"country":"se","city":"Aringsås","coordinates":{"lat":"56.9","long":"14.566667"}},{"country":"se","city":"Årispan","coordinates":{"lat":"59.783333","long":"15.383333"}},{"country":"se","city":"Ärja","coordinates":{"lat":"59.266667","long":"17.133333"}},{"country":"se","city":"Årjäng","coordinates":{"lat":"59.383333","long":"12.133333"}},{"country":"se","city":"Årjänge","coordinates":{"lat":"59.383333","long":"12.133333"}},{"country":"se","city":"Arjeplog","coordinates":{"lat":"66.05","long":"17.9"}},{"country":"se","city":"Arkelstorp","coordinates":{"lat":"56.166667","long":"14.266667"}},{"country":"se","city":"Arkhyttan","coordinates":{"lat":"60.433333","long":"15.883333"}},{"country":"se","city":"Ärkilsmåla","coordinates":{"lat":"56.4","long":"15.616667"}},{"country":"se","city":"Arklo","coordinates":{"lat":"61.366667","long":"16.983333"}},{"country":"se","city":"Arklo","coordinates":{"lat":"62.566667","long":"17.15"}},{"country":"se","city":"Arkösund","coordinates":{"lat":"58.483056","long":"16.933056"}},{"country":"se","city":"Arksjö","coordinates":{"lat":"64.35","long":"16.133333"}},{"country":"se","city":"Ärla","coordinates":{"lat":"59.283333","long":"16.666667"}},{"country":"se","city":"Ärlagården","coordinates":{"lat":"58.666667","long":"14.383333"}},{"country":"se","city":"Ärligbo","coordinates":{"lat":"60.183333","long":"17.033333"}},{"country":"se","city":"Ärlinghundra Härad","coordinates":{"lat":"59.666667","long":"17.783333"}},{"country":"se","city":"Arlom","coordinates":{"lat":"63.15","long":"17.75"}},{"country":"se","city":"Arlöv","coordinates":{"lat":"55.633333","long":"13.066667"}},{"country":"se","city":"Arlum","coordinates":{"lat":"63.15","long":"17.75"}},{"country":"se","city":"Armasjärvi","coordinates":{"lat":"66.316667","long":"23.55"}},{"country":"se","city":"Ärna","coordinates":{"lat":"59.4","long":"16.483333"}},{"country":"se","city":"Ärna","coordinates":{"lat":"59.883333","long":"17.6"}},{"country":"se","city":"Årnaberga","coordinates":{"lat":"56.533333","long":"13.083333"}},{"country":"se","city":"Årnaböke","coordinates":{"lat":"56.8","long":"13.216667"}},{"country":"se","city":"Arnanäs","coordinates":{"lat":"56.633333","long":"14.316667"}},{"country":"se","city":"Årnarp","coordinates":{"lat":"56.683333","long":"12.966667"}},{"country":"se","city":"Årnäs","coordinates":{"lat":"57.2","long":"12.216667"}},{"country":"se","city":"Ärnäs","coordinates":{"lat":"60.899722","long":"13.366667"}},{"country":"se","city":"Årnäs","coordinates":{"lat":"59.666667","long":"12.916667"}},{"country":"se","city":"Årnäs","coordinates":{"lat":"58.683333","long":"13.583333"}},{"country":"se","city":"Årnäshamn","coordinates":{"lat":"58.683333","long":"13.583333"}},{"country":"se","city":"Arnästorp","coordinates":{"lat":"59.566667","long":"13.433333"}},{"country":"se","city":"Arnäsvall","coordinates":{"lat":"63.316667","long":"18.783333"}},{"country":"se","city":"Arnberg","coordinates":{"lat":"64.883333","long":"19.466667"}},{"country":"se","city":"Arnbo","coordinates":{"lat":"60.733333","long":"15.833333"}},{"country":"se","city":"Arnebo","coordinates":{"lat":"57.966667","long":"15.5"}},{"country":"se","city":"Arnebo","coordinates":{"lat":"59.966667","long":"16.816667"}},{"country":"se","city":"Arneby","coordinates":{"lat":"59.866667","long":"13.166667"}},{"country":"se","city":"Arnebyn","coordinates":{"lat":"58.766667","long":"12.116667"}},{"country":"se","city":"Arneholm","coordinates":{"lat":"57","long":"16.466667"}},{"country":"se","city":"Ärnemar","coordinates":{"lat":"57.25","long":"16.466667"}},{"country":"se","city":"Arnemark","coordinates":{"lat":"65.483333","long":"21.2"}},{"country":"se","city":"Ärnevi","coordinates":{"lat":"59.85","long":"17.816667"}},{"country":"se","city":"Ärngisslahyltan","coordinates":{"lat":"56.733333","long":"15.716667"}},{"country":"se","city":"Arnhult","coordinates":{"lat":"57.016667","long":"14.45"}},{"country":"se","city":"Årnilt","coordinates":{"lat":"56.816667","long":"13.05"}},{"country":"se","city":"Arnö","coordinates":{"lat":"61.696667","long":"17.387222"}},{"country":"se","city":"Arnö","coordinates":{"lat":"58.1","long":"16.75"}},{"country":"se","city":"Arnö","coordinates":{"lat":"58.733333","long":"17"}},{"country":"se","city":"Arnö","coordinates":{"lat":"59.489722","long":"18.599167"}},{"country":"se","city":"Arnön","coordinates":{"lat":"61.696667","long":"17.387222"}},{"country":"se","city":"Arnsjön","coordinates":{"lat":"60.316667","long":"12.633333"}},{"country":"se","city":"Arnstorp","coordinates":{"lat":"59.966667","long":"13.316667"}},{"country":"se","city":"Arntorp","coordinates":{"lat":"57.9","long":"11.933333"}},{"country":"se","city":"Aröd","coordinates":{"lat":"57.733333","long":"11.95"}},{"country":"se","city":"Aronsberg","coordinates":{"lat":"59.766667","long":"15.566667"}},{"country":"se","city":"Aronsjö","coordinates":{"lat":"64.716667","long":"16.7"}},{"country":"se","city":"Arontorp","coordinates":{"lat":"56.65","long":"16.533333"}},{"country":"se","city":"Årosjåkk","coordinates":{"lat":"67.866667","long":"19.366667"}},{"country":"se","city":"Arpemåla","coordinates":{"lat":"56.566667","long":"15.366667"}},{"country":"se","city":"Ärrarp","coordinates":{"lat":"56.266667","long":"12.866667"}},{"country":"se","city":"Årred","coordinates":{"lat":"57.916667","long":"12.833333"}},{"country":"se","city":"Arrie","coordinates":{"lat":"55.516667","long":"13.083333"}},{"country":"se","city":"Årröd","coordinates":{"lat":"55.966667","long":"13.883333"}},{"country":"se","city":"Årsås","coordinates":{"lat":"57.616667","long":"15.083333"}},{"country":"se","city":"Årset","coordinates":{"lat":"57.3","long":"14.866667"}},{"country":"se","city":"Årshult","coordinates":{"lat":"56.8","long":"13.45"}},{"country":"se","city":"Årsjö","coordinates":{"lat":"55.5","long":"13.75"}},{"country":"se","city":"Årskogen","coordinates":{"lat":"62.133333","long":"17.333333"}},{"country":"se","city":"Årsnäs","coordinates":{"lat":"57.933333","long":"11.766667"}},{"country":"se","city":"Ärsta","coordinates":{"lat":"59.4","long":"16.516667"}},{"country":"se","city":"Årsta","coordinates":{"lat":"59.866667","long":"17.683333"}},{"country":"se","city":"Ärsta","coordinates":{"lat":"62.9","long":"18.116667"}},{"country":"se","city":"Årsta","coordinates":{"lat":"59.3","long":"18.05"}},{"country":"se","city":"Årstadal","coordinates":{"lat":"59.3","long":"18.016667"}},{"country":"se","city":"Årstad","coordinates":{"lat":"56.916667","long":"12.666667"}},{"country":"se","city":"Årstad","coordinates":{"lat":"59.583333","long":"12.116667"}},{"country":"se","city":"Årsta Havsbad","coordinates":{"lat":"59.084444","long":"18.168056"}},{"country":"se","city":"Årstaskog","coordinates":{"lat":"59.3","long":"18.033333"}},{"country":"se","city":"Årsunda","coordinates":{"lat":"60.533333","long":"16.733333"}},{"country":"se","city":"Årsvik","coordinates":{"lat":"56.366667","long":"16.4"}},{"country":"se","city":"Arta","coordinates":{"lat":"57.833333","long":"12.983333"}},{"country":"se","city":"Årtakan","coordinates":{"lat":"59.7","long":"12.316667"}},{"country":"se","city":"Ärtberget","coordinates":{"lat":"60.283333","long":"14.083333"}},{"country":"se","city":"Årtebäck","coordinates":{"lat":"56.783333","long":"16.133333"}},{"country":"se","city":"Årteryd","coordinates":{"lat":"58.05","long":"15.75"}},{"country":"se","city":"Ärtetan","coordinates":{"lat":"59.6","long":"13"}},{"country":"se","city":"Ärtetjärn","coordinates":{"lat":"59.5","long":"11.8"}},{"country":"se","city":"Artorp","coordinates":{"lat":"58.183333","long":"12.3"}},{"country":"se","city":"Ärtrik","coordinates":{"lat":"63.283333","long":"16.7"}},{"country":"se","city":"Arup","coordinates":{"lat":"55.783333","long":"13.533333"}},{"country":"se","city":"Arvaby","coordinates":{"lat":"59.283333","long":"14.916667"}},{"country":"se","city":"Arveka","coordinates":{"lat":"56.583333","long":"13.816667"}},{"country":"se","city":"Arvesund","coordinates":{"lat":"63.25","long":"14.066667"}},{"country":"se","city":"Arvet","coordinates":{"lat":"61.15","long":"15.116667"}},{"country":"se","city":"Arvidabo","coordinates":{"lat":"57.216667","long":"13.35"}},{"country":"se","city":"Arvidsberg","coordinates":{"lat":"58.416667","long":"16.75"}},{"country":"se","city":"Arvidsjaur","coordinates":{"lat":"65.583333","long":"19.166667"}},{"country":"se","city":"Arvidstorp","coordinates":{"lat":"56.216667","long":"15.433333"}},{"country":"se","city":"Arvidstorp","coordinates":{"lat":"56.9","long":"12.466667"}},{"country":"se","city":"Arvidstorp","coordinates":{"lat":"59.75","long":"13.183333"}},{"country":"se","city":"Arvidstorp","coordinates":{"lat":"57.266667","long":"13.05"}},{"country":"se","city":"Arvidsträsk","coordinates":{"lat":"65.566667","long":"20.85"}},{"country":"se","city":"Arvidsvik","coordinates":{"lat":"57.883333","long":"11.583333"}},{"country":"se","city":"Arvika","coordinates":{"lat":"59.666667","long":"12.566667"}},{"country":"se","city":"Arviken","coordinates":{"lat":"59.533333","long":"13.733333"}},{"country":"se","city":"Arvingetorp","coordinates":{"lat":"57.45","long":"15.016667"}},{"country":"se","city":"Arvslindan","coordinates":{"lat":"60.533333","long":"15.15"}},{"country":"se","city":"Arvsviken","coordinates":{"lat":"59.283333","long":"14.416667"}},{"country":"se","city":"Arvträsk","coordinates":{"lat":"64.583333","long":"19.016667"}},{"country":"se","city":"Åryd","coordinates":{"lat":"56.208333","long":"15.016667"}},{"country":"se","city":"Åryd","coordinates":{"lat":"56.816667","long":"14.983333"}},{"country":"se","city":"Åryd","coordinates":{"lat":"57.95","long":"13.65"}},{"country":"se","city":"Åsa","coordinates":{"lat":"57.35","long":"12.116667"}},{"country":"se","city":"Åsa","coordinates":{"lat":"58.016667","long":"14.6"}},{"country":"se","city":"Åsa","coordinates":{"lat":"57.25","long":"16.45"}},{"country":"se","city":"Åsa","coordinates":{"lat":"56.5","long":"13.65"}},{"country":"se","city":"Åsabyn","coordinates":{"lat":"63.283333","long":"12.4"}},{"country":"se","city":"Åsaka","coordinates":{"lat":"58.066667","long":"13.666667"}},{"country":"se","city":"Åsak","coordinates":{"lat":"61.766667","long":"17"}},{"country":"se","city":"Åsan","coordinates":{"lat":"62.233333","long":"15.033333"}},{"country":"se","city":"Åsäng","coordinates":{"lat":"62.6","long":"17.4"}},{"country":"se","city":"Åsared","coordinates":{"lat":"57.883333","long":"14.033333"}},{"country":"se","city":"Åsarna","coordinates":{"lat":"62.65","long":"14.35"}},{"country":"se","city":"Åsarna","coordinates":{"lat":"58.179167","long":"11.841667"}},{"country":"se","city":"Åsarne","coordinates":{"lat":"62.65","long":"14.35"}},{"country":"se","city":"Åsarp","coordinates":{"lat":"57.55","long":"13.366667"}},{"country":"se","city":"Asarum","coordinates":{"lat":"56.2","long":"14.833333"}},{"country":"se","city":"Asaryd","coordinates":{"lat":"57.166667","long":"14.833333"}},{"country":"se","city":"Ås","coordinates":{"lat":"60.4","long":"17"}},{"country":"se","city":"Ås","coordinates":{"lat":"56.983333","long":"12.683333"}},{"country":"se","city":"Ås","coordinates":{"lat":"63.25","long":"14.566667"}},{"country":"se","city":"Ås","coordinates":{"lat":"57.116667","long":"13.666667"}},{"country":"se","city":"Ås","coordinates":{"lat":"59.316667","long":"13.116667"}},{"country":"se","city":"Ås","coordinates":{"lat":"62.45","long":"17.45"}},{"country":"se","city":"Äs","coordinates":{"lat":"59.7","long":"16.583333"}},{"country":"se","city":"Åsätra","coordinates":{"lat":"59.505278","long":"18.635278"}},{"country":"se","city":"Åsättra","coordinates":{"lat":"59.505278","long":"18.635278"}},{"country":"se","city":"Åsbacka","coordinates":{"lat":"61.283333","long":"17.15"}},{"country":"se","city":"Åsberget","coordinates":{"lat":"62.75","long":"15.65"}},{"country":"se","city":"Åsbergsviken","coordinates":{"lat":"59.35","long":"14.366667"}},{"country":"se","city":"Åsbo","coordinates":{"lat":"60.516667","long":"17.2"}},{"country":"se","city":"Åsboberg","coordinates":{"lat":"59.533333","long":"14.966667"}},{"country":"se","city":"Åsbro","coordinates":{"lat":"59","long":"15.05"}},{"country":"se","city":"Åsby","coordinates":{"lat":"57.233333","long":"12.3"}},{"country":"se","city":"Asby","coordinates":{"lat":"58.016667","long":"14.283333"}},{"country":"se","city":"Asby","coordinates":{"lat":"57.016667","long":"15.183333"}},{"country":"se","city":"Åsby","coordinates":{"lat":"59.2","long":"15.566667"}},{"country":"se","city":"Asby","coordinates":{"lat":"57.9","long":"15.2"}},{"country":"se","city":"Åsby","coordinates":{"lat":"59.333333","long":"16.3"}},{"country":"se","city":"Åsby","coordinates":{"lat":"59.933333","long":"18.283333"}},{"country":"se","city":"Åsby","coordinates":{"lat":"59.55","long":"15.916667"}},{"country":"se","city":"Åsby","coordinates":{"lat":"59.7","long":"17.966667"}},{"country":"se","city":"Åsbyggeby","coordinates":{"lat":"60.666667","long":"17.016667"}},{"country":"se","city":"Åsbyn","coordinates":{"lat":"60.683333","long":"13.716667"}},{"country":"se","city":"Asbysand","coordinates":{"lat":"57.9","long":"15.2"}},{"country":"se","city":"Åse","coordinates":{"lat":"63.316667","long":"14.083333"}},{"country":"se","city":"Åse","coordinates":{"lat":"62.516667","long":"16.05"}},{"country":"se","city":"Äsebo","coordinates":{"lat":"57.7","long":"13.766667"}},{"country":"se","city":"Åsebo","coordinates":{"lat":"58.166667","long":"16.1"}},{"country":"se","city":"Åsebol","coordinates":{"lat":"58.833333","long":"14.35"}},{"country":"se","city":"Åsebolet","coordinates":{"lat":"58.833333","long":"14.35"}},{"country":"se","city":"Åsebro","coordinates":{"lat":"58.6","long":"12.483056"}},{"country":"se","city":"Åseby","coordinates":{"lat":"57.783333","long":"11.866667"}},{"country":"se","city":"Åsebyn","coordinates":{"lat":"59.383333","long":"12.216667"}},{"country":"se","city":"Åseda","coordinates":{"lat":"57.166667","long":"15.333333"}},{"country":"se","city":"Åsegård","coordinates":{"lat":"60","long":"13.15"}},{"country":"se","city":"Åselby","coordinates":{"lat":"60.466667","long":"15.45"}},{"country":"se","city":"Åsele","coordinates":{"lat":"64.166667","long":"17.333333"}},{"country":"se","city":"Åselet","coordinates":{"lat":"65.216667","long":"20.45"}},{"country":"se","city":"Åsen","coordinates":{"lat":"60.616667","long":"16.6"}},{"country":"se","city":"Åsen","coordinates":{"lat":"57.283333","long":"12.158333"}},{"country":"se","city":"Åsen","coordinates":{"lat":"61.8","long":"14.116667"}},{"country":"se","city":"Åsen","coordinates":{"lat":"57.25","long":"13.466667"}},{"country":"se","city":"Åsen","coordinates":{"lat":"60.433333","long":"15.666667"}},{"country":"se","city":"Åsen","coordinates":{"lat":"56.816667","long":"13.533333"}},{"country":"se","city":"Åsen","coordinates":{"lat":"59.2","long":"15.4"}},{"country":"se","city":"Åsen","coordinates":{"lat":"58.85","long":"16.416667"}},{"country":"se","city":"Åsen","coordinates":{"lat":"59.433333","long":"13.95"}},{"country":"se","city":"Åsen","coordinates":{"lat":"64.6","long":"20"}},{"country":"se","city":"Åsen","coordinates":{"lat":"62.7","long":"16.75"}},{"country":"se","city":"Åsen","coordinates":{"lat":"58.066667","long":"12.95"}},{"country":"se","city":"Åsenhöga","coordinates":{"lat":"57.4","long":"13.8"}},{"country":"se","city":"Åsensbruk","coordinates":{"lat":"58.799722","long":"12.416667"}},{"country":"se","city":"Åserud","coordinates":{"lat":"59.083333","long":"13.966667"}},{"country":"se","city":"Aserum","coordinates":{"lat":"57.1","long":"16.5"}},{"country":"se","city":"Ås-Gammelbodarna","coordinates":{"lat":"63.1","long":"16.666667"}},{"country":"se","city":"Åsgapet","coordinates":{"lat":"58.533333","long":"13.116667"}},{"country":"se","city":"Åsgärde","coordinates":{"lat":"57.4","long":"13.316667"}},{"country":"se","city":"Åshagen","coordinates":{"lat":"60.083333","long":"13"}},{"country":"se","city":"Åshammar","coordinates":{"lat":"60.65","long":"16.533333"}},{"country":"se","city":"Åshammar","coordinates":{"lat":"59.1","long":"17.25"}},{"country":"se","city":"Åshammar","coordinates":{"lat":"59.383333","long":"13.083333"}},{"country":"se","city":"Åshorva","coordinates":{"lat":"57.9","long":"15.85"}},{"country":"se","city":"Äshult","coordinates":{"lat":"57.283333","long":"16.266667"}},{"country":"se","city":"Åshult","coordinates":{"lat":"58.3","long":"12.833333"}},{"country":"se","city":"Åshusby","coordinates":{"lat":"59.6","long":"17.9"}},{"country":"se","city":"Åshuvud","coordinates":{"lat":"57.25","long":"13.766667"}},{"country":"se","city":"Asige","coordinates":{"lat":"56.866667","long":"12.733333"}},{"country":"se","city":"Äsingen","coordinates":{"lat":"63.75","long":"12.416667"}},{"country":"se","city":"Åsjögle","coordinates":{"lat":"57.416667","long":"16.033333"}},{"country":"se","city":"Åsjön","coordinates":{"lat":"64.283333","long":"20.4"}},