[{"country":"tm","city":"Aadzi","coordinates":{"lat":"38.1","long":"64.85"}},{"country":"tm","city":"Admi-Yab","coordinates":{"lat":"37.4197222","long":"54.1583333"}},{"country":"tm","city":"Adzhi","coordinates":{"lat":"38.1","long":"64.85"}},{"country":"tm","city":"Adzhikui","coordinates":{"lat":"39.7666667","long":"54.9833333"}},{"country":"tm","city":"Adzhi-Kuyu","coordinates":{"lat":"39.7666667","long":"54.9833333"}},{"country":"tm","city":"Adzhiyab","coordinates":{"lat":"37.4197222","long":"54.1583333"}},{"country":"tm","city":"Adzhyyab","coordinates":{"lat":"37.4197222","long":"54.1583333"}},{"country":"tm","city":"Agach-Arvat","coordinates":{"lat":"37.7005556","long":"54.7833333"}},{"country":"tm","city":"Aga-Many","coordinates":{"lat":"39.3891667","long":"53.2819444"}},{"country":"tm","city":"Agar","coordinates":{"lat":"37.6666667","long":"65.4"}},{"country":"tm","city":"Agdzha-Kala","coordinates":{"lat":"37.3","long":"60.5833333"}},{"country":"tm","city":"Agja Kala","coordinates":{"lat":"37.3","long":"60.5833333"}},{"country":"tm","city":"Ajyyap","coordinates":{"lat":"37.4197222","long":"54.1583333"}},{"country":"tm","city":"Ak","coordinates":{"lat":"38.1833333","long":"56.2166667"}},{"country":"tm","city":"Ak-Altyn","coordinates":{"lat":"42.1833333","long":"58.3666667"}},{"country":"tm","city":"Ak-Bay","coordinates":{"lat":"37.7166667","long":"61.8"}},{"country":"tm","city":"Akbogaz","coordinates":{"lat":"39.3666667","long":"55.4833333"}},{"country":"tm","city":"Ak-Bulak","coordinates":{"lat":"37.5166667","long":"66.3333333"}},{"country":"tm","city":"Akdash","coordinates":{"lat":"40.1166667","long":"53.1666667"}},{"country":"tm","city":"Ak-Dashayak","coordinates":{"lat":"37.5833333","long":"60.3166667"}},{"country":"tm","city":"Akdepe","coordinates":{"lat":"38.3","long":"57.5833333"}},{"country":"tm","city":"Akdepe","coordinates":{"lat":"42.05","long":"59.4"}},{"country":"tm","city":"Ak-Gaudan","coordinates":{"lat":"38.25","long":"57.75"}},{"country":"tm","city":"Akhchadepe","coordinates":{"lat":"36.7525","long":"60.4741667"}},{"country":"tm","city":"Akhchaguyma","coordinates":{"lat":"39.3666667","long":"55.1666667"}},{"country":"tm","city":"Akhcha-Kuyma","coordinates":{"lat":"39.3666667","long":"55.1666667"}},{"country":"tm","city":"Akhcha-Tepe","coordinates":{"lat":"36.7525","long":"60.4741667"}},{"country":"tm","city":"Akhtash-Ovliya","coordinates":{"lat":"36.2833333","long":"61.2166667"}},{"country":"tm","city":"Akkala","coordinates":{"lat":"39.0","long":"63.6"}},{"country":"tm","city":"Ak-Kaya","coordinates":{"lat":"38.3833333","long":"56.5"}},{"country":"tm","city":"Akkui","coordinates":{"lat":"40.1666667","long":"54.3333333"}},{"country":"tm","city":"Ak-Kum","coordinates":{"lat":"37.6","long":"65.75"}},{"country":"tm","city":"Akkumulam","coordinates":{"lat":"37.54","long":"65.8641667"}},{"country":"tm","city":"Akkumulyam","coordinates":{"lat":"37.54","long":"65.8641667"}},{"country":"tm","city":"Ak-Kungur","coordinates":{"lat":"37.6666667","long":"60.3"}},{"country":"tm","city":"Ak-Kuyu","coordinates":{"lat":"40.1666667","long":"54.3333333"}},{"country":"tm","city":"Ak-Mechet","coordinates":{"lat":"39.2833333","long":"63.0166667"}},{"country":"tm","city":"Ak-Rabat","coordinates":{"lat":"39.5261111","long":"62.9922222"}},{"country":"tm","city":"Akrabat","coordinates":{"lat":"35.4666667","long":"61.7166667"}},{"country":"tm","city":"Ak-Saray","coordinates":{"lat":"41.6333333","long":"60.1"}},{"country":"tm","city":"Ak-Say","coordinates":{"lat":"37.8833333","long":"66.4166667"}},{"country":"tm","city":"(( Aktash ))","coordinates":{"lat":"37.9288889","long":"58.4419444"}},{"country":"tm","city":"Aktepe","coordinates":{"lat":"38.0138889","long":"58.1833333"}},{"country":"tm","city":"Ak-Tepe","coordinates":{"lat":"38.3","long":"57.5833333"}},{"country":"tm","city":"Ak-Tepe","coordinates":{"lat":"42.05","long":"59.4"}},{"country":"tm","city":"Aktepe","coordinates":{"lat":"37.3794444","long":"66.2672222"}},{"country":"tm","city":"Ak-Tere","coordinates":{"lat":"37.3794444","long":"66.2672222"}},{"country":"tm","city":"Ak-Teri","coordinates":{"lat":"38.0833333","long":"64.9"}},{"country":"tm","city":"Ak-Tugay","coordinates":{"lat":"39.65","long":"62.6833333"}},{"country":"tm","city":"Ak-Tyube","coordinates":{"lat":"42.05","long":"59.4"}},{"country":"tm","city":"Ak'yayla","coordinates":{"lat":"37.4888889","long":"54.6911111"}},{"country":"tm","city":"Akyayla","coordinates":{"lat":"37.4888889","long":"54.6911111"}},{"country":"tm","city":"Aladzha","coordinates":{"lat":"39.3569444","long":"53.2122222"}},{"country":"tm","city":"Alaja","coordinates":{"lat":"39.3569444","long":"53.2122222"}},{"country":"tm","city":"Alam","coordinates":{"lat":"36.7613889","long":"61.1280556"}},{"country":"tm","city":"Alangyrtly","coordinates":{"lat":"38.4652778","long":"54.3541667"}},{"country":"tm","city":"Alibek","coordinates":{"lat":"37.9019444","long":"58.1708333"}},{"country":"tm","city":"Allan-Tepe","coordinates":{"lat":"37.3","long":"62.4"}},{"country":"tm","city":"Alla-Sakal","coordinates":{"lat":"37.6833333","long":"61.65"}},{"country":"tm","city":"Allatepe","coordinates":{"lat":"39.8333333","long":"52.9833333"}},{"country":"tm","city":"Almysh","coordinates":{"lat":"37.2666667","long":"62.3166667"}},{"country":"tm","city":"Alnysh","coordinates":{"lat":"37.2666667","long":"62.3166667"}},{"country":"tm","city":"Alpan","coordinates":{"lat":"38.8666667","long":"63.8"}},{"country":"tm","city":"Altykui","coordinates":{"lat":"38.6088889","long":"54.2125"}},{"country":"tm","city":"Alyandor","coordinates":{"lat":"39.2333333","long":"63.5333333"}},{"country":"tm","city":"Aman","coordinates":{"lat":"37.65","long":"60.55"}},{"country":"tm","city":"Amandor","coordinates":{"lat":"41.4833333","long":"52.8333333"}},{"country":"tm","city":"Amannazar","coordinates":{"lat":"38.85","long":"55.45"}},{"country":"tm","city":"Amansha","coordinates":{"lat":"37.6166667","long":"61.9166667"}},{"country":"tm","city":"Amansha-Kapan","coordinates":{"lat":"37.4333333","long":"60.3833333"}},{"country":"tm","city":"Amasha Kapan","coordinates":{"lat":"37.4333333","long":"60.3833333"}},{"country":"tm","city":"Amasha-Kapin","coordinates":{"lat":"37.4333333","long":"60.3833333"}},{"country":"tm","city":"Ammanazar","coordinates":{"lat":"38.85","long":"55.4"}},{"country":"tm","city":"Amu-Dar'inskiy","coordinates":{"lat":"39.1166667","long":"63.3833333"}},{"country":"tm","city":"Amudar'ya","coordinates":{"lat":"37.5902778","long":"65.5761111"}},{"country":"tm","city":"Amu-Dar'ya","coordinates":{"lat":"37.8880556","long":"65.2447222"}},{"country":"tm","city":"Amyderýa","coordinates":{"lat":"37.8880556","long":"65.2447222"}},{"country":"tm","city":"Anansha","coordinates":{"lat":"37.6166667","long":"61.9166667"}},{"country":"tm","city":"Anar-Bulak","coordinates":{"lat":"37.95","long":"67.35"}},{"country":"tm","city":"Anau","coordinates":{"lat":"37.8883333","long":"58.5280556"}},{"country":"tm","city":"Andreyevsk","coordinates":{"lat":"41.85","long":"60.1333333"}},{"country":"tm","city":"Änew","coordinates":{"lat":"37.8883333","long":"58.5280556"}},{"country":"tm","city":"Angat","coordinates":{"lat":"37.7833333","long":"60.1"}},{"country":"tm","city":"Anna-Mamed","coordinates":{"lat":"41.9833333","long":"59.7"}},{"country":"tm","city":"Anna-Mamet","coordinates":{"lat":"41.9833333","long":"59.7"}},{"country":"tm","city":"Annamurat","coordinates":{"lat":"38.35","long":"64.3166667"}},{"country":"tm","city":"Annau","coordinates":{"lat":"37.8883333","long":"58.5280556"}},{"country":"tm","city":"Anvamurat","coordinates":{"lat":"38.35","long":"64.3166667"}},{"country":"tm","city":"Apchin Camp","coordinates":{"lat":"37.55","long":"60.2833333"}},{"country":"tm","city":"Arab-Kala","coordinates":{"lat":"37.3333333","long":"59.5166667"}},{"country":"tm","city":"Arab-Khana","coordinates":{"lat":"39.25","long":"63.0833333"}},{"country":"tm","city":"Araki","coordinates":{"lat":"39.1833333","long":"63.55"}},{"country":"tm","city":"Arap","coordinates":{"lat":"40.65","long":"61.7"}},{"country":"tm","city":"Arapchuk","coordinates":{"lat":"38.4166667","long":"56.4833333"}},{"country":"tm","city":"Arap-Kala","coordinates":{"lat":"37.3333333","long":"59.5166667"}},{"country":"tm","city":"Arap-Kala","coordinates":{"lat":"38.4166667","long":"56.4833333"}},{"country":"tm","city":"Arapkhana","coordinates":{"lat":"39.0166667","long":"63.7166667"}},{"country":"tm","city":"Archin","coordinates":{"lat":"37.4666667","long":"60.3333333"}},{"country":"tm","city":"Archin'yak","coordinates":{"lat":"37.15","long":"59.6"}},{"country":"tm","city":"Archin'yan","coordinates":{"lat":"37.15","long":"59.6"}},{"country":"tm","city":"Archman","coordinates":{"lat":"38.55","long":"57.15"}},{"country":"tm","city":"Arpaklen","coordinates":{"lat":"38.35","long":"56.5833333"}},{"country":"tm","city":"Arpaklon","coordinates":{"lat":"38.35","long":"56.5833333"}},{"country":"tm","city":"Artyk","coordinates":{"lat":"37.5666667","long":"59.3"}},{"country":"tm","city":"Arychagyl","coordinates":{"lat":"42.55","long":"58.7166667"}},{"country":"tm","city":"Arykagyl","coordinates":{"lat":"42.5333333","long":"58.7333333"}},{"country":"tm","city":"Arzuv","coordinates":{"lat":"37.9511111","long":"58.4447222"}},{"country":"tm","city":"Asgabat","coordinates":{"lat":"37.95","long":"58.3833333"}},{"country":"tm","city":"Ashgabadskaya Ptitsefabrika","coordinates":{"lat":"37.9927778","long":"58.3258333"}},{"country":"tm","city":"Ashgabat","coordinates":{"lat":"37.95","long":"58.3833333"}},{"country":"tm","city":"Ashkabad","coordinates":{"lat":"37.95","long":"58.3833333"}},{"country":"tm","city":"Ashkhabad","coordinates":{"lat":"37.95","long":"58.3833333"}},{"country":"tm","city":"Ashqabad","coordinates":{"lat":"37.95","long":"58.3833333"}},{"country":"tm","city":"Askabad","coordinates":{"lat":"37.95","long":"58.3833333"}},{"country":"tm","city":"Askhabad","coordinates":{"lat":"37.95","long":"58.3833333"}},{"country":"tm","city":"Astanababa","coordinates":{"lat":"37.9166667","long":"65.0833333"}},{"country":"tm","city":"Ata","coordinates":{"lat":"36.6666667","long":"61.15"}},{"country":"tm","city":"Ata","coordinates":{"lat":"40.5","long":"62.15"}},{"country":"tm","city":"Atamyrat","coordinates":{"lat":"37.8344444","long":"65.2097222"}},{"country":"tm","city":"Atatlyk","coordinates":{"lat":"38.7038889","long":"63.9558333"}},{"country":"tm","city":"Ata-Yab","coordinates":{"lat":"36.6666667","long":"61.15"}},{"country":"tm","city":"Auazy","coordinates":{"lat":"39.9591667","long":"52.8591667"}},{"country":"tm","city":"Auchi","coordinates":{"lat":"38.8544444","long":"63.8791667"}},{"country":"tm","city":"Aul-Alnysh","coordinates":{"lat":"37.3166667","long":"62.3333333"}},{"country":"tm","city":"Aul","coordinates":{"lat":"36.4563889","long":"62.6272222"}},{"country":"tm","city":"Aul Gassan-Kuli","coordinates":{"lat":"37.4655556","long":"53.9725"}},{"country":"tm","city":"Aul Geok-Che","coordinates":{"lat":"37.75","long":"61.5666667"}},{"country":"tm","city":"Auliye","coordinates":{"lat":"41.5166667","long":"59.8166667"}},{"country":"tm","city":"Aul Kul'dzha","coordinates":{"lat":"35.9383333","long":"62.9483333"}},{"country":"tm","city":"Aul Nomer Pyat'desyat Vtoroy","coordinates":{"lat":"37.6166667","long":"62.35"}},{"country":"tm","city":"Aul Nomer Shestoy","coordinates":{"lat":"37.4666667","long":"62.3833333"}},{"country":"tm","city":"Aul Sary-Yazy","coordinates":{"lat":"36.4563889","long":"62.6272222"}},{"country":"tm","city":"Aul Urazaly","coordinates":{"lat":"35.9666667","long":"62.8"}},{"country":"tm","city":"Avaza","coordinates":{"lat":"39.9591667","long":"52.8591667"}},{"country":"tm","city":"Avazy","coordinates":{"lat":"39.9591667","long":"52.8591667"}},{"country":"tm","city":"Avchi","coordinates":{"lat":"38.8544444","long":"63.8791667"}},{"country":"tm","city":"Ayak","coordinates":{"lat":"39.3","long":"63.0166667"}},{"country":"tm","city":"Aydere","coordinates":{"lat":"38.4","long":"56.75"}},{"country":"tm","city":"Aydin","coordinates":{"lat":"39.35","long":"54.8166667"}},{"country":"tm","city":"Aymyr","coordinates":{"lat":"42.25","long":"59.3333333"}},{"country":"tm","city":"Azat","coordinates":{"lat":"37.6166667","long":"62.2666667"}},{"country":"tm","city":"Babadaýhan","coordinates":{"lat":"37.6922222","long":"60.3933333"}},{"country":"tm","city":"Babadaykhan","coordinates":{"lat":"37.6833333","long":"60.4333333"}},{"country":"tm","city":"Babadaykhan Pervyy","coordinates":{"lat":"37.5166667","long":"60.5333333"}},{"country":"tm","city":"Babadaykhan Vtoroy","coordinates":{"lat":"37.6833333","long":"60.4333333"}},{"country":"tm","city":"Baba-Deykhan","coordinates":{"lat":"37.5166667","long":"60.5333333"}},{"country":"tm","city":"Baba-Deykhan Pervyy","coordinates":{"lat":"37.5166667","long":"60.5333333"}},{"country":"tm","city":"Baba-Deykhan-Pervyy","coordinates":{"lat":"37.6833333","long":"60.4333333"}},{"country":"tm","city":"Baba-Deykhan Vtoroy","coordinates":{"lat":"37.6833333","long":"60.4333333"}},{"country":"tm","city":"Babadurmaz","coordinates":{"lat":"37.65","long":"59.15"}},{"country":"tm","city":"Baba-Ishak","coordinates":{"lat":"42.2666667","long":"58.4"}},{"country":"tm","city":"Babakhodzha","coordinates":{"lat":"39.35","long":"54.2"}},{"country":"tm","city":"Babarabkala","coordinates":{"lat":"38.1","long":"58.1166667"}},{"country":"tm","city":"Bagabat","coordinates":{"lat":"37.7983333","long":"58.5286111"}},{"country":"tm","city":"Bagadzha","coordinates":{"lat":"40.0166667","long":"58.35"}},{"country":"tm","city":"Bagadzha","coordinates":{"lat":"37.6","long":"61.7333333"}},{"country":"tm","city":"Bagarka","coordinates":{"lat":"37.6","long":"61.7333333"}},{"country":"tm","city":"Bagir","coordinates":{"lat":"37.9652778","long":"58.2205556"}},{"country":"tm","city":"Bagshimirish","coordinates":{"lat":"37.4666667","long":"60.4333333"}},{"country":"tm","city":"Bagt","coordinates":{"lat":"37.6666667","long":"62.1833333"}},{"country":"tm","city":"Bagyr","coordinates":{"lat":"37.9652778","long":"58.2205556"}},{"country":"tm","city":"Bäherden","coordinates":{"lat":"38.4302778","long":"57.4369444"}},{"country":"tm","city":"Bairam Ali","coordinates":{"lat":"37.6166667","long":"62.1666667"}},{"country":"tm","city":"Bairobab","coordinates":{"lat":"39.0591667","long":"63.6366667"}},{"country":"tm","city":"Bakauli","coordinates":{"lat":"38.5238889","long":"64.2536111"}},{"country":"tm","city":"Bakharden","coordinates":{"lat":"38.4302778","long":"57.4369444"}},{"country":"tm","city":"Bakhardok","coordinates":{"lat":"38.7666667","long":"58.5"}},{"country":"tm","city":"Bakhshi","coordinates":{"lat":"37.6333333","long":"60.2833333"}},{"country":"tm","city":"Bakhshimarish","coordinates":{"lat":"37.4666667","long":"60.4333333"}},{"country":"tm","city":"Bakhshi-Mirish","coordinates":{"lat":"37.6333333","long":"60.2833333"}},{"country":"tm","city":"Bakshi-Marish","coordinates":{"lat":"37.4666667","long":"60.4333333"}},{"country":"tm","city":"Bala-Ishem","coordinates":{"lat":"39.4333333","long":"54.4833333"}},{"country":"tm","city":"Balkanabat","coordinates":{"lat":"39.5119444","long":"54.365"}},{"country":"tm","city":"Balkui","coordinates":{"lat":"38.3894444","long":"54.4797222"}},{"country":"tm","city":"Balla-Ishem","coordinates":{"lat":"39.4333333","long":"54.4833333"}},{"country":"tm","city":"Bami","coordinates":{"lat":"38.7333333","long":"56.8"}},{"country":"tm","city":"Bamy","coordinates":{"lat":"38.7333333","long":"56.8"}},{"country":"tm","city":"Bangil'dy","coordinates":{"lat":"39.0166667","long":"63.6333333"}},{"country":"tm","city":"Banysh","coordinates":{"lat":"38.6166667","long":"64.05"}},{"country":"tm","city":"Baragiz","coordinates":{"lat":"39.2","long":"63.2333333"}},{"country":"tm","city":"Bardzan","coordinates":{"lat":"39.2","long":"63.3666667"}},{"country":"tm","city":"Barsli","coordinates":{"lat":"39.1166667","long":"55.2166667"}},{"country":"tm","city":"Basaga","coordinates":{"lat":"37.54","long":"65.6994444"}},{"country":"tm","city":"Bashbeden","coordinates":{"lat":"35.72","long":"63.1738889"}},{"country":"tm","city":"Bashir","coordinates":{"lat":"38.25","long":"64.75"}},{"country":"tm","city":"Bashvak","coordinates":{"lat":"38.3833333","long":"64.4333333"}},{"country":"tm","city":"Bassaga","coordinates":{"lat":"37.54","long":"65.6994444"}},{"country":"tm","city":"Bassar-Kish","coordinates":{"lat":"37.9","long":"66.45"}},{"country":"tm","city":"Batash","coordinates":{"lat":"37.85","long":"65.3"}},{"country":"tm","city":"Batyrkent","coordinates":{"lat":"41.5833333","long":"60.0333333"}},{"country":"tm","city":"Batyrkent Pervyy","coordinates":{"lat":"41.5","long":"61.0"}},{"country":"tm","city":"Bayat","coordinates":{"lat":"38.4666667","long":"64.35"}},{"country":"tm","city":"(( Bayat-Khadzhi ))","coordinates":{"lat":"37.6333333","long":"54.7833333"}},{"country":"tm","city":"Bayat-Khadzhi","coordinates":{"lat":"37.6613889","long":"54.7605556"}},{"country":"tm","city":"Bay","coordinates":{"lat":"38.4333333","long":"64.3666667"}},{"country":"tm","city":"Baygushli","coordinates":{"lat":"37.9833333","long":"62.3666667"}},{"country":"tm","city":"Bay-Kabyl'","coordinates":{"lat":"37.4333333","long":"62.0"}},{"country":"tm","city":"Bay-Kishlak","coordinates":{"lat":"38.4222222","long":"64.2277778"}},{"country":"tm","city":"Baylym","coordinates":{"lat":"35.9486111","long":"62.8455556"}},{"country":"tm","city":"Bayrach","coordinates":{"lat":"35.9838889","long":"62.8594444"}},{"country":"tm","city":"Bayram-Ali","coordinates":{"lat":"37.6166667","long":"62.1666667"}},{"country":"tm","city":"Bayramaly","coordinates":{"lat":"37.6166667","long":"62.1666667"}},{"country":"tm","city":"Bayramtogana","coordinates":{"lat":"42.3333333","long":"58.9166667"}},{"country":"tm","city":"Bayramtogan","coordinates":{"lat":"42.3333333","long":"58.9166667"}},{"country":"tm","city":"Bayrobab","coordinates":{"lat":"39.0591667","long":"63.6366667"}},{"country":"tm","city":"Bazar","coordinates":{"lat":"37.5930556","long":"53.8930556"}},{"country":"tm","city":"Bazar","coordinates":{"lat":"38.1","long":"64.8166667"}},{"country":"tm","city":"Bazar Charshambe","coordinates":{"lat":"38.4666667","long":"64.2166667"}},{"country":"tm","city":"Bazardepe","coordinates":{"lat":"37.7986111","long":"66.3938889"}},{"country":"tm","city":"Bazar Dzhuma","coordinates":{"lat":"38.25","long":"64.7333333"}},{"country":"tm","city":"Bazar-Sakar","coordinates":{"lat":"38.9238889","long":"63.7466667"}},{"country":"tm","city":"Bazar-Sakhe","coordinates":{"lat":"39.0166667","long":"63.6166667"}},{"country":"tm","city":"Bazar-Tepe","coordinates":{"lat":"37.7986111","long":"66.3938889"}},{"country":"tm","city":"Bazar-Tyube","coordinates":{"lat":"37.7986111","long":"66.3938889"}},{"country":"tm","city":"Beden","coordinates":{"lat":"35.72","long":"63.1738889"}},{"country":"tm","city":"Bederkent","coordinates":{"lat":"41.5833333","long":"60.0333333"}},{"country":"tm","city":"Begi-Sakar","coordinates":{"lat":"36.5333333","long":"61.35"}},{"country":"tm","city":"Bekauli","coordinates":{"lat":"38.5238889","long":"64.2536111"}},{"country":"tm","city":"Bekauli-Teki","coordinates":{"lat":"38.4813889","long":"64.1088889"}},{"country":"tm","city":"Bek-Dafh","coordinates":{"lat":"41.5666667","long":"52.5333333"}},{"country":"tm","city":"Bekdash","coordinates":{"lat":"41.5666667","long":"52.5333333"}},{"country":"tm","city":"Bekibent","coordinates":{"lat":"38.6197222","long":"55.1925"}},{"country":"tm","city":"Bekuri","coordinates":{"lat":"39.9666667","long":"58.8"}},{"country":"tm","city":"Belek","coordinates":{"lat":"39.9291667","long":"53.8425"}},{"country":"tm","city":"Belek-Turkmenskiy","coordinates":{"lat":"39.9291667","long":"53.8425"}},{"country":"tm","city":"Bendesen","coordinates":{"lat":"38.65","long":"56.6"}},{"country":"tm","city":"Bendi-Nadir","coordinates":{"lat":"35.9166667","long":"63.0166667"}},{"country":"tm","city":"Berdelyk","coordinates":{"lat":"37.3480556","long":"66.2980556"}},{"country":"tm","city":"Bere","coordinates":{"lat":"39.7833333","long":"58.1"}},{"country":"tm","city":"Bereket","coordinates":{"lat":"37.7333333","long":"61.6166667"}},{"country":"tm","city":"Berenchi-Kara-Yab","coordinates":{"lat":"37.6833333","long":"61.7"}},{"country":"tm","city":"Beriket","coordinates":{"lat":"37.7333333","long":"61.6166667"}},{"country":"tm","city":"Berut","coordinates":{"lat":"38.6","long":"64.0333333"}},{"country":"tm","city":"Berzengi","coordinates":{"lat":"37.8847222","long":"58.3777778"}},{"country":"tm","city":"Besh-Aryk","coordinates":{"lat":"41.7333333","long":"60.0166667"}},{"country":"tm","city":"Besheuray","coordinates":{"lat":"37.7","long":"62.3166667"}},{"country":"tm","city":"Besheur","coordinates":{"lat":"37.6","long":"62.3"}},{"country":"tm","city":"Besheurchi","coordinates":{"lat":"37.7","long":"62.3166667"}},{"country":"tm","city":"Beuradzhi","coordinates":{"lat":"39.6166667","long":"55.1333333"}},{"country":"tm","city":"Beurma","coordinates":{"lat":"38.65","long":"56.9"}},{"country":"tm","city":"Beurme","coordinates":{"lat":"38.65","long":"56.9"}},{"country":"tm","city":"Bezmein","coordinates":{"lat":"38.0516667","long":"58.21"}},{"country":"tm","city":"Bik-Dafh","coordinates":{"lat":"41.5666667","long":"52.5333333"}},{"country":"tm","city":"Bik-Dash","coordinates":{"lat":"41.5666667","long":"52.5333333"}},{"country":"tm","city":"Bikebend","coordinates":{"lat":"38.6197222","long":"55.1925"}},{"country":"tm","city":"Bikrava","coordinates":{"lat":"37.9280556","long":"58.29"}},{"country":"tm","city":"Bikrova","coordinates":{"lat":"37.9280556","long":"58.29"}},{"country":"tm","city":"Bikuri","coordinates":{"lat":"38.05","long":"61.55"}},{"country":"tm","city":"Birdik","coordinates":{"lat":"41.4166667","long":"73.9"}},{"country":"tm","city":"Birinchiboy","coordinates":{"lat":"41.75","long":"59.7"}},{"country":"tm","city":"Birinchi-Chandyr","coordinates":{"lat":"40.4333333","long":"62.1666667"}},{"country":"tm","city":"Birleshik","coordinates":{"lat":"37.6366667","long":"65.5233333"}},{"country":"tm","city":"Birleshik Pervyy","coordinates":{"lat":"38.2333333","long":"58.0"}},{"country":"tm","city":"Birlyashik","coordinates":{"lat":"38.2333333","long":"58.0"}},{"country":"tm","city":"Birlyashik Pervyy","coordinates":{"lat":"38.2333333","long":"58.0"}},{"country":"tm","city":"Bitik","coordinates":{"lat":"39.2","long":"63.6"}},{"country":"tm","city":"Bittik","coordinates":{"lat":"39.2","long":"63.6"}},{"country":"tm","city":"Bki","coordinates":{"lat":"38.9333333","long":"55.7"}},{"country":"tm","city":"Bogizogon","coordinates":{"lat":"38.4833333","long":"69.8"}},{"country":"tm","city":"Bokhurdok","coordinates":{"lat":"38.7666667","long":"58.5"}},{"country":"tm","city":"Bokurdak","coordinates":{"lat":"38.7666667","long":"58.5"}},{"country":"tm","city":"Boldumsaz","coordinates":{"lat":"42.1333333","long":"59.6666667"}},{"country":"tm","city":"Bol'shevik","coordinates":{"lat":"36.9","long":"61.0"}},{"country":"tm","city":"Bol'shevik","coordinates":{"lat":"41.9333333","long":"59.7166667"}},{"country":"tm","city":"Bol'shevik","coordinates":{"lat":"38.1333333","long":"64.9166667"}},{"country":"tm","city":"Bol'shevik","coordinates":{"lat":"37.4666667","long":"62.3333333"}},{"country":"tm","city":"Boroshly","coordinates":{"lat":"38.25","long":"64.7"}},{"country":"tm","city":"Bosaga","coordinates":{"lat":"37.54","long":"65.6994444"}},{"country":"tm","city":"Bosage","coordinates":{"lat":"37.54","long":"65.6994444"}},{"country":"tm","city":"Bossaga","coordinates":{"lat":"37.54","long":"65.6994444"}},{"country":"tm","city":"Bovart","coordinates":{"lat":"37.3666667","long":"59.5333333"}},{"country":"tm","city":"Boydag","coordinates":{"lat":"39.1166667","long":"54.5833333"}},{"country":"tm","city":"Boy Pervyy","coordinates":{"lat":"41.75","long":"59.9333333"}},{"country":"tm","city":"Boyrabab","coordinates":{"lat":"39.0591667","long":"63.6366667"}},{"country":"tm","city":"Boyrabad","coordinates":{"lat":"39.0591667","long":"63.6366667"}},{"country":"tm","city":"Boyun-Uzun","coordinates":{"lat":"39.2166667","long":"63.3166667"}},{"country":"tm","city":"Bozogoli","coordinates":{"lat":"38.6333333","long":"57.25"}},{"country":"tm","city":"Bsurma","coordinates":{"lat":"38.65","long":"56.9"}},{"country":"tm","city":"Budzhak","coordinates":{"lat":"38.8333333","long":"63.8666667"}},{"country":"tm","city":"Bugdayli","coordinates":{"lat":"38.4913889","long":"54.3777778"}},{"country":"tm","city":"Bugdayly","coordinates":{"lat":"38.4913889","long":"54.3777778"}},{"country":"tm","city":"Burdalik","coordinates":{"lat":"38.4522222","long":"64.375"}},{"country":"tm","city":"Burdalyk","coordinates":{"lat":"38.4522222","long":"64.375"}},{"country":"tm","city":"Burguchi","coordinates":{"lat":"37.7333333","long":"65.4"}},{"country":"tm","city":"Burk","coordinates":{"lat":"38.5166667","long":"57.2166667"}},{"country":"tm","city":"Burkut","coordinates":{"lat":"42.1666667","long":"59.5"}},{"country":"tm","city":"Buyrabab","coordinates":{"lat":"39.0591667","long":"63.6366667"}},{"country":"tm","city":"Buyun-Uzun","coordinates":{"lat":"39.2166667","long":"63.3166667"}},{"country":"tm","city":"Büzmeýin","coordinates":{"lat":"38.0516667","long":"58.21"}},{"country":"tm","city":"Byr-Koz","coordinates":{"lat":"37.5166667","long":"61.8666667"}},{"country":"tm","city":"Byurgyutli","coordinates":{"lat":"38.1666667","long":"55.5166667"}},{"country":"tm","city":"Çäçe","coordinates":{"lat":"36.7733333","long":"60.5533333"}},{"country":"tm","city":"Carsanny","coordinates":{"lat":"37.5083333","long":"66.005"}},{"country":"tm","city":"Çeleken","coordinates":{"lat":"39.4447222","long":"53.115"}},{"country":"tm","city":"Çemenibit","coordinates":{"lat":"35.4488889","long":"62.3958333"}},{"country":"tm","city":"Chaacha","coordinates":{"lat":"36.7733333","long":"60.5533333"}},{"country":"tm","city":"Chagaguzar","coordinates":{"lat":"37.6436111","long":"65.4847222"}},{"country":"tm","city":"Chagala","coordinates":{"lat":"42.1833333","long":"53.6666667"}},{"country":"tm","city":"Chagali","coordinates":{"lat":"42.1833333","long":"53.6666667"}},{"country":"tm","city":"Chagaln","coordinates":{"lat":"42.1833333","long":"53.6666667"}},{"country":"tm","city":"Chagaly","coordinates":{"lat":"42.1833333","long":"53.6666667"}},{"country":"tm","city":"Chagpata","coordinates":{"lat":"37.9802778","long":"65.0061111"}},{"country":"tm","city":"Chagyla","coordinates":{"lat":"42.1833333","long":"53.6666667"}},{"country":"tm","city":"Chagyl","coordinates":{"lat":"40.7833333","long":"55.3833333"}},{"country":"tm","city":"Chagyl","coordinates":{"lat":"38.0166667","long":"62.7666667"}},{"country":"tm","city":"Chakal","coordinates":{"lat":"39.35","long":"62.9333333"}},{"country":"tm","city":"Chakhpata","coordinates":{"lat":"37.9802778","long":"65.0061111"}},{"country":"tm","city":"Chakich","coordinates":{"lat":"38.6166667","long":"63.9833333"}},{"country":"tm","city":"Chakir","coordinates":{"lat":"37.8333333","long":"65.1833333"}},{"country":"tm","city":"Chakmaklychanga","coordinates":{"lat":"35.6044444","long":"61.4536111"}},{"country":"tm","city":"Chakych","coordinates":{"lat":"38.4166667","long":"64.4"}},{"country":"tm","city":"Chakyeh","coordinates":{"lat":"38.4166667","long":"64.4"}},{"country":"tm","city":"Chakyr","coordinates":{"lat":"37.8333333","long":"65.1833333"}},{"country":"tm","city":"Chalapkuyu","coordinates":{"lat":"38.0166667","long":"62.8666667"}},{"country":"tm","city":"Chalayuk","coordinates":{"lat":"37.4105556","long":"54.3252778"}},{"country":"tm","city":"Chaloyuk","coordinates":{"lat":"37.4105556","long":"54.3252778"}},{"country":"tm","city":"Chalsu","coordinates":{"lat":"38.8333333","long":"56.2166667"}},{"country":"tm","city":"Chaltut","coordinates":{"lat":"38.9769444","long":"63.6908333"}},{"country":"tm","city":"Chalysh","coordinates":{"lat":"38.4","long":"64.4333333"}},{"country":"tm","city":"Chamakchi","coordinates":{"lat":"37.7236111","long":"65.4747222"}},{"country":"tm","city":"Chamchakly","coordinates":{"lat":"37.9333333","long":"63.1"}},{"country":"tm","city":"Chanal","coordinates":{"lat":"39.35","long":"62.9333333"}},{"country":"tm","city":"Chandyr","coordinates":{"lat":"39.3","long":"63.15"}},{"country":"tm","city":"Chardzha","coordinates":{"lat":"39.1013889","long":"63.575"}},{"country":"tm","city":"Chardzhou","coordinates":{"lat":"39.1013889","long":"63.575"}},{"country":"tm","city":"Chardzhui","coordinates":{"lat":"39.1013889","long":"63.575"}},{"country":"tm","city":"Chardzhuy","coordinates":{"lat":"39.1013889","long":"63.575"}},{"country":"tm","city":"Chärjew","coordinates":{"lat":"39.1013889","long":"63.575"}},{"country":"tm","city":"Charjou","coordinates":{"lat":"39.1013889","long":"63.575"}},{"country":"tm","city":"Charjui","coordinates":{"lat":"39.0341667","long":"63.5958333"}},{"country":"tm","city":"Charpali","coordinates":{"lat":"38.9769444","long":"63.6908333"}},{"country":"tm","city":"Charshanga","coordinates":{"lat":"37.5083333","long":"66.005"}},{"country":"tm","city":"Charshangngy","coordinates":{"lat":"37.5083333","long":"66.005"}},{"country":"tm","city":"Charshangu","coordinates":{"lat":"37.5083333","long":"66.005"}},{"country":"tm","city":"Charshangy","coordinates":{"lat":"37.5083333","long":"66.005"}},{"country":"tm","city":"Chartma","coordinates":{"lat":"38.1333333","long":"64.7833333"}},{"country":"tm","city":"Charvadar","coordinates":{"lat":"38.9452778","long":"63.6766667"}},{"country":"tm","city":"Charvak","coordinates":{"lat":"38.9833333","long":"63.65"}},{"country":"tm","city":"Charvan-Kala","coordinates":{"lat":"42.25","long":"58.6333333"}},{"country":"tm","city":"Charyy","coordinates":{"lat":"37.6166667","long":"62.3"}},{"country":"tm","city":"Chash","coordinates":{"lat":"37.5333333","long":"62.0166667"}},{"country":"tm","city":"Chash-Kala","coordinates":{"lat":"41.1833333","long":"61.7"}},{"country":"tm","city":"Chashkan","coordinates":{"lat":"37.95","long":"61.3333333"}},{"country":"tm","city":"Chashkent","coordinates":{"lat":"37.8","long":"61.5333333"}},{"country":"tm","city":"Chash-Tepe","coordinates":{"lat":"37.5333333","long":"62.0166667"}},{"country":"tm","city":"Chat","coordinates":{"lat":"38.0016667","long":"55.2669444"}},{"country":"tm","city":"Chate-Atrek","coordinates":{"lat":"38.0016667","long":"55.2669444"}},{"country":"tm","city":"Chat-i-Atrek","coordinates":{"lat":"38.0016667","long":"55.2669444"}},{"country":"tm","city":"Chatli","coordinates":{"lat":"39.35","long":"55.2833333"}},{"country":"tm","city":"Chatly","coordinates":{"lat":"39.35","long":"55.2833333"}},{"country":"tm","city":"Chatrak","coordinates":{"lat":"38.1333333","long":"64.7833333"}},{"country":"tm","city":"Chatryak","coordinates":{"lat":"38.2166667","long":"64.7333333"}},{"country":"tm","city":"Chatryat","coordinates":{"lat":"38.2166667","long":"64.7333333"}},{"country":"tm","city":"Chaudur","coordinates":{"lat":"38.7461111","long":"63.9141667"}},{"country":"tm","city":"Chavdur","coordinates":{"lat":"38.7461111","long":"63.9141667"}},{"country":"tm","city":"Chayek","coordinates":{"lat":"37.8927778","long":"57.9622222"}},{"country":"tm","city":"Chechme","coordinates":{"lat":"35.9666667","long":"62.8"}},{"country":"tm","city":"Chegez","coordinates":{"lat":"39.2","long":"63.2666667"}},{"country":"tm","city":"Cheken","coordinates":{"lat":"37.8833333","long":"60.0833333"}},{"country":"tm","city":"Chekich","coordinates":{"lat":"38.7","long":"63.9333333"}},{"country":"tm","city":"Chekichler","coordinates":{"lat":"37.5666667","long":"53.9166667"}},{"country":"tm","city":"Chekir","coordinates":{"lat":"37.8333333","long":"65.1833333"}},{"country":"tm","city":"Chekishler","coordinates":{"lat":"37.5666667","long":"53.9166667"}},{"country":"tm","city":"Chekmen","coordinates":{"lat":"37.65","long":"65.25"}},{"country":"tm","city":"Chekun-Yurt","coordinates":{"lat":"38.2166667","long":"56.8833333"}},{"country":"tm","city":"Chekur-Yurt","coordinates":{"lat":"38.2166667","long":"56.8833333"}},{"country":"tm","city":"Chekyr","coordinates":{"lat":"37.8333333","long":"65.1833333"}},{"country":"tm","city":"Cheleken","coordinates":{"lat":"39.4447222","long":"53.115"}},{"country":"tm","city":"Cheltek","coordinates":{"lat":"38.2","long":"58.2666667"}},{"country":"tm","city":"Chemche","coordinates":{"lat":"35.9666667","long":"62.8"}},{"country":"tm","city":"Chemeli","coordinates":{"lat":"38.8333333","long":"56.4333333"}},{"country":"tm","city":"Chemen-i-Bid","coordinates":{"lat":"35.4488889","long":"62.3958333"}},{"country":"tm","city":"Chemenibit","coordinates":{"lat":"35.4488889","long":"62.3958333"}},{"country":"tm","city":"Chenen","coordinates":{"lat":"37.8833333","long":"60.0833333"}},{"country":"tm","city":"Chenich","coordinates":{"lat":"38.7","long":"63.9333333"}},{"country":"tm","city":"Chenick","coordinates":{"lat":"38.7","long":"63.9333333"}},{"country":"tm","city":"Chepek","coordinates":{"lat":"37.7","long":"62.0833333"}},{"country":"tm","city":"Cherenga","coordinates":{"lat":"38.9166667","long":"63.7"}},{"country":"tm","city":"Cherkez","coordinates":{"lat":"37.9333333","long":"61.4166667"}},{"country":"tm","city":"Cherkezli","coordinates":{"lat":"39.35","long":"56.25"}},{"country":"tm","city":"Cherkezly","coordinates":{"lat":"39.35","long":"56.25"}},{"country":"tm","city":"Cheshme","coordinates":{"lat":"38.5","long":"56.7833333"}},{"country":"tm","city":"Cheshme","coordinates":{"lat":"38.6833333","long":"61.1833333"}},{"country":"tm","city":"Cheshme Vtoroy","coordinates":{"lat":"38.6833333","long":"61.1833333"}},{"country":"tm","city":"Chetyrnadtsat' Let Oktyabrya","coordinates":{"lat":"37.4666667","long":"60.4333333"}},{"country":"tm","city":"Chikishlyar","coordinates":{"lat":"37.5666667","long":"53.9166667"}},{"country":"tm","city":"Chil'gez","coordinates":{"lat":"37.2666667","long":"59.5333333"}},{"country":"tm","city":"(( Choganly ))","coordinates":{"lat":"38.0105556","long":"58.4111111"}},{"country":"tm","city":"Chokh-Petta","coordinates":{"lat":"37.9802778","long":"65.0061111"}},{"country":"tm","city":"Chokmak","coordinates":{"lat":"38.5630556","long":"64.0091667"}},{"country":"tm","city":"Choudur","coordinates":{"lat":"38.7461111","long":"63.9141667"}},{"country":"tm","city":"Chovdur","coordinates":{"lat":"38.7461111","long":"63.9141667"}},{"country":"tm","city":"Chukhur-Kala","coordinates":{"lat":"38.7","long":"56.45"}},{"country":"tm","city":"Chukur-Kala","coordinates":{"lat":"37.5","long":"59.3833333"}},{"country":"tm","city":"Chukurkala","coordinates":{"lat":"38.7","long":"56.45"}},{"country":"tm","city":"Chuli","coordinates":{"lat":"37.9805556","long":"58.0244444"}},{"country":"tm","city":"Chungurli","coordinates":{"lat":"38.3166667","long":"61.25"}},{"country":"tm","city":"Chupli","coordinates":{"lat":"39.0666667","long":"63.5333333"}},{"country":"tm","city":"Churga","coordinates":{"lat":"38.6333333","long":"64.1166667"}},{"country":"tm","city":"Churpali","coordinates":{"lat":"38.9769444","long":"63.6908333"}},{"country":"tm","city":"Churuk","coordinates":{"lat":"37.6166667","long":"61.7833333"}},{"country":"tm","city":"Dada-Ogly","coordinates":{"lat":"36.0333333","long":"62.7666667"}},{"country":"tm","city":"Dadedogli","coordinates":{"lat":"35.9333333","long":"62.85"}},{"country":"tm","city":"Dagadzhik","coordinates":{"lat":"39.4833333","long":"53.2833333"}},{"country":"tm","city":"Dagarkishlak","coordinates":{"lat":"37.6166667","long":"66.2833333"}},{"country":"tm","city":"Dag-Sakhkary","coordinates":{"lat":"38.9166667","long":"63.7666667"}},{"country":"tm","city":"Dambe","coordinates":{"lat":"38.5822222","long":"64.0355556"}},{"country":"tm","city":"Damzak","coordinates":{"lat":"40.45","long":"52.7166667"}},{"country":"tm","city":"Danata","coordinates":{"lat":"39.1","long":"55.1666667"}},{"country":"tm","city":"Dänew","coordinates":{"lat":"39.2625","long":"63.1841667"}},{"country":"tm","city":"Danishen","coordinates":{"lat":"41.0666667","long":"61.8833333"}},{"country":"tm","city":"Danisher","coordinates":{"lat":"41.0666667","long":"61.8833333"}},{"country":"tm","city":"Danisherkala","coordinates":{"lat":"41.0666667","long":"61.8833333"}},{"country":"tm","city":"Daniyeh","coordinates":{"lat":"38.2","long":"57.0333333"}},{"country":"tm","city":"Dardali","coordinates":{"lat":"38.15","long":"56.0333333"}},{"country":"tm","city":"Dargana","coordinates":{"lat":"37.4333333","long":"59.4833333"}},{"country":"tm","city":"Dargana-Kala","coordinates":{"lat":"37.4333333","long":"59.4833333"}},{"country":"tm","city":"Darganata","coordinates":{"lat":"40.4833333","long":"62.1666667"}},{"country":"tm","city":"Dargan-Ata","coordinates":{"lat":"40.85","long":"61.9666667"}},{"country":"tm","city":"Darganatinskiy","coordinates":{"lat":"40.4833333","long":"62.1666667"}},{"country":"tm","city":"Darvaza","coordinates":{"lat":"40.1833333","long":"58.4"}},{"country":"tm","city":"Dashhowuz","coordinates":{"lat":"41.8333333","long":"59.9666667"}},{"country":"tm","city":"Dashkhovuz","coordinates":{"lat":"41.8333333","long":"59.9666667"}},{"country":"tm","city":"Dashkuduk","coordinates":{"lat":"40.6166667","long":"52.8833333"}},{"country":"tm","city":"Dashlyk","coordinates":{"lat":"37.75","long":"65.25"}},{"country":"tm","city":"Dashrabat","coordinates":{"lat":"37.6725","long":"65.5988889"}},{"country":"tm","city":"Daskopri","coordinates":{"lat":"36.2769444","long":"62.6483333"}},{"country":"tm","city":"Dasoguz","coordinates":{"lat":"41.8333333","long":"59.9666667"}},{"country":"tm","city":"Dauda","coordinates":{"lat":"41.7","long":"59.9666667"}},{"country":"tm","city":"Daulet","coordinates":{"lat":"39.05","long":"56.6333333"}},{"country":"tm","city":"Dautly","coordinates":{"lat":"38.4333333","long":"64.4166667"}},{"country":"tm","city":"Davdan","coordinates":{"lat":"41.7","long":"59.9666667"}},{"country":"tm","city":"Davlet","coordinates":{"lat":"37.4833333","long":"62.3"}},{"country":"tm","city":"Dayakhatyn","coordinates":{"lat":"40.0833333","long":"62.3666667"}},{"country":"tm","city":"Dayne","coordinates":{"lat":"38.2","long":"57.0333333"}},{"country":"tm","city":"Daz","coordinates":{"lat":"36.55","long":"61.3333333"}},{"country":"tm","city":"Dedogly","coordinates":{"lat":"36.0333333","long":"62.7666667"}},{"country":"tm","city":"Deinach","coordinates":{"lat":"39.2625","long":"63.1841667"}},{"country":"tm","city":"Deinau","coordinates":{"lat":"39.2625","long":"63.1841667"}},{"country":"tm","city":"Dekel'-Dash","coordinates":{"lat":"38.2666667","long":"56.7666667"}},{"country":"tm","city":"Denglikopry","coordinates":{"lat":"42.3833333","long":"59.0833333"}},{"country":"tm","city":"Derbend-Deycha","coordinates":{"lat":"37.1666667","long":"59.7333333"}},{"country":"tm","city":"Deregli","coordinates":{"lat":"41.6833333","long":"59.8166667"}},{"country":"tm","city":"Derekli","coordinates":{"lat":"41.6833333","long":"59.8166667"}},{"country":"tm","city":"Dervezekem","coordinates":{"lat":"36.3","long":"64.3"}},{"country":"tm","city":"Desht","coordinates":{"lat":"38.5166667","long":"56.8166667"}},{"country":"tm","city":"Deycha","coordinates":{"lat":"37.1666667","long":"59.7333333"}},{"country":"tm","city":"Deynau","coordinates":{"lat":"39.2625","long":"63.1841667"}},{"country":"tm","city":"Didedogly","coordinates":{"lat":"35.9333333","long":"62.85"}},{"country":"tm","city":"Dmitriyevskiy","coordinates":{"lat":"38.0319444","long":"57.6666667"}},{"country":"tm","city":"Donguz-Tugay","coordinates":{"lat":"40.0333333","long":"62.4166667"}},{"country":"tm","city":"Dostluk","coordinates":{"lat":"37.7452778","long":"65.3336111"}},{"country":"tm","city":"Dou-Kala","coordinates":{"lat":"38.2833333","long":"57.6166667"}},{"country":"tm","city":"Doyran","coordinates":{"lat":"38.4833333","long":"56.1166667"}},{"country":"tm","city":"Dukdrushtum","coordinates":{"lat":"38.9166667","long":"63.9166667"}},{"country":"tm","city":"Dunguz Tugai","coordinates":{"lat":"40.0333333","long":"62.4166667"}},{"country":"tm","city":"Durdy","coordinates":{"lat":"37.6166667","long":"61.7833333"}},{"country":"tm","city":"Durdykhan","coordinates":{"lat":"38.3666667","long":"56.7333333"}},{"country":"tm","city":"Durun","coordinates":{"lat":"38.3666667","long":"57.4333333"}},{"country":"tm","city":"Dusak","coordinates":{"lat":"37.1944444","long":"60.0127778"}},{"country":"tm","city":"Duschak","coordinates":{"lat":"37.1944444","long":"60.0127778"}},{"country":"tm","city":"Dushak","coordinates":{"lat":"37.1944444","long":"60.0127778"}},{"country":"tm","city":"Dushame-Chakyr","coordinates":{"lat":"38.1333333","long":"64.6666667"}},{"country":"tm","city":"Duunchi","coordinates":{"lat":"39.7333333","long":"55.1333333"}},{"country":"tm","city":"Duyadrushtum","coordinates":{"lat":"38.9166667","long":"63.9166667"}},{"country":"tm","city":"Duzli-Olum","coordinates":{"lat":"38.2333333","long":"55.6833333"}},{"country":"tm","city":"Duzlu-Olum","coordinates":{"lat":"38.2333333","long":"55.6833333"}},{"country":"tm","city":"Duzlydepe","coordinates":{"lat":"38.3","long":"56.7333333"}},{"country":"tm","city":"Duzlyolum","coordinates":{"lat":"38.2333333","long":"55.6833333"}},{"country":"tm","city":"Duzul-Tepe","coordinates":{"lat":"38.3","long":"56.7333333"}},{"country":"tm","city":"Dvadtsatiletiye Turkmenskoy Sovetskoy Sotsialisticheskoy Respubliki","coordinates":{"lat":"37.6333333","long":"61.7833333"}},{"country":"tm","city":"Dvadtsat' Let Oktyabrya","coordinates":{"lat":"36.0672222","long":"62.7158333"}},{"country":"tm","city":"Dyuyeboyun","coordinates":{"lat":"41.2","long":"61.4333333"}},{"country":"tm","city":"Dzhafara","coordinates":{"lat":"40.35","long":"52.7"}},{"country":"tm","city":"Dzhafar","coordinates":{"lat":"40.35","long":"52.7"}},{"country":"tm","city":"Dzhanakhir","coordinates":{"lat":"38.95","long":"56.1666667"}},{"country":"tm","city":"Dzhanga","coordinates":{"lat":"40.0333333","long":"53.1333333"}},{"country":"tm","city":"Dzhang-Aryk","coordinates":{"lat":"37.7666667","long":"66.3333333"}},{"country":"tm","city":"Dzhapar","coordinates":{"lat":"37.6666667","long":"60.4666667"}},{"country":"tm","city":"Dzharguzar","coordinates":{"lat":"37.3616667","long":"66.4172222"}},{"country":"tm","city":"Dzhebel","coordinates":{"lat":"39.6325","long":"54.2313889"}},{"country":"tm","city":"Dzhedzhirs","coordinates":{"lat":"38.7","long":"56.5166667"}},{"country":"tm","city":"Dzhengel'","coordinates":{"lat":"38.9833333","long":"63.75"}},{"country":"tm","city":"Dzhety-Kuduk","coordinates":{"lat":"37.9166667","long":"65.7"}},{"country":"tm","city":"Dzheykhun","coordinates":{"lat":"39.1475","long":"63.5772222"}},{"country":"tm","city":"Dzhezkazgan","coordinates":{"lat":"47.7833333","long":"67.7666667"}},{"country":"tm","city":"Dzhi-Dzhirt","coordinates":{"lat":"38.7","long":"56.5166667"}},{"country":"tm","city":"Dzhigerbent","coordinates":{"lat":"40.7666667","long":"62.0"}},{"country":"tm","city":"Dzhigir-Bend","coordinates":{"lat":"40.7666667","long":"62.0"}},{"country":"tm","city":"Dzhigirbent","coordinates":{"lat":"40.7666667","long":"62.0"}},{"country":"tm","city":"Dzhikyrbent","coordinates":{"lat":"40.7666667","long":"62.0"}},{"country":"tm","city":"Dzhingilkhatab","coordinates":{"lat":"37.6611111","long":"65.4575"}},{"country":"tm","city":"Dzhity-Kuduk","coordinates":{"lat":"37.9166667","long":"65.7"}},{"country":"tm","city":"Dzhoyruk","coordinates":{"lat":"39.65","long":"55.2666667"}},{"country":"tm","city":"Dzhoyryk","coordinates":{"lat":"39.65","long":"55.2666667"}},{"country":"tm","city":"Dzhuma-Bazar","coordinates":{"lat":"38.2333333","long":"64.4666667"}},{"country":"tm","city":"Dzhuma","coordinates":{"lat":"38.25","long":"64.7333333"}},{"country":"tm","city":"Dzhuppy","coordinates":{"lat":"37.8666667","long":"62.3166667"}},{"country":"tm","city":"Dzhuvaldy","coordinates":{"lat":"38.6","long":"56.5833333"}},{"country":"tm","city":"Edrug","coordinates":{"lat":"38.0333333","long":"65.1166667"}},{"country":"tm","city":"Egri","coordinates":{"lat":"38.0166667","long":"65.1333333"}},{"country":"tm","city":"Egri Guzar","coordinates":{"lat":"37.6666667","long":"61.8166667"}},{"country":"tm","city":"Egri-Guzar","coordinates":{"lat":"37.7","long":"61.7833333"}},{"country":"tm","city":"Egriyagyr","coordinates":{"lat":"38.0166667","long":"65.1333333"}},{"country":"tm","city":"Ekerem","coordinates":{"lat":"38.0616667","long":"53.8375"}},{"country":"tm","city":"El'dzhik","coordinates":{"lat":"39.415","long":"62.9866667"}},{"country":"tm","city":"El'dzhin","coordinates":{"lat":"39.415","long":"62.9866667"}},{"country":"tm","city":"El'jik","coordinates":{"lat":"39.415","long":"62.9866667"}},{"country":"tm","city":"El'mek","coordinates":{"lat":"38.85","long":"63.9666667"}},{"country":"tm","city":"Ene-Kuliyevo","coordinates":{"lat":"39.3169444","long":"62.9963889"}},{"country":"tm","city":"Energetik","coordinates":{"lat":"37.5833333","long":"62.7166667"}},{"country":"tm","city":"Enev","coordinates":{"lat":"37.8883333","long":"58.5280556"}},{"country":"tm","city":"Epo","coordinates":{"lat":"36.6833333","long":"61.15"}},{"country":"tm","city":"Erdel'","coordinates":{"lat":"39.2333333","long":"63.35"}},{"country":"tm","city":"Erikkala","coordinates":{"lat":"38.0255556","long":"58.235"}},{"country":"tm","city":"Errik-Kala","coordinates":{"lat":"38.05","long":"58.25"}},{"country":"tm","city":"Esenguly","coordinates":{"lat":"37.4655556","long":"53.9725"}},{"country":"tm","city":"Esenmengli","coordinates":{"lat":"38.1277778","long":"64.7213889"}},{"country":"tm","city":"Eshek-Sien","coordinates":{"lat":"38.8333333","long":"58.65"}},{"country":"tm","city":"Eski","coordinates":{"lat":"38.8166667","long":"63.8666667"}},{"country":"tm","city":"Eski-Narazym","coordinates":{"lat":"38.8191667","long":"64.0047222"}},{"country":"tm","city":"Etbash","coordinates":{"lat":"38.2361111","long":"64.4675"}},{"country":"tm","city":"Etbashi","coordinates":{"lat":"38.2361111","long":"64.4675"}},{"country":"tm","city":"Farab","coordinates":{"lat":"39.1333333","long":"63.6666667"}},{"country":"tm","city":"Farab-Pristan'","coordinates":{"lat":"39.1475","long":"63.5772222"}},{"country":"tm","city":"Farap","coordinates":{"lat":"39.1713889","long":"63.6030556"}},{"country":"tm","city":"Firyuza","coordinates":{"lat":"37.9158333","long":"58.0911111"}},{"country":"tm","city":"Firyuzinskoye Ushchel'ye","coordinates":{"lat":"38.0069444","long":"58.1555556"}},{"country":"tm","city":"Gabakly","coordinates":{"lat":"39.7736111","long":"62.5380556"}},{"country":"tm","city":"Gaburdy","coordinates":{"lat":"38.2166667","long":"64.6833333"}},{"country":"tm","city":"Gadyn","coordinates":{"lat":"39.3238889","long":"63.3058333"}},{"country":"tm","city":"Gagrandag","coordinates":{"lat":"38.8819444","long":"54.3363889"}},{"country":"tm","city":"Galkynys","coordinates":{"lat":"39.2625","long":"63.1841667"}},{"country":"tm","city":"Gamyshlydzha","coordinates":{"lat":"38.3872222","long":"54.0194444"}},{"country":"tm","city":"Gamyshlyja","coordinates":{"lat":"38.3872222","long":"54.0194444"}},{"country":"tm","city":"Garabogazköl","coordinates":{"lat":"41.0333333","long":"52.9166667"}},{"country":"tm","city":"Garadegish","coordinates":{"lat":"37.4430556","long":"54.5013889"}},{"country":"tm","city":"Garadepe","coordinates":{"lat":"38.0322222","long":"54.0355556"}},{"country":"tm","city":"Garajabatyr","coordinates":{"lat":"37.6463889","long":"54.4227778"}},{"country":"tm","city":"Garamätnyýaz","coordinates":{"lat":"37.7408333","long":"64.5569444"}},{"country":"tm","city":"Garlyk","coordinates":{"lat":"37.5897222","long":"66.3377778"}},{"country":"tm","city":"Garrychyrla","coordinates":{"lat":"37.55","long":"60.05"}},{"country":"tm","city":"Garrygala","coordinates":{"lat":"38.4333333","long":"56.3"}},{"country":"tm","city":"Gasan-Kuli","coordinates":{"lat":"37.4655556","long":"53.9725"}},{"country":"tm","city":"Gassan-Kuli","coordinates":{"lat":"37.4655556","long":"53.9725"}},{"country":"tm","city":"Gaudan","coordinates":{"lat":"37.65","long":"58.4019444"}},{"country":"tm","city":"Gaurdak","coordinates":{"lat":"37.8069444","long":"66.0566667"}},{"country":"tm","city":"Gaurdakstroy","coordinates":{"lat":"37.8069444","long":"66.0566667"}},{"country":"tm","city":"Gaurdstroi","coordinates":{"lat":"37.8069444","long":"66.0566667"}},{"country":"tm","city":"Gaurdstroy","coordinates":{"lat":"37.8069444","long":"66.0566667"}},{"country":"tm","city":"Gayrayuz","coordinates":{"lat":"39.5377778","long":"53.1863889"}},{"country":"tm","city":"Gaz-Achak","coordinates":{"lat":"41.1833333","long":"61.4"}},{"country":"tm","city":"Gazanjyk","coordinates":{"lat":"39.2430556","long":"55.5169444"}},{"country":"tm","city":"Gazojak","coordinates":{"lat":"41.1833333","long":"61.4"}},{"country":"tm","city":"Geami","coordinates":{"lat":"37.9077778","long":"58.4697222"}},{"country":"tm","city":"Gekcha","coordinates":{"lat":"38.2166667","long":"58.0666667"}},{"country":"tm","city":"Gëksay","coordinates":{"lat":"42.1166667","long":"53.4833333"}},{"country":"tm","city":"Geokcha","coordinates":{"lat":"37.9786111","long":"58.25"}},{"country":"tm","city":"Geok-Tepe","coordinates":{"lat":"38.1602778","long":"57.9630556"}},{"country":"tm","city":"Geok-Tepe Nomer Pervyy","coordinates":{"lat":"38.25","long":"57.9666667"}},{"country":"tm","city":"Geok-Tepe Nomer Tretiy","coordinates":{"lat":"38.15","long":"57.8666667"}},{"country":"tm","city":"Geok-Tepe-Pervyy","coordinates":{"lat":"38.25","long":"57.9666667"}},{"country":"tm","city":"Geok-Tepe-Tretiy","coordinates":{"lat":"38.15","long":"57.8666667"}},{"country":"tm","city":"Gepchak","coordinates":{"lat":"38.0222222","long":"58.2666667"}},{"country":"tm","city":"Germab","coordinates":{"lat":"38.0166667","long":"57.7416667"}},{"country":"tm","city":"Germao","coordinates":{"lat":"38.0166667","long":"57.7416667"}},{"country":"tm","city":"Germob","coordinates":{"lat":"38.0166667","long":"57.7416667"}},{"country":"tm","city":"Gevers","coordinates":{"lat":"37.7961111","long":"58.7286111"}},{"country":"tm","city":"Geyn-Keriz","coordinates":{"lat":"37.3166667","long":"59.5833333"}},{"country":"tm","city":"Gil'-Abad","coordinates":{"lat":"36.4","long":"61.1833333"}},{"country":"tm","city":"Gindukush","coordinates":{"lat":"37.3166667","long":"62.35"}},{"country":"tm","city":"Gokcha","coordinates":{"lat":"37.1580556","long":"64.7672222"}},{"country":"tm","city":"Gokcha","coordinates":{"lat":"37.5666667","long":"61.9833333"}},{"country":"tm","city":"Gökdepe","coordinates":{"lat":"38.1602778","long":"57.9630556"}},{"country":"tm","city":"Gökje","coordinates":{"lat":"37.1580556","long":"64.7672222"}},{"country":"tm","city":"Goklenkuyu","coordinates":{"lat":"41.0166667","long":"56.3333333"}},{"country":"tm","city":"Golovnoye","coordinates":{"lat":"37.5680556","long":"65.6469444"}},{"country":"tm","city":"Golovnoye Staroye","coordinates":{"lat":"37.5872222","long":"65.6133333"}},{"country":"tm","city":"Gordikovskiy","coordinates":{"lat":"37.55","long":"62.1833333"}},{"country":"tm","city":"Gorel'de","coordinates":{"lat":"40.3","long":"62.3333333"}},{"country":"tm","city":"Gorel'de","coordinates":{"lat":"37.6333333","long":"61.95"}},{"country":"tm","city":"Goturdepe","coordinates":{"lat":"39.45","long":"53.7"}},{"country":"tm","city":"Goudan","coordinates":{"lat":"37.65","long":"58.4019444"}},{"country":"tm","city":"Gowdan","coordinates":{"lat":"37.65","long":"58.4019444"}},{"country":"tm","city":"Gowurdak","coordinates":{"lat":"37.8069444","long":"66.0566667"}},{"country":"tm","city":"Grodekovskiy","coordinates":{"lat":"37.55","long":"62.1833333"}},{"country":"tm","city":"Gubadag","coordinates":{"lat":"42.0666667","long":"59.9666667"}},{"country":"tm","city":"Gudriolum","coordinates":{"lat":"37.4727778","long":"54.6519444"}},{"country":"tm","city":"Güdürolum","coordinates":{"lat":"37.4727778","long":"54.6519444"}},{"country":"tm","city":"Gugerdzhengli","coordinates":{"lat":"40.3","long":"62.3666667"}},{"country":"tm","city":"Gugurdzhli","coordinates":{"lat":"40.3","long":"62.3666667"}},{"country":"tm","city":"Gulanly","coordinates":{"lat":"37.3194444","long":"61.0911111"}},{"country":"tm","city":"Gulastan","coordinates":{"lat":"41.7666667","long":"59.6666667"}},{"country":"tm","city":"Gul'stan","coordinates":{"lat":"41.7666667","long":"59.6666667"}},{"country":"tm","city":"Gumdag","coordinates":{"lat":"39.2061111","long":"54.5905556"}},{"country":"tm","city":"Gunesh","coordinates":{"lat":"38.1833333","long":"64.7333333"}},{"country":"tm","city":"Guri-Olum","coordinates":{"lat":"37.4727778","long":"54.6519444"}},{"country":"tm","city":"Gursunmagdan Karhanasy","coordinates":{"lat":"37.8841667","long":"66.4513889"}},{"country":"tm","city":"Gurum-Say","coordinates":{"lat":"37.8833333","long":"66.4333333"}},{"country":"tm","city":"Gurumsay","coordinates":{"lat":"37.8833333","long":"66.4666667"}},{"country":"tm","city":"Gusgy","coordinates":{"lat":"35.2758333","long":"62.3416667"}},{"country":"tm","city":"Gushgy","coordinates":{"lat":"35.2758333","long":"62.3416667"}},{"country":"tm","city":"Gyami","coordinates":{"lat":"37.9077778","long":"58.4697222"}},{"country":"tm","city":"Gyar","coordinates":{"lat":"39.3666667","long":"56.1833333"}},{"country":"tm","city":"Gyaur","coordinates":{"lat":"39.05","long":"55.9333333"}},{"country":"tm","city":"Gyaurs","coordinates":{"lat":"37.7961111","long":"58.7286111"}},{"country":"tm","city":"Gyurmush-Tepe","coordinates":{"lat":"37.9166667","long":"61.6"}},{"country":"tm","city":"Gyzylarbat","coordinates":{"lat":"38.9755556","long":"56.2777778"}},{"country":"tm","city":"Gyzyletrek","coordinates":{"lat":"37.6613889","long":"54.7605556"}},{"country":"tm","city":"Gyzylgaya","coordinates":{"lat":"40.6666667","long":"55.5"}},{"country":"tm","city":"Gyzyl-Suv","coordinates":{"lat":"39.7983333","long":"53.0097222"}},{"country":"tm","city":"Gyzylsuw","coordinates":{"lat":"39.7983333","long":"53.0097222"}},{"country":"tm","city":"Halaç","coordinates":{"lat":"38.0708333","long":"64.8844444"}},{"country":"tm","city":"Hanhowuz","coordinates":{"lat":"37.2322222","long":"61.2436111"}},{"country":"tm","city":"Hasan Kuli","coordinates":{"lat":"37.4644444","long":"53.9794444"}},{"country":"tm","city":"Hasan-Kuli","coordinates":{"lat":"37.4655556","long":"53.9725"}},{"country":"tm","city":"Hasan Quili","coordinates":{"lat":"37.4655556","long":"53.9725"}},{"country":"tm","city":"Hawdan","coordinates":{"lat":"37.65","long":"58.4019444"}},{"country":"tm","city":"Herrikgala","coordinates":{"lat":"38.0255556","long":"58.235"}},{"country":"tm","city":"Hojambaz","coordinates":{"lat":"38.1122222","long":"65.0016667"}},{"country":"tm","city":"Il'chik","coordinates":{"lat":"39.3833333","long":"62.9833333"}},{"country":"tm","city":"Il'dzhik","coordinates":{"lat":"39.415","long":"62.9866667"}},{"country":"tm","city":"Ilen","coordinates":{"lat":"38.75","long":"58.25"}},{"country":"tm","city":"Ilidzha","coordinates":{"lat":"38.1105556","long":"55.4347222"}},{"country":"tm","city":"Iljik","coordinates":{"lat":"39.415","long":"62.9866667"}},{"country":"tm","city":"Il'mak","coordinates":{"lat":"39.3666667","long":"63.0"}},{"country":"tm","city":"Ilyach","coordinates":{"lat":"38.0833333","long":"65.0333333"}},{"country":"tm","city":"Il'yaly","coordinates":{"lat":"41.8333333","long":"59.65"}},{"country":"tm","city":"Ilyanli","coordinates":{"lat":"41.8333333","long":"59.65"}},{"country":"tm","city":"Ilyari","coordinates":{"lat":"37.0666667","long":"62.45"}},{"country":"tm","city":"Imambaba","coordinates":{"lat":"36.75","long":"62.4666667"}},{"country":"tm","city":"Imamnazar","coordinates":{"lat":"37.2416667","long":"65.2644444"}},{"country":"tm","city":"Iman Baba","coordinates":{"lat":"36.75","long":"62.4666667"}},{"country":"tm","city":"Imeni Andreyeva A. A.","coordinates":{"lat":"41.85","long":"60.1333333"}},{"country":"tm","city":"Imeni Andreyeva","coordinates":{"lat":"41.85","long":"60.1333333"}},{"country":"tm","city":"Imeni Andreyeva","coordinates":{"lat":"38.4638889","long":"64.1319444"}},{"country":"tm","city":"Imeni Andreyeva","coordinates":{"lat":"37.2666667","long":"62.3833333"}},{"country":"tm","city":"Imeni-Bakinshikh Komissarov","coordinates":{"lat":"39.7666667","long":"54.55"}},{"country":"tm","city":"Imeni Budënnogo","coordinates":{"lat":"42.4","long":"58.85"}},{"country":"tm","city":"Imeni Budënnogo","coordinates":{"lat":"37.4333333","long":"62.05"}},{"country":"tm","city":"Imeni Chapayeva","coordinates":{"lat":"42.1166667","long":"59.2333333"}},{"country":"tm","city":"Imeni Chapayeva","coordinates":{"lat":"36.7147222","long":"62.4566667"}},{"country":"tm","city":"Imeni Chkalova","coordinates":{"lat":"41.8","long":"60.1"}},{"country":"tm","city":"Imeni Chkalova","coordinates":{"lat":"35.95","long":"62.8833333"}},{"country":"tm","city":"Imeni Chubina","coordinates":{"lat":"37.0333333","long":"62.5"}},{"country":"tm","city":"Imeni Dimitrova","coordinates":{"lat":"42.2","long":"59.8833333"}},{"country":"tm","city":"Imeni Dimitrova","coordinates":{"lat":"35.9486111","long":"62.8455556"}},{"country":"tm","city":"Imeni Dvadtsati Shesti Bakinskikh Komissarov","coordinates":{"lat":"39.3422222","long":"54.1680556"}},{"country":"tm","city":"Imeni Dzerzhinskogo","coordinates":{"lat":"37.7333333","long":"60.3333333"}},{"country":"tm","city":"Imeni Engel'sa","coordinates":{"lat":"35.9838889","long":"62.8594444"}},{"country":"tm","city":"Imeni Gorel'de","coordinates":{"lat":"37.6333333","long":"61.95"}},{"country":"tm","city":"Imeni Gor'kogo","coordinates":{"lat":"42.2833333","long":"59.4"}},{"country":"tm","city":"Imeni Gor'kogo","coordinates":{"lat":"38.9333333","long":"63.7333333"}},{"country":"tm","city":"Imeni Il'icha","coordinates":{"lat":"38.8622222","long":"63.8083333"}},{"country":"tm","city":"Imeni Kaganovicha","coordinates":{"lat":"36.05","long":"62.7166667"}},{"country":"tm","city":"Imeni Kalinina","coordinates":{"lat":"37.5166667","long":"60.5333333"}},{"country":"tm","city":"Imeni Kalinina","coordinates":{"lat":"39.4333333","long":"55.55"}},{"country":"tm","city":"Imeni Kalinina","coordinates":{"lat":"42.05","long":"59.9833333"}},{"country":"tm","city":"Imeni Kalinina","coordinates":{"lat":"38.4166667","long":"64.4"}},{"country":"tm","city":"Imeni Kalinina","coordinates":{"lat":"35.9383333","long":"62.9483333"}},{"country":"tm","city":"Imeni Karla Marksa","coordinates":{"lat":"38.1833333","long":"64.5666667"}},{"country":"tm","city":"Imeni Karla Marksa","coordinates":{"lat":"37.35","long":"62.1833333"}},{"country":"tm","city":"Imeni Kirova","coordinates":{"lat":"37.5","long":"60.4666667"}},{"country":"tm","city":"Imeni Kirova","coordinates":{"lat":"39.8666667","long":"54.4333333"}},{"country":"tm","city":"Imeni Kirova","coordinates":{"lat":"41.7833333","long":"60.0333333"}},{"country":"tm","city":"Imeni Kirova","coordinates":{"lat":"38.3833333","long":"64.4"}},{"country":"tm","city":"Imeni Kirova","coordinates":{"lat":"35.7666667","long":"63.1166667"}},{"country":"tm","city":"Imeni Komsomola","coordinates":{"lat":"38.3633333","long":"64.4261111"}},{"country":"tm","city":"Imeni Kuybysheva","coordinates":{"lat":"41.5333333","long":"60.1"}},{"country":"tm","city":"Imeni Kuybysheva","coordinates":{"lat":"38.85","long":"63.9666667"}},{"country":"tm","city":"Imeni Kuybysheva","coordinates":{"lat":"37.3166667","long":"62.35"}},{"country":"tm","city":"Imeni Lenina","coordinates":{"lat":"36.45","long":"61.25"}},{"country":"tm","city":"Imeni Lenina","coordinates":{"lat":"38.0833333","long":"54.85"}},{"country":"tm","city":"Imeni Lenina","coordinates":{"lat":"41.6833333","long":"59.8166667"}},{"country":"tm","city":"Imeni Lenina","coordinates":{"lat":"38.3833333","long":"64.4"}},{"country":"tm","city":"Imeni Lenina","coordinates":{"lat":"36.0672222","long":"62.7158333"}},{"country":"tm","city":"Imeni Malenkova","coordinates":{"lat":"38.15","long":"64.9833333"}},{"country":"tm","city":"Imeni Malenkova","coordinates":{"lat":"37.2","long":"62.2333333"}},{"country":"tm","city":"Imeni Mikoyana","coordinates":{"lat":"42.1166667","long":"59.9166667"}},{"country":"tm","city":"Imeni Molotova","coordinates":{"lat":"42.2666667","long":"58.4"}},{"country":"tm","city":"Imeni Molotova","coordinates":{"lat":"36.9166667","long":"60.4333333"}},{"country":"tm","city":"Imeni Molotova","coordinates":{"lat":"39.75","long":"54.6"}},{"country":"tm","city":"Imeni Molotova","coordinates":{"lat":"38.5","long":"64.0666667"}},{"country":"tm","city":"Imeni Molotova","coordinates":{"lat":"36.0672222","long":"62.7158333"}},{"country":"tm","city":"Imeni Ordzhonikidze","coordinates":{"lat":"37.55","long":"62.2666667"}},{"country":"tm","city":"Imeni Ovezberdy Kuliyeva","coordinates":{"lat":"38.0069444","long":"58.3041667"}},{"country":"tm","city":"Imeni Politotdela","coordinates":{"lat":"38.2","long":"57.9333333"}},{"country":"tm","city":"Imeni Poltoratskogo","coordinates":{"lat":"37.6166667","long":"61.9166667"}},{"country":"tm","city":"Imeni Revolyutsii","coordinates":{"lat":"36.3333333","long":"62.65"}},{"country":"tm","city":"Imeni Shvernika","coordinates":{"lat":"37.65","long":"62.1166667"}},{"country":"tm","city":"Imeni Stakhanova","coordinates":{"lat":"42.2","long":"59.85"}},{"country":"tm","city":"Imeni Stakhanova","coordinates":{"lat":"37.5166667","long":"62.4"}},{"country":"tm","city":"Imeni Stalina","coordinates":{"lat":"36.8666667","long":"60.3833333"}},{"country":"tm","city":"Imeni Stalina","coordinates":{"lat":"38.7","long":"56.45"}},{"country":"tm","city":"Imeni Stalina","coordinates":{"lat":"41.9333333","long":"59.9166667"}},{"country":"tm","city":"Imeni Stalina","coordinates":{"lat":"37.95","long":"66.65"}},{"country":"tm","city":"Imeni Stalina","coordinates":{"lat":"35.9486111","long":"62.9241667"}},{"country":"tm","city":"Imeni Tel'mana","coordinates":{"lat":"41.5333333","long":"59.9833333"}},{"country":"tm","city":"Imeni Tel'mana","coordinates":{"lat":"38.8894444","long":"63.7447222"}},{"country":"tm","city":"Imeni Voroshilova","coordinates":{"lat":"37.8166667","long":"60.1833333"}},{"country":"tm","city":"Imeni Voroshilova","coordinates":{"lat":"38.1666667","long":"55.5166667"}},{"country":"tm","city":"Imeni Voroshilova","coordinates":{"lat":"41.9166667","long":"59.9833333"}},{"country":"tm","city":"Imeni Voroshilova","coordinates":{"lat":"38.5166667","long":"64.3"}},{"country":"tm","city":"Imeni Voroshilova","coordinates":{"lat":"37.3666667","long":"62.25"}},{"country":"tm","city":"Imeni Vos'mogo Marta","coordinates":{"lat":"38.4166667","long":"56.2"}},{"country":"tm","city":"Imeni Vyshinskogo","coordinates":{"lat":"41.9333333","long":"59.3833333"}},{"country":"tm","city":"Imeni Zhdanova","coordinates":{"lat":"42.1666667","long":"59.9333333"}},{"country":"tm","city":"Imeni Zhdanova","coordinates":{"lat":"38.0833333","long":"64.8"}},{"country":"tm","city":"Imeni Zhdanova","coordinates":{"lat":"37.5833333","long":"61.7333333"}},{"country":"tm","city":"Ina-Bek","coordinates":{"lat":"38.9","long":"63.7166667"}},{"country":"tm","city":"Inderlen","coordinates":{"lat":"37.9747222","long":"54.3011111"}},{"country":"tm","city":"Inklab","coordinates":{"lat":"37.2166667","long":"60.7"}},{"country":"tm","city":"Inklab","coordinates":{"lat":"37.8","long":"61.8333333"}},{"country":"tm","city":"Inkylap","coordinates":{"lat":"37.2166667","long":"60.7"}},{"country":"tm","city":"Inkylap","coordinates":{"lat":"37.5","long":"61.9166667"}},{"country":"tm","city":"Internatsional","coordinates":{"lat":"37.2333333","long":"60.05"}},{"country":"tm","city":"Internatsional","coordinates":{"lat":"38.2","long":"64.5333333"}},{"country":"tm","city":"Internatsional","coordinates":{"lat":"35.9","long":"63.0166667"}},{"country":"tm","city":"Intush","coordinates":{"lat":"38.4","long":"57.4666667"}},{"country":"tm","city":"Iolotan'","coordinates":{"lat":"37.3","long":"62.35"}},{"country":"tm","city":"Irkli","coordinates":{"lat":"40.1666667","long":"54.3"}},{"country":"tm","city":"Isamli","coordinates":{"lat":"38.4908333","long":"64.3280556"}},{"country":"tm","city":"Isem Menli","coordinates":{"lat":"38.1277778","long":"64.7213889"}},{"country":"tm","city":"Isen-Menli","coordinates":{"lat":"38.1277778","long":"64.7213889"}},{"country":"tm","city":"Ish-Bay","coordinates":{"lat":"41.9166667","long":"59.55"}},{"country":"tm","city":"Ishik-Bay","coordinates":{"lat":"41.9166667","long":"59.55"}},{"country":"tm","city":"Ishikhbay","coordinates":{"lat":"41.9166667","long":"59.55"}},{"country":"tm","city":"Iski-Farab","coordinates":{"lat":"39.1333333","long":"63.6666667"}},{"country":"tm","city":"Iskra","coordinates":{"lat":"42.4","long":"58.95"}},{"country":"tm","city":"Iskra","coordinates":{"lat":"37.55","long":"61.85"}},{"country":"tm","city":"Islam","coordinates":{"lat":"38.35","long":"64.3166667"}},{"country":"tm","city":"Islim-Cheshme","coordinates":{"lat":"35.3866667","long":"62.1666667"}},{"country":"tm","city":"Ispas","coordinates":{"lat":"39.5430556","long":"62.9211111"}},{"country":"tm","city":"Ispaz","coordinates":{"lat":"39.5430556","long":"62.9211111"}},{"country":"tm","city":"Ispos","coordinates":{"lat":"39.5430556","long":"62.9211111"}},{"country":"tm","city":"Isrikkala","coordinates":{"lat":"41.85","long":"59.8333333"}},{"country":"tm","city":"Ist Pas","coordinates":{"lat":"39.5430556","long":"62.9211111"}},{"country":"tm","city":"Itbash","coordinates":{"lat":"37.7833333","long":"65.2166667"}},{"country":"tm","city":"Iyanli","coordinates":{"lat":"41.8333333","long":"59.65"}},{"country":"tm","city":"Iyerbent","coordinates":{"lat":"39.3166667","long":"58.6"}},{"country":"tm","city":"Iyuz","coordinates":{"lat":"37.7","long":"62.25"}},{"country":"tm","city":"Izgant","coordinates":{"lat":"38.2","long":"58.1333333"}},{"country":"tm","city":"Janakhor","coordinates":{"lat":"38.95","long":"56.1666667"}},{"country":"tm","city":"Jangnga","coordinates":{"lat":"40.0333333","long":"53.1333333"}},{"country":"tm","city":"Jebel","coordinates":{"lat":"39.6325","long":"54.2313889"}},{"country":"tm","city":"Jeýhun","coordinates":{"lat":"39.1475","long":"63.5772222"}},{"country":"tm","city":"Kaakhka","coordinates":{"lat":"37.35","long":"59.6"}},{"country":"tm","city":"Kabakli","coordinates":{"lat":"39.7736111","long":"62.5380556"}},{"country":"tm","city":"Kabakly","coordinates":{"lat":"39.7736111","long":"62.5380556"}},{"country":"tm","city":"Kabakly-Kurgan","coordinates":{"lat":"39.815","long":"62.5230556"}},{"country":"tm","city":"Kabakly-Tugay","coordinates":{"lat":"39.8","long":"62.5833333"}},{"country":"tm","city":"Kabasakal","coordinates":{"lat":"37.8666667","long":"65.15"}},{"country":"tm","city":"Kabil'","coordinates":{"lat":"40.3333333","long":"53.0666667"}},{"country":"tm","city":"Kabyl","coordinates":{"lat":"40.3333333","long":"53.0666667"}},{"country":"tm","city":"Kabyl'","coordinates":{"lat":"37.5","long":"62.0666667"}},{"country":"tm","city":"Kaganovichesk","coordinates":{"lat":"39.0341667","long":"63.5958333"}},{"country":"tm","city":"Kaka","coordinates":{"lat":"37.35","long":"59.6"}},{"country":"tm","city":"Kala-I-Mor","coordinates":{"lat":"35.6511111","long":"62.5436111"}},{"country":"tm","city":"Kala","coordinates":{"lat":"38.75","long":"57.0"}},{"country":"tm","city":"Kala","coordinates":{"lat":"41.1833333","long":"61.7"}},{"country":"tm","city":"Kalankui","coordinates":{"lat":"39.6","long":"55.25"}},{"country":"tm","city":"Kalan Kuyu","coordinates":{"lat":"39.6","long":"55.25"}},{"country":"tm","city":"Kalaýmor","coordinates":{"lat":"35.6511111","long":"62.5436111"}},{"country":"tm","city":"Kalinikskiy","coordinates":{"lat":"37.7983333","long":"58.5286111"}},{"country":"tm","city":"Kalinina","coordinates":{"lat":"39.4333333","long":"55.55"}},{"country":"tm","city":"Kalinin","coordinates":{"lat":"42.1333333","long":"59.6666667"}},{"country":"tm","city":"Kalininskiy","coordinates":{"lat":"37.7983333","long":"58.5286111"}},{"country":"tm","city":"Kalininsk","coordinates":{"lat":"42.1333333","long":"59.6666667"}},{"country":"tm","city":"Kalyam","coordinates":{"lat":"37.9833333","long":"65.15"}},{"country":"tm","city":"Kamyshaldzhar","coordinates":{"lat":"38.3872222","long":"54.0194444"}},{"country":"tm","city":"Kamyshdzhik","coordinates":{"lat":"42.25","long":"59.3333333"}},{"country":"tm","city":"Kamyshlydzha","coordinates":{"lat":"38.3872222","long":"54.0194444"}},{"country":"tm","city":"Kanav","coordinates":{"lat":"39.2166667","long":"55.4333333"}},{"country":"tm","city":"Kandak","coordinates":{"lat":"39.2666667","long":"63.4666667"}},{"country":"tm","city":"Kandykli","coordinates":{"lat":"36.6166667","long":"61.1666667"}},{"country":"tm","city":"Kanshar","coordinates":{"lat":"37.75","long":"65.8833333"}},{"country":"tm","city":"Kapakly","coordinates":{"lat":"38.7047222","long":"62.5169444"}},{"country":"tm","city":"Kaplanli","coordinates":{"lat":"39.45","long":"55.7166667"}},{"country":"tm","city":"Karaadzhi","coordinates":{"lat":"38.9166667","long":"58.5"}},{"country":"tm","city":"Kara-Agach","coordinates":{"lat":"37.7166667","long":"58.6"}},{"country":"tm","city":"Kara-Agach","coordinates":{"lat":"38.0886111","long":"55.3391667"}},{"country":"tm","city":"Kara-Agach","coordinates":{"lat":"37.85","long":"66.4166667"}},{"country":"tm","city":"Kara-Akhmet","coordinates":{"lat":"37.45","long":"61.95"}},{"country":"tm","city":"Karaaygyr","coordinates":{"lat":"40.7","long":"62.0"}},{"country":"tm","city":"Karaba-Akhun","coordinates":{"lat":"37.5166667","long":"61.8166667"}},{"country":"tm","city":"Karabagadzha","coordinates":{"lat":"40.05","long":"57.5833333"}},{"country":"tm","city":"Karabagadzhe","coordinates":{"lat":"40.05","long":"57.5833333"}},{"country":"tm","city":"Karabakshi","coordinates":{"lat":"39.2","long":"57.3666667"}},{"country":"tm","city":"Kara-Bashlyk","coordinates":{"lat":"38.2666667","long":"64.4166667"}},{"country":"tm","city":"Karabekaul","coordinates":{"lat":"38.5","long":"64.1333333"}},{"country":"tm","city":"Karabizan","coordinates":{"lat":"37.45","long":"67.3166667"}},{"country":"tm","city":"Kara-Bogaz-Gol","coordinates":{"lat":"41.0333333","long":"52.9166667"}},{"country":"tm","city":"Kara-Bogaz","coordinates":{"lat":"41.0333333","long":"52.9166667"}},{"country":"tm","city":"Karabogaz","coordinates":{"lat":"41.5666667","long":"52.5333333"}},{"country":"tm","city":"Kara-Boyen","coordinates":{"lat":"35.9333333","long":"62.8333333"}},{"country":"tm","city":"Kara-Bugas-Gol","coordinates":{"lat":"41.0333333","long":"52.9166667"}},{"country":"tm","city":"Kara-Bugaz","coordinates":{"lat":"41.0333333","long":"52.9166667"}},{"country":"tm","city":"Karabulak","coordinates":{"lat":"37.6094444","long":"66.3547222"}},{"country":"tm","city":"Kara-Chapan","coordinates":{"lat":"37.9666667","long":"61.6"}},{"country":"tm","city":"Kara-Chep","coordinates":{"lat":"35.3333333","long":"62.5333333"}},{"country":"tm","city":"Kara-Chirla","coordinates":{"lat":"37.55","long":"60.05"}},{"country":"tm","city":"Karadamak","coordinates":{"lat":"37.9041667","long":"58.3708333"}},{"country":"tm","city":"Karadashli","coordinates":{"lat":"41.9833333","long":"59.7833333"}},{"country":"tm","city":"Karadegish","coordinates":{"lat":"37.4430556","long":"54.5013889"}},{"country":"tm","city":"Karadepe","coordinates":{"lat":"38.0322222","long":"54.0355556"}},{"country":"tm","city":"Karadetish","coordinates":{"lat":"37.4430556","long":"54.5013889"}},{"country":"tm","city":"Karadzha-Batyr","coordinates":{"lat":"37.6463889","long":"54.4227778"}},{"country":"tm","city":"Karadzha","coordinates":{"lat":"38.25","long":"64.6666667"}},{"country":"tm","city":"Karadzha","coordinates":{"lat":"37.6666667","long":"62.0666667"}},{"country":"tm","city":"Karadzhary","coordinates":{"lat":"41.8333333","long":"53.9833333"}},{"country":"tm","city":"Kara-Dzhik","coordinates":{"lat":"38.3833333","long":"56.4166667"}},{"country":"tm","city":"Kara-Dzhin","coordinates":{"lat":"38.3833333","long":"56.4166667"}},{"country":"tm","city":"Karagan","coordinates":{"lat":"38.3833333","long":"57.5"}},{"country":"tm","city":"Karagel","coordinates":{"lat":"39.3788889","long":"53.1819444"}},{"country":"tm","city":"Karagël'","coordinates":{"lat":"39.3788889","long":"53.1819444"}},{"country":"tm","city":"Karagëz","coordinates":{"lat":"38.95","long":"55.4166667"}},{"country":"tm","city":"Kara-Govok","coordinates":{"lat":"38.6","long":"56.6333333"}},{"country":"tm","city":"Kara-Kala","coordinates":{"lat":"38.4333333","long":"56.3"}},{"country":"tm","city":"Karakël","coordinates":{"lat":"39.3788889","long":"53.1819444"}},{"country":"tm","city":"Kara-Ker","coordinates":{"lat":"38.2166667","long":"57.8"}},{"country":"tm","city":"Karakhandere","coordinates":{"lat":"37.7975","long":"58.4713889"}},{"country":"tm","city":"Karakhan","coordinates":{"lat":"37.3","long":"59.7666667"}},{"country":"tm","city":"Karakhauz","coordinates":{"lat":"37.5675","long":"65.8013889"}},{"country":"tm","city":"Karakhodzha","coordinates":{"lat":"41.9","long":"59.4833333"}},{"country":"tm","city":"Karakhodzha","coordinates":{"lat":"39.2666667","long":"63.05"}},{"country":"tm","city":"Karakongur","coordinates":{"lat":"37.6333333","long":"60.3333333"}},{"country":"tm","city":"Kara-Kuli","coordinates":{"lat":"39.0333333","long":"63.6666667"}},{"country":"tm","city":"Karakul'","coordinates":{"lat":"36.65","long":"62.7666667"}},{"country":"tm","city":"Kara-Kungur","coordinates":{"lat":"37.6333333","long":"60.3333333"}},{"country":"tm","city":"Kara-Kuri","coordinates":{"lat":"42.2","long":"59.65"}},{"country":"tm","city":"Karamakhmud","coordinates":{"lat":"38.95","long":"63.7333333"}},{"country":"tm","city":"Karaman","coordinates":{"lat":"36.5144444","long":"61.2013889"}},{"country":"tm","city":"Karaman Pervyy","coordinates":{"lat":"36.5144444","long":"61.2013889"}},{"country":"tm","city":"Karaman Vtoroy","coordinates":{"lat":"36.7613889","long":"61.1280556"}},{"country":"tm","city":"Karamet-Niyaz","coordinates":{"lat":"37.7408333","long":"64.5569444"}},{"country":"tm","city":"Karamysh","coordinates":{"lat":"39.2166667","long":"63.55"}},{"country":"tm","city":"Karanki","coordinates":{"lat":"37.8319444","long":"58.3136111"}},{"country":"tm","city":"Kara-Nungur","coordinates":{"lat":"37.6333333","long":"60.3333333"}},{"country":"tm","city":"Kara-Nuri","coordinates":{"lat":"42.2","long":"59.65"}},{"country":"tm","city":"Karaparsan","coordinates":{"lat":"41.7333333","long":"59.7833333"}},{"country":"tm","city":"Kararyk","coordinates":{"lat":"38.9666667","long":"63.6833333"}},{"country":"tm","city":"Karasengir","coordinates":{"lat":"38.95","long":"56.6166667"}},{"country":"tm","city":"Kara-Singer","coordinates":{"lat":"38.95","long":"56.6166667"}},{"country":"tm","city":"Kara-Sukut","coordinates":{"lat":"41.4833333","long":"52.8166667"}},{"country":"tm","city":"Karatamak","coordinates":{"lat":"37.9041667","long":"58.3708333"}},{"country":"tm","city":"Karategyan","coordinates":{"lat":"36.85","long":"60.25"}},{"country":"tm","city":"Kara-Tepe","coordinates":{"lat":"35.2666667","long":"62.2833333"}},{"country":"tm","city":"Karatomak","coordinates":{"lat":"37.9041667","long":"58.3708333"}},{"country":"tm","city":"Kara-Tut","coordinates":{"lat":"39.1666667","long":"63.45"}},{"country":"tm","city":"Karaulak","coordinates":{"lat":"41.65","long":"59.75"}},{"country":"tm","city":"Karaul","coordinates":{"lat":"38.3833333","long":"57.0166667"}},{"country":"tm","city":"Karaul","coordinates":{"lat":"39.0333333","long":"63.5"}},{"country":"tm","city":"Karaul-Khana","coordinates":{"lat":"35.7166667","long":"63.1833333"}},{"country":"tm","city":"Karaul-Kuyu","coordinates":{"lat":"38.75","long":"63.3333333"}},{"country":"tm","city":"Kara-Vakil' Pervyy","coordinates":{"lat":"37.8833333","long":"60.35"}},{"country":"tm","city":"Kara-Vakil' Vtoroy","coordinates":{"lat":"37.75","long":"60.35"}},{"country":"tm","city":"Karavikil' Pervyy","coordinates":{"lat":"37.8833333","long":"60.35"}},{"country":"tm","city":"Karavikil' Vtory","coordinates":{"lat":"37.75","long":"60.35"}},{"country":"tm","city":"Kara-Yab Pervyy","coordinates":{"lat":"37.6833333","long":"61.8666667"}},{"country":"tm","city":"Kara-Yab Tretiy","coordinates":{"lat":"37.7333333","long":"61.65"}},{"country":"tm","city":"Kara-Yab Vtoroy","coordinates":{"lat":"37.6666667","long":"61.75"}},{"country":"tm","city":"Karkinadzhi","coordinates":{"lat":"38.4833333","long":"63.7"}},{"country":"tm","city":"Karkin","coordinates":{"lat":"37.9833333","long":"64.9833333"}},{"country":"tm","city":"Karlyuk","coordinates":{"lat":"37.5897222","long":"66.3377778"}},{"country":"tm","city":"Karlyukski","coordinates":{"lat":"37.5897222","long":"66.3377778"}},{"country":"tm","city":"Karnas","coordinates":{"lat":"38.1333333","long":"56.0166667"}},{"country":"tm","city":"Karnas","coordinates":{"lat":"37.5202778","long":"65.9358333"}},{"country":"tm","city":"Karry Bent","coordinates":{"lat":"37.2166667","long":"60.6833333"}},{"country":"tm","city":"Karry-Cherlya","coordinates":{"lat":"38.7166667","long":"58.9333333"}},{"country":"tm","city":"Karrychirla","coordinates":{"lat":"37.55","long":"60.05"}},{"country":"tm","city":"Karshi","coordinates":{"lat":"40.6666667","long":"52.8666667"}},{"country":"tm","city":"Kary-Bent","coordinates":{"lat":"37.2166667","long":"60.6833333"}},{"country":"tm","city":"Kary-Chirla","coordinates":{"lat":"37.55","long":"60.05"}},{"country":"tm","city":"Kary-Khodzha-Ata","coordinates":{"lat":"39.2333333","long":"63.1166667"}},{"country":"tm","city":"Kary-Khodzha","coordinates":{"lat":"39.2333333","long":"63.1166667"}},{"country":"tm","city":"Kasandshik","coordinates":{"lat":"39.2430556","long":"55.5169444"}},{"country":"tm","city":"Kashgarskiy","coordinates":{"lat":"37.4833333","long":"62.2833333"}},{"country":"tm","city":"Kashtarskiy","coordinates":{"lat":"37.4833333","long":"62.2833333"}},{"country":"tm","city":"Kata-kara-Tut","coordinates":{"lat":"39.1666667","long":"63.45"}},{"country":"tm","city":"Katta-Sopiyab","coordinates":{"lat":"39.2333333","long":"63.15"}},{"country":"tm","city":"Kaushek-Kyzyltakyr","coordinates":{"lat":"39.2666667","long":"58.8166667"}},{"country":"tm","city":"Kaushut-Bent","coordinates":{"lat":"37.45","long":"59.4666667"}},{"country":"tm","city":"Kaushut","coordinates":{"lat":"37.45","long":"59.4666667"}},{"country":"tm","city":"Kausy","coordinates":{"lat":"37.7333333","long":"65.4"}},{"country":"tm","city":"Kavakhly","coordinates":{"lat":"39.7736111","long":"62.5380556"}},{"country":"tm","city":"Kavakhly-Kurgan","coordinates":{"lat":"39.815","long":"62.5230556"}},{"country":"tm","city":"Kavakly-Kurgan","coordinates":{"lat":"39.815","long":"62.5230556"}},{"country":"tm","city":"Kayli","coordinates":{"lat":"37.9166667","long":"60.1333333"}},{"country":"tm","city":"Kayrayuz","coordinates":{"lat":"39.5377778","long":"53.1863889"}},{"country":"tm","city":"Kazandzhi","coordinates":{"lat":"38.7","long":"56.8"}},{"country":"tm","city":"Kazandzhik","coordinates":{"lat":"39.2430556","long":"55.5169444"}},{"country":"tm","city":"Kazanjik","coordinates":{"lat":"39.2430556","long":"55.5169444"}},{"country":"tm","city":"Kazarma","coordinates":{"lat":"37.7088889","long":"65.5375"}},{"country":"tm","city":"Kazgankala","coordinates":{"lat":"37.35","long":"59.4333333"}},{"country":"tm","city":"Kazy","coordinates":{"lat":"39.2166667","long":"57.5"}},{"country":"tm","city":"Kazylyar","coordinates":{"lat":"37.5","long":"60.2166667"}},{"country":"tm","city":"Keikchi","coordinates":{"lat":"37.8530556","long":"65.2369444"}},{"country":"tm","city":"Keladzhar","coordinates":{"lat":"38.1","long":"58.05"}},{"country":"tm","city":"Kel'-Bash","coordinates":{"lat":"38.2833333","long":"64.5"}},{"country":"tm","city":"Kel'dy","coordinates":{"lat":"41.7","long":"59.9666667"}},{"country":"tm","city":"Keleft","coordinates":{"lat":"37.3613889","long":"66.3113889"}},{"country":"tm","city":"Keleli Vtoroy","coordinates":{"lat":"41.7","long":"59.9666667"}},{"country":"tm","city":"Keleyazhar","coordinates":{"lat":"38.1","long":"58.05"}},{"country":"tm","city":"Kelif","coordinates":{"lat":"37.3613889","long":"66.3113889"}},{"country":"tm","city":"Kel'teshor","coordinates":{"lat":"37.7666667","long":"64.4833333"}},{"country":"tm","city":"Kelyadzhi","coordinates":{"lat":"38.3666667","long":"62.05"}},{"country":"tm","city":"Kelyata","coordinates":{"lat":"38.2666667","long":"57.7166667"}},{"country":"tm","city":"Kelyazyar","coordinates":{"lat":"38.1","long":"58.05"}},{"country":"tm","city":"Kendekli","coordinates":{"lat":"36.6166667","long":"61.1666667"}},{"country":"tm","city":"Kendikli","coordinates":{"lat":"36.6166667","long":"61.1666667"}},{"country":"tm","city":"Kendykly","coordinates":{"lat":"36.6166667","long":"61.1666667"}},{"country":"tm","city":"Kënekesir","coordinates":{"lat":"38.2166667","long":"56.9166667"}},{"country":"tm","city":"Kënekesyr","coordinates":{"lat":"38.2166667","long":"56.9166667"}},{"country":"tm","city":"Kepekli","coordinates":{"lat":"41.9","long":"59.4166667"}},{"country":"tm","city":"Kepyata","coordinates":{"lat":"38.2666667","long":"57.7166667"}},{"country":"tm","city":"Kergochemen","coordinates":{"lat":"41.85","long":"59.5"}},{"country":"tm","city":"Kerki-Aryk","coordinates":{"lat":"37.9166667","long":"65.2166667"}},{"country":"tm","city":"Kerkichi","coordinates":{"lat":"37.8530556","long":"65.2369444"}},{"country":"tm","city":"Kerkiçi","coordinates":{"lat":"37.8530556","long":"65.2369444"}},{"country":"tm","city":"Kerki","coordinates":{"lat":"37.8344444","long":"65.2097222"}},{"country":"tm","city":"Kërsagyr","coordinates":{"lat":"38.2","long":"57.9333333"}},{"country":"tm","city":"Kert-Yakha","coordinates":{"lat":"39.5166667","long":"53.2"}},{"country":"tm","city":"Keseklik","coordinates":{"lat":"42.5833333","long":"58.6333333"}},{"country":"tm","city":"Keshi","coordinates":{"lat":"37.9616667","long":"58.3433333"}},{"country":"tm","city":"Keske","coordinates":{"lat":"37.8","long":"62.7"}},{"country":"tm","city":"Kessyr","coordinates":{"lat":"37.9833333","long":"65.1333333"}},{"country":"tm","city":"Keyikkodana","coordinates":{"lat":"38.15","long":"56.25"}},{"country":"tm","city":"Key-Kodona","coordinates":{"lat":"38.15","long":"56.25"}},{"country":"tm","city":"Key-Kodozh","coordinates":{"lat":"38.15","long":"56.25"}},{"country":"tm","city":"Khadzhikaraul","coordinates":{"lat":"37.7516667","long":"66.3722222"}},{"country":"tm","city":"Khadzhi-Su","coordinates":{"lat":"41.1666667","long":"54.6333333"}},{"country":"tm","city":"Khadzhykulluk","coordinates":{"lat":"38.0605556","long":"65.6841667"}},{"country":"tm","city":"Khalach","coordinates":{"lat":"38.0708333","long":"64.8844444"}},{"country":"tm","city":"Khalil'-Bukry","coordinates":{"lat":"37.6666667","long":"62.0166667"}},{"country":"tm","city":"Khalyal'chilim","coordinates":{"lat":"36.45","long":"61.2"}},{"country":"tm","city":"Khamay","coordinates":{"lat":"42.1","long":"59.7333333"}},{"country":"tm","city":"Khandak","coordinates":{"lat":"39.1833333","long":"63.45"}},{"country":"tm","city":"Khandakli","coordinates":{"lat":"39.1833333","long":"63.3"}},{"country":"tm","city":"Khankui","coordinates":{"lat":"38.7166667","long":"60.6333333"}},{"country":"tm","city":"Khan-Kyariz","coordinates":{"lat":"38.3","long":"57.6"}},{"country":"tm","city":"Khan-Yab","coordinates":{"lat":"36.4366667","long":"61.2444444"}},{"country":"tm","city":"Khar-Bala","coordinates":{"lat":"39.1666667","long":"63.3666667"}},{"country":"tm","city":"Khargali","coordinates":{"lat":"37.7833333","long":"65.3166667"}},{"country":"tm","city":"Khasar-Kala","coordinates":{"lat":"37.4166667","long":"59.4166667"}},{"country":"tm","city":"Khas","coordinates":{"lat":"38.7833333","long":"56.6333333"}},{"country":"tm","city":"Khassyn","coordinates":{"lat":"37.5333333","long":"60.4333333"}},{"country":"tm","city":"Khasyn","coordinates":{"lat":"37.5333333","long":"60.4333333"}},{"country":"tm","city":"Khatab","coordinates":{"lat":"37.6233333","long":"65.5294444"}},{"country":"tm","city":"Khatap","coordinates":{"lat":"37.6233333","long":"65.5294444"}},{"country":"tm","city":"Khauz-Khana-Shor","coordinates":{"lat":"35.5333333","long":"62.5166667"}},{"country":"tm","city":"Khauz-Khan","coordinates":{"lat":"37.2322222","long":"61.2436111"}},{"country":"tm","city":"Khaz","coordinates":{"lat":"38.7833333","long":"56.6333333"}},{"country":"tm","city":"Kheleulen","coordinates":{"lat":"39.5","long":"56.4666667"}},{"country":"tm","city":"Khellen","coordinates":{"lat":"41.8333333","long":"59.9166667"}},{"country":"tm","city":"Kherrikkala","coordinates":{"lat":"38.0255556","long":"58.235"}},{"country":"tm","city":"Khilak","coordinates":{"lat":"38.05","long":"62.4333333"}},{"country":"tm","city":"Khiva-Abad","coordinates":{"lat":"37.1833333","long":"59.55"}},{"country":"tm","city":"Khivabad","coordinates":{"lat":"37.1833333","long":"59.55"}},{"country":"tm","city":"Khiveabad","coordinates":{"lat":"37.1833333","long":"59.55"}},{"country":"tm","city":"Khodzha-Ali","coordinates":{"lat":"35.9666667","long":"62.8833333"}},{"country":"tm","city":"Khodzha-Bulak","coordinates":{"lat":"36.9833333","long":"60.1"}},{"country":"tm","city":"Khodzha-Bulan","coordinates":{"lat":"36.9833333","long":"60.1"}},{"country":"tm","city":"Khodzhadere","coordinates":{"lat":"37.7777778","long":"58.4777778"}},{"country":"tm","city":"Khodzha-Gumbez","coordinates":{"lat":"41.7166667","long":"59.8833333"}},{"country":"tm","city":"Khodzhaguyma","coordinates":{"lat":"39.3666667","long":"56.0666667"}},{"country":"tm","city":"Khodzhai-Fil'ata","coordinates":{"lat":"37.95","long":"66.65"}},{"country":"tm","city":"Khodzha-Irat","coordinates":{"lat":"37.9166667","long":"66.4833333"}},{"country":"tm","city":"Khodzha-Kakepsi","coordinates":{"lat":"39.4027778","long":"63.0644444"}},{"country":"tm","city":"Khodzhakala","coordinates":{"lat":"37.4166667","long":"59.5166667"}},{"country":"tm","city":"Khodzhakala","coordinates":{"lat":"38.7166667","long":"56.3333333"}},{"country":"tm","city":"Khodzhakala","coordinates":{"lat":"39.1333333","long":"63.4333333"}},{"country":"tm","city":"Khodzha-Kalay Pervyy","coordinates":{"lat":"38.7166667","long":"56.3333333"}},{"country":"tm","city":"Khodzhakanapsi","coordinates":{"lat":"39.4027778","long":"63.0644444"}},{"country":"tm","city":"Khodzha-Karaul","coordinates":{"lat":"37.7516667","long":"66.3722222"}},{"country":"tm","city":"Khodzhakaraul","coordinates":{"lat":"37.75","long":"66.35"}},{"country":"tm","city":"Khodzha-Kekepsi","coordinates":{"lat":"39.4027778","long":"63.0644444"}},{"country":"tm","city":"Khodzha-Kenepsi","coordinates":{"lat":"39.4027778","long":"63.0644444"}},{"country":"tm","city":"Khodzhakishlak","coordinates":{"lat":"37.5952778","long":"66.3705556"}},{"country":"tm","city":"Khodzhakumbet","coordinates":{"lat":"41.7166667","long":"59.8833333"}},{"country":"tm","city":"Khodzhakumbet Vtoroy","coordinates":{"lat":"41.7166667","long":"59.8833333"}},{"country":"tm","city":"Khodzha-Kumbez","coordinates":{"lat":"41.7166667","long":"59.8833333"}},{"country":"tm","city":"Khodzha-Kuyma","coordinates":{"lat":"39.3666667","long":"56.0666667"}},{"country":"tm","city":"Khodzha-Kyanyansi","coordinates":{"lat":"39.4027778","long":"63.0644444"}},{"country":"tm","city":"Khodzhali","coordinates":{"lat":"35.7666667","long":"63.1166667"}},{"country":"tm","city":"Khodzhambas","coordinates":{"lat":"38.1122222","long":"65.0016667"}},{"country":"tm","city":"Khodzhambass","coordinates":{"lat":"38.1122222","long":"65.0016667"}},{"country":"tm","city":"Khodzhameshed","coordinates":{"lat":"39.0166667","long":"63.5666667"}},{"country":"tm","city":"Khodzha-Mrasan","coordinates":{"lat":"39.05","long":"63.5833333"}},{"country":"tm","city":"Khodzha-Nazar","coordinates":{"lat":"37.0333333","long":"62.5"}},{"country":"tm","city":"Khodzhaolen","coordinates":{"lat":"38.75","long":"57.3166667"}},{"country":"tm","city":"Khodzhapil'","coordinates":{"lat":"37.95","long":"66.65"}},{"country":"tm","city":"Khodzhara","coordinates":{"lat":"39.0336111","long":"63.6458333"}},{"country":"tm","city":"Khodzhasu","coordinates":{"lat":"41.1666667","long":"54.6333333"}},{"country":"tm","city":"Khodzhavlan","coordinates":{"lat":"38.75","long":"57.3166667"}},{"country":"tm","city":"Khodzhay-Fil'-Ata","coordinates":{"lat":"37.95","long":"66.65"}},{"country":"tm","city":"Khodzhi-Kuyma","coordinates":{"lat":"39.3666667","long":"56.0666667"}},{"country":"tm","city":"Khodzholok-Aragly","coordinates":{"lat":"38.9166667","long":"63.75"}},{"country":"tm","city":"Khodzholok","coordinates":{"lat":"38.9166667","long":"63.75"}},{"country":"tm","city":"Khoja-Kala","coordinates":{"lat":"37.4166667","long":"59.5166667"}},{"country":"tm","city":"Khoja-Kala","coordinates":{"lat":"38.7166667","long":"56.3333333"}},{"country":"tm","city":"Khorodzhokh-Kala","coordinates":{"lat":"38.1","long":"58.1"}},{"country":"tm","city":"Khoudandzhik","coordinates":{"lat":"38.7833333","long":"56.5"}},{"country":"tm","city":"Khozarek","coordinates":{"lat":"38.9","long":"63.7166667"}},{"country":"tm","city":"Khudaidag","coordinates":{"lat":"39.2061111","long":"54.5905556"}},{"country":"tm","city":"Khudayberdy","coordinates":{"lat":"39.9333333","long":"54.8"}},{"country":"tm","city":"Khudayberdy","coordinates":{"lat":"38.4","long":"64.8333333"}},{"country":"tm","city":"Khuday-Dag","coordinates":{"lat":"39.2061111","long":"54.5905556"}},{"country":"tm","city":"Khudzhum","coordinates":{"lat":"36.9711111","long":"62.4561111"}},{"country":"tm","city":"Khukala","coordinates":{"lat":"40.3833333","long":"66.7666667"}},{"country":"tm","city":"Khu-Kalya","coordinates":{"lat":"40.3833333","long":"66.7666667"}},{"country":"tm","city":"Khurman-Kala","coordinates":{"lat":"38.1","long":"58.0"}},{"country":"tm","city":"Khurmat-Kala","coordinates":{"lat":"38.1","long":"58.0"}},{"country":"tm","city":"Khuzeye-Beden","coordinates":{"lat":"37.3666667","long":"62.2833333"}},{"country":"tm","city":"Kianly","coordinates":{"lat":"40.0333333","long":"52.7666667"}},{"country":"tm","city":"Kichaga","coordinates":{"lat":"36.5641667","long":"61.2686111"}},{"country":"tm","city":"Kichaga Pervaya","coordinates":{"lat":"36.5472222","long":"61.2252778"}},{"country":"tm","city":"Kichaga Vtoraya","coordinates":{"lat":"36.5641667","long":"61.2686111"}},{"country":"tm","city":"Kichi-Aga Pervaya","coordinates":{"lat":"36.5472222","long":"61.2252778"}},{"country":"tm","city":"Kichiaga Pervyy","coordinates":{"lat":"36.5472222","long":"61.2252778"}},{"country":"tm","city":"Kichi-Aga Vtoraya","coordinates":{"lat":"36.5641667","long":"61.2686111"}},{"country":"tm","city":"Kichiaga Vtoroy","coordinates":{"lat":"36.5641667","long":"61.2686111"}},{"country":"tm","city":"Kichiga Pervaya","coordinates":{"lat":"36.5472222","long":"61.2252778"}},{"country":"tm","city":"Kichiga Vtoraya","coordinates":{"lat":"36.5641667","long":"61.2686111"}},{"country":"tm","city":"Kiikchi","coordinates":{"lat":"37.85","long":"65.2833333"}},{"country":"tm","city":"Kindykli","coordinates":{"lat":"36.6166667","long":"61.1666667"}},{"country":"tm","city":"Kipchakh","coordinates":{"lat":"38.0222222","long":"58.2666667"}},{"country":"tm","city":"Kipchak","coordinates":{"lat":"38.0222222","long":"58.2666667"}},{"country":"tm","city":"Kirovsk","coordinates":{"lat":"37.6922222","long":"60.3933333"}},{"country":"tm","city":"Kirpichli","coordinates":{"lat":"39.4","long":"57.4"}},{"country":"tm","city":"Kirpichli","coordinates":{"lat":"41.5833333","long":"60.0333333"}},{"country":"tm","city":"Kirpili","coordinates":{"lat":"39.5833333","long":"57.2333333"}},{"country":"tm","city":"Kishtivan","coordinates":{"lat":"39.1","long":"63.55"}},{"country":"tm","city":"Kiyanly","coordinates":{"lat":"40.0333333","long":"52.7666667"}},{"country":"tm","city":"Kizel-Atrek","coordinates":{"lat":"37.6613889","long":"54.7605556"}},{"country":"tm","city":"Kizil-Arvat","coordinates":{"lat":"38.9755556","long":"56.2777778"}},{"country":"tm","city":"Kizil-Atrek","coordinates":{"lat":"37.6613889","long":"54.7605556"}},{"country":"tm","city":"Kizil-Ayak","coordinates":{"lat":"37.6666667","long":"65.3833333"}},{"country":"tm","city":"Kizil","coordinates":{"lat":"38.4166667","long":"56.2"}},{"country":"tm","city":"Kizil Kup","coordinates":{"lat":"40.6333333","long":"53.9666667"}},{"country":"tm","city":"Kizil-Su","coordinates":{"lat":"39.7983333","long":"53.0097222"}},{"country":"tm","city":"Kizyl-Arvat","coordinates":{"lat":"38.9755556","long":"56.2777778"}},{"country":"tm","city":"Kizyl-Atrek","coordinates":{"lat":"37.6613889","long":"54.7605556"}},{"country":"tm","city":"Kizyl-Ayak","coordinates":{"lat":"37.6666667","long":"65.3833333"}},{"country":"tm","city":"Kizyl-Cherek","coordinates":{"lat":"38.15","long":"56.0666667"}},{"country":"tm","city":"Kizyldzha","coordinates":{"lat":"37.6666667","long":"65.3833333"}},{"country":"tm","city":"Kizyl-Iman","coordinates":{"lat":"38.1333333","long":"56.0333333"}},{"country":"tm","city":"Kizyl-Ishchi","coordinates":{"lat":"37.5333333","long":"60.2833333"}},{"country":"tm","city":"Kizyl-Kaya","coordinates":{"lat":"40.6666667","long":"55.5"}},{"country":"tm","city":"Kizyl-Kemer","coordinates":{"lat":"37.7166667","long":"58.5666667"}},{"country":"tm","city":"Kizyl","coordinates":{"lat":"35.9486111","long":"62.9241667"}},{"country":"tm","city":"Kizyl-Kup","coordinates":{"lat":"40.6333333","long":"53.9666667"}},{"country":"tm","city":"Kizyl-Murad","coordinates":{"lat":"35.9333333","long":"62.8833333"}},{"country":"tm","city":"Kizyl-Oktyabr'","coordinates":{"lat":"38.1","long":"58.35"}},{"country":"tm","city":"Kizyl-Su","coordinates":{"lat":"39.7983333","long":"53.0097222"}},{"country":"tm","city":"Kizyl-Turkmenistan","coordinates":{"lat":"37.7833333","long":"65.3166667"}},{"country":"tm","city":"Kochevka Keinli","coordinates":{"lat":"40.2","long":"52.7666667"}},{"country":"tm","city":"Kochevka Keinly","coordinates":{"lat":"40.2","long":"52.7666667"}},{"country":"tm","city":"Kochevka Toutly","coordinates":{"lat":"39.1833333","long":"56.55"}},{"country":"tm","city":"Kochev'ye Ata","coordinates":{"lat":"36.8272222","long":"61.0644444"}},{"country":"tm","city":"Kochev'ye Baba-Daykhan","coordinates":{"lat":"37.5166667","long":"60.5333333"}},{"country":"tm","city":"Kochev'ye Charykh","coordinates":{"lat":"37.7333333","long":"61.8"}},{"country":"tm","city":"Kochev'ye Kayli","coordinates":{"lat":"37.9166667","long":"60.1333333"}},{"country":"tm","city":"Kochev'ye Kozylyar","coordinates":{"lat":"37.5","long":"60.2166667"}},{"country":"tm","city":"Kochev'ye Ovaz Dzhalatay","coordinates":{"lat":"37.5","long":"60.2833333"}},{"country":"tm","city":"Kochev'yë Uchinchi-Kara-Yab","coordinates":{"lat":"37.7666667","long":"61.6"}},{"country":"tm","city":"Kochev'ye Yazygandzhik","coordinates":{"lat":"37.4","long":"60.3666667"}},{"country":"tm","city":"Koch","coordinates":{"lat":"38.8","long":"56.6"}},{"country":"tm","city":"Koch-Kor","coordinates":{"lat":"38.2666667","long":"57.6333333"}},{"country":"tm","city":"Kodsh","coordinates":{"lat":"38.8","long":"56.6"}},{"country":"tm","city":"Kodzha","coordinates":{"lat":"38.8","long":"56.6"}},{"country":"tm","city":"Kodzh","coordinates":{"lat":"38.8","long":"56.6"}},{"country":"tm","city":"Koinya-Kasyr","coordinates":{"lat":"38.2166667","long":"56.9166667"}},{"country":"tm","city":"Kokmiyar","coordinates":{"lat":"38.025","long":"66.1416667"}},{"country":"tm","city":"Kok-Say","coordinates":{"lat":"42.1166667","long":"53.4833333"}},{"country":"tm","city":"Kolkhozabag","coordinates":{"lat":"37.4072222","long":"66.3152778"}},{"country":"tm","city":"Kolkhoz Imeni Lenina","coordinates":{"lat":"38.0222222","long":"58.2666667"}},{"country":"tm","city":"Kolodets Attadzhan","coordinates":{"lat":"37.1666667","long":"61.7333333"}},{"country":"tm","city":"Kolyata","coordinates":{"lat":"38.2666667","long":"57.7166667"}},{"country":"tm","city":"Kommuna","coordinates":{"lat":"37.4666667","long":"60.5666667"}},{"country":"tm","city":"Kommuna","coordinates":{"lat":"41.5833333","long":"59.8"}},{"country":"tm","city":"Kommunist","coordinates":{"lat":"38.4813889","long":"64.1088889"}},{"country":"tm","city":"Kommunist","coordinates":{"lat":"37.5833333","long":"61.8166667"}},{"country":"tm","city":"Kommunizm","coordinates":{"lat":"37.6833333","long":"60.2666667"}},{"country":"tm","city":"Kommunizm","coordinates":{"lat":"41.8","long":"60.2333333"}},{"country":"tm","city":"Kommunizm","coordinates":{"lat":"37.9272222","long":"65.0975"}},{"country":"tm","city":"Kommunizm","coordinates":{"lat":"35.8833333","long":"63.0833333"}},{"country":"tm","city":"Komsomol","coordinates":{"lat":"37.3666667","long":"60.4166667"}},{"country":"tm","city":"Komsomol","coordinates":{"lat":"42.1666667","long":"59.5"}},{"country":"tm","city":"Komsomol","coordinates":{"lat":"37.4666667","long":"62.0666667"}},{"country":"tm","city":"Komsomol'sk","coordinates":{"lat":"39.0341667","long":"63.5958333"}},{"country":"tm","city":"Kone-Berme","coordinates":{"lat":"38.6333333","long":"56.9666667"}},{"country":"tm","city":"Kone-Borme","coordinates":{"lat":"38.6333333","long":"56.9666667"}},{"country":"tm","city":"Köneürgench","coordinates":{"lat":"42.3166667","long":"59.1666667"}},{"country":"tm","city":"Kopak-Chalak","coordinates":{"lat":"39.1166667","long":"63.45"}},{"country":"tm","city":"Kopekli","coordinates":{"lat":"41.8","long":"59.5"}},{"country":"tm","city":"Kora-Govok","coordinates":{"lat":"38.6","long":"56.6333333"}},{"country":"tm","city":"Kordzhou","coordinates":{"lat":"38.0666667","long":"58.0666667"}},{"country":"tm","city":"Kosha-Audan","coordinates":{"lat":"38.2","long":"57.8166667"}},{"country":"tm","city":"Koshadzha","coordinates":{"lat":"42.2","long":"59.3666667"}},{"country":"tm","city":"Koshagyr","coordinates":{"lat":"39.7833333","long":"54.6166667"}},{"country":"tm","city":"Koshakak","coordinates":{"lat":"38.75","long":"57.8"}},{"country":"tm","city":"Koshakaudan","coordinates":{"lat":"38.2","long":"57.8166667"}},{"country":"tm","city":"Koshakda","coordinates":{"lat":"42.2","long":"59.3666667"}},{"country":"tm","city":"Koshanda","coordinates":{"lat":"42.2","long":"59.3666667"}},{"country":"tm","city":"Koshkin","coordinates":{"lat":"39.45","long":"53.15"}},{"country":"tm","city":"Koshoba","coordinates":{"lat":"40.3333333","long":"54.2"}},{"country":"tm","city":"Koshtemir","coordinates":{"lat":"38.4166667","long":"56.6833333"}},{"country":"tm","city":"Kosh-Tepe","coordinates":{"lat":"38.8894444","long":"63.7447222"}},{"country":"tm","city":"Kotor Tepp","coordinates":{"lat":"39.45","long":"53.7"}},{"country":"tm","city":"Koturdepe","coordinates":{"lat":"39.45","long":"53.7"}},{"country":"tm","city":"Kotur-Tepe","coordinates":{"lat":"39.45","long":"53.7"}},{"country":"tm","city":"Koushok-Kyzyl-Takyr","coordinates":{"lat":"39.2666667","long":"58.8166667"}},{"country":"tm","city":"Koyno-Kumbez","coordinates":{"lat":"38.3833333","long":"56.95"}},{"country":"tm","city":"Koynya-Kasyr","coordinates":{"lat":"38.2166667","long":"56.9166667"}},{"country":"tm","city":"Koytendag","coordinates":{"lat":"37.5083333","long":"66.005"}},{"country":"tm","city":"Kozelkovskiy","coordinates":{"lat":"37.5166667","long":"62.1666667"}},{"country":"tm","city":"Kozgan-Kala","coordinates":{"lat":"37.35","long":"59.4333333"}},{"country":"tm","city":"Kozhandy","coordinates":{"lat":"42.2","long":"59.3666667"}},{"country":"tm","city":"Kozhe","coordinates":{"lat":"37.95","long":"60.0833333"}},{"country":"tm","city":"Krach","coordinates":{"lat":"39.2952778","long":"63.4030556"}},{"country":"tm","city":"Krachli","coordinates":{"lat":"40.4333333","long":"62.2833333"}},{"country":"tm","city":"Kranch","coordinates":{"lat":"40.4333333","long":"62.2833333"}},{"country":"tm","city":"Krasnovodsk","coordinates":{"lat":"40.0230556","long":"52.9697222"}},{"country":"tm","city":"Krasnowodsk","coordinates":{"lat":"40.0230556","long":"52.9697222"}},{"country":"tm","city":"Krasnoye Znamya","coordinates":{"lat":"36.9033333","long":"62.4788889"}},{"country":"tm","city":"Krasnoye Zunamya","coordinates":{"lat":"36.9033333","long":"62.4788889"}},{"country":"tm","city":"Krasnyy Oktyabr'","coordinates":{"lat":"37.3833333","long":"62.35"}},