[{"country":"sb","city":"Aakae","coordinates":{"lat":"-9.05","long":"161.2"}},{"country":"sb","city":"A'ama","coordinates":{"lat":"-8.35","long":"160.6333333"}},{"country":"sb","city":"A'ama","coordinates":{"lat":"-9.0833333","long":"160.15"}},{"country":"sb","city":"Aanosusura","coordinates":{"lat":"-8.6666667","long":"160.8666667"}},{"country":"sb","city":"A'arai","coordinates":{"lat":"-8.7833333","long":"160.9333333"}},{"country":"sb","city":"Aarite","coordinates":{"lat":"-9.8333333","long":"160.8333333"}},{"country":"sb","city":"Abalolo","coordinates":{"lat":"-8.9","long":"160.7666667"}},{"country":"sb","city":"Abe","coordinates":{"lat":"-8.6833333","long":"160.9666667"}},{"country":"sb","city":"Abira'adoa","coordinates":{"lat":"-8.6666667","long":"160.8833333"}},{"country":"sb","city":"Abu","coordinates":{"lat":"-8.7666667","long":"160.7"}},{"country":"sb","city":"Abungari","coordinates":{"lat":"-9.1833333","long":"160.9333333"}},{"country":"sb","city":"Adou","coordinates":{"lat":"-8.5666667","long":"160.9666667"}},{"country":"sb","city":"Ae'akwato","coordinates":{"lat":"-8.4166667","long":"160.8166667"}},{"country":"sb","city":"Aena","coordinates":{"lat":"-8.1166667","long":"156.6"}},{"country":"sb","city":"Aena'aiwasi","coordinates":{"lat":"-9.25","long":"161.0166667"}},{"country":"sb","city":"Aenaangingi","coordinates":{"lat":"-8.4166667","long":"160.65"}},{"country":"sb","city":"Aenakaro","coordinates":{"lat":"-9.0833333","long":"161.15"}},{"country":"sb","city":"Aenalite","coordinates":{"lat":"-8.5666667","long":"160.9666667"}},{"country":"sb","city":"Aenariki","coordinates":{"lat":"-9.2","long":"161.1166667"}},{"country":"sb","city":"Aenathaia","coordinates":{"lat":"-8.35","long":"160.65"}},{"country":"sb","city":"Aerotoro","coordinates":{"lat":"-9.3","long":"161.2"}},{"country":"sb","city":"Aesunia","coordinates":{"lat":"-9.05","long":"161.2"}},{"country":"sb","city":"Afudodo","coordinates":{"lat":"-8.5833333","long":"160.75"}},{"country":"sb","city":"Afufu","coordinates":{"lat":"-8.35","long":"160.5666667"}},{"country":"sb","city":"Afusalo","coordinates":{"lat":"-8.3666667","long":"160.75"}},{"country":"sb","city":"Afutala","coordinates":{"lat":"-9.1833333","long":"160.95"}},{"country":"sb","city":"Age","coordinates":{"lat":"-8.8","long":"160.95"}},{"country":"sb","city":"Ageraba","coordinates":{"lat":"-8.6","long":"160.8166667"}},{"country":"sb","city":"Ahanga","coordinates":{"lat":"-11.2666667","long":"159.7833333"}},{"country":"sb","city":"Ahatu","coordinates":{"lat":"-7.1","long":"155.7333333"}},{"country":"sb","city":"Ahboga","coordinates":{"lat":"-9.8","long":"160.3333333"}},{"country":"sb","city":"Ahenawai","coordinates":{"lat":"-9.6","long":"161.4166667"}},{"country":"sb","city":"Ahe'ohia","coordinates":{"lat":"-9.2166667","long":"161.2"}},{"country":"sb","city":"Ahesia","coordinates":{"lat":"-9.0666667","long":"161.1833333"}},{"country":"sb","city":"Ahi'a","coordinates":{"lat":"-10.2","long":"161.3"}},{"country":"sb","city":"Ahia","coordinates":{"lat":"-9.4166667","long":"161.25"}},{"country":"sb","city":"Ahi'a","coordinates":{"lat":"-9.8166667","long":"161.9333333"}},{"country":"sb","city":"Ahu'amu","coordinates":{"lat":"-9.15","long":"161.2333333"}},{"country":"sb","city":"Ahuu","coordinates":{"lat":"-9.4666667","long":"161.25"}},{"country":"sb","city":"Ai","coordinates":{"lat":"-10.3333333","long":"161.3333333"}},{"country":"sb","city":"Aiasi","coordinates":{"lat":"-8.55","long":"160.7333333"}},{"country":"sb","city":"'Aifaafasu","coordinates":{"lat":"-8.9166667","long":"161.0666667"}},{"country":"sb","city":"Aifiri","coordinates":{"lat":"-8.9333333","long":"161.0166667"}},{"country":"sb","city":"'Ailali","coordinates":{"lat":"-8.45","long":"160.8166667"}},{"country":"sb","city":"Ailau","coordinates":{"lat":"-8.9166667","long":"160.7666667"}},{"country":"sb","city":"'Aimburu","coordinates":{"lat":"-8.9","long":"161.0333333"}},{"country":"sb","city":"Aimela","coordinates":{"lat":"-8.3166667","long":"160.7"}},{"country":"sb","city":"'Aimela","coordinates":{"lat":"-8.7333333","long":"160.7"}},{"country":"sb","city":"Aimera","coordinates":{"lat":"-9.2833333","long":"161.1333333"}},{"country":"sb","city":"Ainiasi","coordinates":{"lat":"-9.1833333","long":"161.1166667"}},{"country":"sb","city":"'Ai Ni Mae","coordinates":{"lat":"-8.9","long":"161.0166667"}},{"country":"sb","city":"'Ainimae","coordinates":{"lat":"-8.9","long":"161.05"}},{"country":"sb","city":"Aio","coordinates":{"lat":"-8.2166667","long":"161.2333333"}},{"country":"sb","city":"'Aio","coordinates":{"lat":"-9.0333333","long":"161.2166667"}},{"country":"sb","city":"Airaea","coordinates":{"lat":"-9.2333333","long":"161.15"}},{"country":"sb","city":"'Airumu","coordinates":{"lat":"-8.95","long":"161.0333333"}},{"country":"sb","city":"Aisasale","coordinates":{"lat":"-8.6","long":"160.8166667"}},{"country":"sb","city":"Aisato","coordinates":{"lat":"-8.6833333","long":"160.95"}},{"country":"sb","city":"'Aisi'ina","coordinates":{"lat":"-8.9166667","long":"161.0166667"}},{"country":"sb","city":"Aisiko","coordinates":{"lat":"-8.8","long":"160.7833333"}},{"country":"sb","city":"Aisina","coordinates":{"lat":"-8.7166667","long":"160.95"}},{"country":"sb","city":"Aisisiki","coordinates":{"lat":"-8.55","long":"160.7333333"}},{"country":"sb","city":"Akwariri","coordinates":{"lat":"-8.3333333","long":"160.75"}},{"country":"sb","city":"Akwe","coordinates":{"lat":"-8.4833333","long":"160.6833333"}},{"country":"sb","city":"Alafe","coordinates":{"lat":"-8.6666667","long":"160.9833333"}},{"country":"sb","city":"Alahasiai","coordinates":{"lat":"-9.1333333","long":"161.1"}},{"country":"sb","city":"Alangakaula","coordinates":{"lat":"-10.25","long":"161.7333333"}},{"country":"sb","city":"Alangaula","coordinates":{"lat":"-10.25","long":"161.7333333"}},{"country":"sb","city":"Alavugu","coordinates":{"lat":"-9.8833333","long":"160.7666667"}},{"country":"sb","city":"Alialia","coordinates":{"lat":"-9.1","long":"159.8166667"}},{"country":"sb","city":"Alialiala","coordinates":{"lat":"-9.1","long":"159.8166667"}},{"country":"sb","city":"Aliali","coordinates":{"lat":"-9.6","long":"160.2333333"}},{"country":"sb","city":"Aligegeo","coordinates":{"lat":"-8.75","long":"160.6833333"}},{"country":"sb","city":"Alikata","coordinates":{"lat":"-8.7666667","long":"160.7666667"}},{"country":"sb","city":"Alita","coordinates":{"lat":"-9.8333333","long":"160.8333333"}},{"country":"sb","city":"Alite'au","coordinates":{"lat":"-8.4666667","long":"160.6666667"}},{"country":"sb","city":"Alligator Creek","coordinates":{"lat":"-9.4166667","long":"160.0666667"}},{"country":"sb","city":"Alogha","coordinates":{"lat":"-9.4","long":"159.6"}},{"country":"sb","city":"Aloha","coordinates":{"lat":"-9.4","long":"159.6"}},{"country":"sb","city":"Alosolo","coordinates":{"lat":"-9.7833333","long":"160.1666667"}},{"country":"sb","city":"Alotatahoma","coordinates":{"lat":"-9.6833333","long":"160.1333333"}},{"country":"sb","city":"Alundava","coordinates":{"lat":"-9.8","long":"160.2666667"}},{"country":"sb","city":"Ama","coordinates":{"lat":"-9.0833333","long":"160.15"}},{"country":"sb","city":"Ama'ama","coordinates":{"lat":"-9.1","long":"161.2333333"}},{"country":"sb","city":"Amba","coordinates":{"lat":"-11.2666667","long":"166.5"}},{"country":"sb","city":"Ambi","coordinates":{"lat":"-11.6833333","long":"166.8166667"}},{"country":"sb","city":"Amboiosi","coordinates":{"lat":"-8.9166667","long":"161.0166667"}},{"country":"sb","city":"Ambuambili","coordinates":{"lat":"-9.4333333","long":"160.15"}},{"country":"sb","city":"Ambuasu","coordinates":{"lat":"-8.3666667","long":"160.6333333"}},{"country":"sb","city":"Ambuavao","coordinates":{"lat":"-9.4333333","long":"160.2166667"}},{"country":"sb","city":"'Ambungali","coordinates":{"lat":"-8.9666667","long":"160.75"}},{"country":"sb","city":"Ambuporondavi","coordinates":{"lat":"-9.55","long":"160.3666667"}},{"country":"sb","city":"Anakelo","coordinates":{"lat":"-8.5666667","long":"160.7333333"}},{"country":"sb","city":"Anata","coordinates":{"lat":"-10.3333333","long":"161.35"}},{"country":"sb","city":"Andandaiesi","coordinates":{"lat":"-8.3166667","long":"160.6"}},{"country":"sb","city":"Anda'ua","coordinates":{"lat":"-8.3833333","long":"160.7333333"}},{"country":"sb","city":"Andeande","coordinates":{"lat":"-9.4666667","long":"160.45"}},{"country":"sb","city":"Andevadhu","coordinates":{"lat":"-9.55","long":"160.3666667"}},{"country":"sb","city":"Andi","coordinates":{"lat":"-8.3666667","long":"160.6166667"}},{"country":"sb","city":"Andina","coordinates":{"lat":"-9.1166667","long":"159.2166667"}},{"country":"sb","city":"Ane'efafako","coordinates":{"lat":"-8.9166667","long":"161.05"}},{"country":"sb","city":"Angali","coordinates":{"lat":"-9.5333333","long":"161.4833333"}},{"country":"sb","city":"Anggia","coordinates":{"lat":"-9.0","long":"161.15"}},{"country":"sb","city":"Angoango","coordinates":{"lat":"-9.7833333","long":"160.1666667"}},{"country":"sb","city":"Aniuke","coordinates":{"lat":"-8.3333333","long":"160.6"}},{"country":"sb","city":"Anoano","coordinates":{"lat":"-8.9833333","long":"160.7666667"}},{"country":"sb","city":"Anofai","coordinates":{"lat":"-8.55","long":"160.8833333"}},{"country":"sb","city":"Anofalake","coordinates":{"lat":"-8.6333333","long":"160.7166667"}},{"country":"sb","city":"Anoketo","coordinates":{"lat":"-8.45","long":"160.8166667"}},{"country":"sb","city":"Anokwakwale","coordinates":{"lat":"-8.6333333","long":"161.0"}},{"country":"sb","city":"Anokwasi","coordinates":{"lat":"-8.3833333","long":"160.5666667"}},{"country":"sb","city":"Anoni'usu","coordinates":{"lat":"-9.6333333","long":"161.5333333"}},{"country":"sb","city":"Anotole","coordinates":{"lat":"-9.6833333","long":"161.4333333"}},{"country":"sb","city":"Anuta","coordinates":{"lat":"-10.3333333","long":"161.35"}},{"country":"sb","city":"Anutaiasi","coordinates":{"lat":"-9.35","long":"161.1333333"}},{"country":"sb","city":"Aoani'iru","coordinates":{"lat":"-9.1","long":"161.15"}},{"country":"sb","city":"Aola","coordinates":{"lat":"-9.5333333","long":"160.4833333"}},{"country":"sb","city":"Aona","coordinates":{"lat":"-9.3333333","long":"161.15"}},{"country":"sb","city":"A'opasi","coordinates":{"lat":"-9.35","long":"161.2166667"}},{"country":"sb","city":"Aopasi","coordinates":{"lat":"-9.5","long":"161.4833333"}},{"country":"sb","city":"Apakhö","coordinates":{"lat":"-11.3","long":"166.4666667"}},{"country":"sb","city":"Apaone","coordinates":{"lat":"-10.2666667","long":"161.7333333"}},{"country":"sb","city":"Apaora","coordinates":{"lat":"-10.55","long":"161.5"}},{"country":"sb","city":"Apaoro","coordinates":{"lat":"-10.55","long":"161.5"}},{"country":"sb","city":"Apauni","coordinates":{"lat":"-10.2666667","long":"161.7333333"}},{"country":"sb","city":"Apio","coordinates":{"lat":"-9.6166667","long":"161.4"}},{"country":"sb","city":"Apuara","coordinates":{"lat":"-9.4","long":"161.4166667"}},{"country":"sb","city":"Apuiraramua","coordinates":{"lat":"-9.2833333","long":"161.1833333"}},{"country":"sb","city":"Apunahunu","coordinates":{"lat":"-9.1833333","long":"161.1833333"}},{"country":"sb","city":"Apurahe","coordinates":{"lat":"-10.7","long":"161.7166667"}},{"country":"sb","city":"Apurahi","coordinates":{"lat":"-10.7","long":"161.7166667"}},{"country":"sb","city":"Ara'arauna","coordinates":{"lat":"-9.0166667","long":"161.05"}},{"country":"sb","city":"Arabala","coordinates":{"lat":"-8.8833333","long":"160.75"}},{"country":"sb","city":"Arabale","coordinates":{"lat":"-8.8833333","long":"160.75"}},{"country":"sb","city":"Arairou","coordinates":{"lat":"-9.2833333","long":"161.0333333"}},{"country":"sb","city":"Araki","coordinates":{"lat":"-8.5166667","long":"160.9166667"}},{"country":"sb","city":"Arambu","coordinates":{"lat":"-11.6","long":"166.8833333"}},{"country":"sb","city":"Aranimamu","coordinates":{"lat":"-9.4666667","long":"161.2333333"}},{"country":"sb","city":"Arao","coordinates":{"lat":"-8.4833333","long":"160.6833333"}},{"country":"sb","city":"Ara'ou","coordinates":{"lat":"-9.0833333","long":"161.1833333"}},{"country":"sb","city":"Araro Puti","coordinates":{"lat":"-9.45","long":"159.9333333"}},{"country":"sb","city":"Arasi","coordinates":{"lat":"-9.1833333","long":"161.1833333"}},{"country":"sb","city":"Araumana","coordinates":{"lat":"-9.3166667","long":"161.1"}},{"country":"sb","city":"Araveu","coordinates":{"lat":"-9.3666667","long":"159.8666667"}},{"country":"sb","city":"Arinapa'ewa","coordinates":{"lat":"-9.1833333","long":"161.25"}},{"country":"sb","city":"Aroaha","coordinates":{"lat":"-9.7333333","long":"161.95"}},{"country":"sb","city":"Aro","coordinates":{"lat":"-9.4","long":"159.6166667"}},{"country":"sb","city":"Aroaro","coordinates":{"lat":"-9.4166667","long":"160.3333333"}},{"country":"sb","city":"Arohane","coordinates":{"lat":"-10.4666667","long":"161.95"}},{"country":"sb","city":"Arona","coordinates":{"lat":"-9.2333333","long":"161.2166667"}},{"country":"sb","city":"Arovachivi","coordinates":{"lat":"-9.9","long":"160.65"}},{"country":"sb","city":"Arovia","coordinates":{"lat":"-9.7166667","long":"160.2166667"}},{"country":"sb","city":"Aruligo","coordinates":{"lat":"-9.2833333","long":"159.7666667"}},{"country":"sb","city":"Aruliho","coordinates":{"lat":"-9.2833333","long":"159.7666667"}},{"country":"sb","city":"Asaibala","coordinates":{"lat":"-8.6","long":"160.85"}},{"country":"sb","city":"Asibonga","coordinates":{"lat":"-8.7833333","long":"160.8833333"}},{"country":"sb","city":"Asimaenioha","coordinates":{"lat":"-10.2333333","long":"161.4833333"}},{"country":"sb","city":"Asimana","coordinates":{"lat":"-9.15","long":"160.8666667"}},{"country":"sb","city":"Asimanioha","coordinates":{"lat":"-10.2333333","long":"161.4833333"}},{"country":"sb","city":"Asimboa","coordinates":{"lat":"-11.3","long":"166.4666667"}},{"country":"sb","city":"Assimaniona","coordinates":{"lat":"-10.2333333","long":"161.4833333"}},{"country":"sb","city":"Ato","coordinates":{"lat":"-8.4833333","long":"160.9"}},{"country":"sb","city":"Ato","coordinates":{"lat":"-9.4","long":"159.6166667"}},{"country":"sb","city":"Atohau","coordinates":{"lat":"-9.0","long":"161.15"}},{"country":"sb","city":"Ato'ifi","coordinates":{"lat":"-8.85","long":"161.0166667"}},{"country":"sb","city":"Atonihare","coordinates":{"lat":"-9.2333333","long":"161.1666667"}},{"country":"sb","city":"Atori","coordinates":{"lat":"-8.7333333","long":"160.95"}},{"country":"sb","city":"Atuatu","coordinates":{"lat":"-8.3666667","long":"160.5666667"}},{"country":"sb","city":"Au'alu","coordinates":{"lat":"-8.2666667","long":"159.55"}},{"country":"sb","city":"Auangisia","coordinates":{"lat":"-8.5","long":"160.8"}},{"country":"sb","city":"Au","coordinates":{"lat":"-8.6333333","long":"157.2666667"}},{"country":"sb","city":"Au","coordinates":{"lat":"-9.4166667","long":"160.3333333"}},{"country":"sb","city":"Aujivigno","coordinates":{"lat":"-11.3","long":"166.4666667"}},{"country":"sb","city":"Auke","coordinates":{"lat":"-8.7666667","long":"160.7"}},{"country":"sb","city":"Auki","coordinates":{"lat":"-8.7666667","long":"160.7"}},{"country":"sb","city":"Aula","coordinates":{"lat":"-9.5333333","long":"160.4833333"}},{"country":"sb","city":"A'ulupeine","coordinates":{"lat":"-9.6833333","long":"161.5666667"}},{"country":"sb","city":"Aupono","coordinates":{"lat":"-9.05","long":"161.1833333"}},{"country":"sb","city":"Ausi","coordinates":{"lat":"-9.1","long":"161.1"}},{"country":"sb","city":"Avisi","coordinates":{"lat":"-9.7166667","long":"159.7333333"}},{"country":"sb","city":"Avita","coordinates":{"lat":"-11.2333333","long":"166.4666667"}},{"country":"sb","city":"Avuavu","coordinates":{"lat":"-9.8333333","long":"160.3666667"}},{"country":"sb","city":"Avu Avu","coordinates":{"lat":"-9.8333333","long":"160.3833333"}},{"country":"sb","city":"Avuavu Mission","coordinates":{"lat":"-9.8333333","long":"160.3666667"}},{"country":"sb","city":"Awale","coordinates":{"lat":"-9.6166667","long":"159.6666667"}},{"country":"sb","city":"Awanararu","coordinates":{"lat":"-9.8333333","long":"160.8666667"}},{"country":"sb","city":"Bacalwallo","coordinates":{"lat":"-9.4","long":"160.3333333"}},{"country":"sb","city":"Bagarai","coordinates":{"lat":"-10.8166667","long":"162.05"}},{"country":"sb","city":"Bagarice","coordinates":{"lat":"-9.5666667","long":"160.1666667"}},{"country":"sb","city":"Bagharai","coordinates":{"lat":"-10.8166667","long":"162.05"}},{"country":"sb","city":"Baghovu","coordinates":{"lat":"-8.2","long":"159.6666667"}},{"country":"sb","city":"Bahi","coordinates":{"lat":"-9.3","long":"159.6"}},{"country":"sb","city":"Bakofu","coordinates":{"lat":"-8.5166667","long":"160.7166667"}},{"country":"sb","city":"Balasu'u","coordinates":{"lat":"-9.5666667","long":"161.55"}},{"country":"sb","city":"Balegoma","coordinates":{"lat":"-9.6666667","long":"159.7"}},{"country":"sb","city":"Balo","coordinates":{"lat":"-9.5333333","long":"160.4833333"}},{"country":"sb","city":"Balu","coordinates":{"lat":"-7.1666667","long":"157.05"}},{"country":"sb","city":"Bambala","coordinates":{"lat":"-9.4166667","long":"160.3"}},{"country":"sb","city":"Bangara","coordinates":{"lat":"-6.8","long":"156.8333333"}},{"country":"sb","city":"Baniath","coordinates":{"lat":"-8.6333333","long":"157.2666667"}},{"country":"sb","city":"Banimbari","coordinates":{"lat":"-6.6666667","long":"156.6166667"}},{"country":"sb","city":"Banisokeo","coordinates":{"lat":"-7.9833333","long":"159.3333333"}},{"country":"sb","city":"Baolo","coordinates":{"lat":"-7.65","long":"158.8"}},{"country":"sb","city":"Bara","coordinates":{"lat":"-8.1833333","long":"159.6"}},{"country":"sb","city":"Barakoma","coordinates":{"lat":"-7.9","long":"156.6833333"}},{"country":"sb","city":"Barokoma","coordinates":{"lat":"-7.9","long":"156.6833333"}},{"country":"sb","city":"Baroni","coordinates":{"lat":"-8.95","long":"160.0833333"}},{"country":"sb","city":"Batongo","coordinates":{"lat":"-6.9833333","long":"157.0833333"}},{"country":"sb","city":"Batuna","coordinates":{"lat":"-8.55","long":"158.1166667"}},{"country":"sb","city":"Batuna Mission Station","coordinates":{"lat":"-8.55","long":"158.1166667"}},{"country":"sb","city":"Batun Mission","coordinates":{"lat":"-8.55","long":"158.1166667"}},{"country":"sb","city":"Baunani","coordinates":{"lat":"-9.1333333","long":"160.85"}},{"country":"sb","city":"Baunuani","coordinates":{"lat":"-9.1333333","long":"160.85"}},{"country":"sb","city":"Behelula","coordinates":{"lat":"-9.9","long":"160.6833333"}},{"country":"sb","city":"Beholua","coordinates":{"lat":"-9.9","long":"160.6833333"}},{"country":"sb","city":"Belaga","coordinates":{"lat":"-9.0666667","long":"160.3333333"}},{"country":"sb","city":"Belama","coordinates":{"lat":"-8.4","long":"160.6"}},{"country":"sb","city":"Belana","coordinates":{"lat":"-9.5833333","long":"160.0833333"}},{"country":"sb","city":"Belatasi","coordinates":{"lat":"-9.9","long":"160.5166667"}},{"country":"sb","city":"Belati","coordinates":{"lat":"-9.5833333","long":"160.3333333"}},{"country":"sb","city":"Beluga","coordinates":{"lat":"-9.5666667","long":"160.35"}},{"country":"sb","city":"Bema","coordinates":{"lat":"-10.7","long":"165.75"}},{"country":"sb","city":"Bengena","coordinates":{"lat":"-9.7166667","long":"159.75"}},{"country":"sb","city":"Berapa","coordinates":{"lat":"-8.4833333","long":"157.4"}},{"country":"sb","city":"Bethany","coordinates":{"lat":"-8.3","long":"157.1166667"}},{"country":"sb","city":"Bia","coordinates":{"lat":"-10.3666667","long":"161.4833333"}},{"country":"sb","city":"Bifonu","coordinates":{"lat":"-8.55","long":"160.7"}},{"country":"sb","city":"Bili","coordinates":{"lat":"-8.65","long":"158.2"}},{"country":"sb","city":"Biliha","coordinates":{"lat":"-8.1833333","long":"159.6166667"}},{"country":"sb","city":"Bilikovu","coordinates":{"lat":"-9.6833333","long":"159.7166667"}},{"country":"sb","city":"Bili Village","coordinates":{"lat":"-8.65","long":"158.2"}},{"country":"sb","city":"Biloa","coordinates":{"lat":"-7.9333333","long":"156.7"}},{"country":"sb","city":"Bilua","coordinates":{"lat":"-7.9333333","long":"156.7"}},{"country":"sb","city":"Biluro","coordinates":{"lat":"-8.2833333","long":"159.4333333"}},{"country":"sb","city":"Bina","coordinates":{"lat":"-8.9166667","long":"160.7666667"}},{"country":"sb","city":"Bina Mission","coordinates":{"lat":"-8.9166667","long":"160.7666667"}},{"country":"sb","city":"Bio","coordinates":{"lat":"-8.65","long":"160.6666667"}},{"country":"sb","city":"Biporo","coordinates":{"lat":"-7.7333333","long":"156.7833333"}},{"country":"sb","city":"Bira","coordinates":{"lat":"-9.1833333","long":"160.95"}},{"country":"sb","city":"Birambira","coordinates":{"lat":"-6.7833333","long":"156.5"}},{"country":"sb","city":"Birasu","coordinates":{"lat":"-9.1333333","long":"159.8333333"}},{"country":"sb","city":"Bitama","coordinates":{"lat":"-8.4","long":"160.6"}},{"country":"sb","city":"Biti","coordinates":{"lat":"-9.7833333","long":"159.9"}},{"country":"sb","city":"Boe","coordinates":{"lat":"-7.0833333","long":"156.8166667"}},{"country":"sb","city":"Boemboe","coordinates":{"lat":"-7.4","long":"157.3833333"}},{"country":"sb","city":"Boinio","coordinates":{"lat":"-7.8666667","long":"159.0666667"}},{"country":"sb","city":"Boitsatsu","coordinates":{"lat":"-9.3666667","long":"159.8166667"}},{"country":"sb","city":"Bokoagau","coordinates":{"lat":"-9.4166667","long":"160.3833333"}},{"country":"sb","city":"Bokola","coordinates":{"lat":"-9.6666667","long":"160.65"}},{"country":"sb","city":"Bokolo","coordinates":{"lat":"-8.3166667","long":"159.8333333"}},{"country":"sb","city":"Bola","coordinates":{"lat":"-9.6166667","long":"160.65"}},{"country":"sb","city":"Bolitei","coordinates":{"lat":"-7.85","long":"159.0166667"}},{"country":"sb","city":"Bolonda","coordinates":{"lat":"-9.7833333","long":"159.9166667"}},{"country":"sb","city":"Bomboe","coordinates":{"lat":"-8.15","long":"157.1"}},{"country":"sb","city":"Bomboe Village","coordinates":{"lat":"-8.15","long":"157.1"}},{"country":"sb","city":"Bonala","coordinates":{"lat":"-9.1166667","long":"159.8333333"}},{"country":"sb","city":"Boro","coordinates":{"lat":"-7.5666667","long":"156.6333333"}},{"country":"sb","city":"Borohinaba","coordinates":{"lat":"-9.0166667","long":"160.25"}},{"country":"sb","city":"Boromoli","coordinates":{"lat":"-9.05","long":"160.3"}},{"country":"sb","city":"Boroni","coordinates":{"lat":"-8.95","long":"160.0833333"}},{"country":"sb","city":"Boubosu","coordinates":{"lat":"-8.3","long":"159.7833333"}},{"country":"sb","city":"Buala","coordinates":{"lat":"-8.1333333","long":"159.5833333"}},{"country":"sb","city":"Buga","coordinates":{"lat":"-8.25","long":"159.7333333"}},{"country":"sb","city":"Bugawahu","coordinates":{"lat":"-10.6","long":"161.6166667"}},{"country":"sb","city":"Bula'abu","coordinates":{"lat":"-8.9","long":"160.7333333"}},{"country":"sb","city":"Bulabu","coordinates":{"lat":"-8.9","long":"160.7333333"}},{"country":"sb","city":"Bula","coordinates":{"lat":"-8.85","long":"160.7333333"}},{"country":"sb","city":"Bulai","coordinates":{"lat":"-9.1166667","long":"159.8333333"}},{"country":"sb","city":"Buma","coordinates":{"lat":"-11.6166667","long":"166.95"}},{"country":"sb","city":"Buma","coordinates":{"lat":"-8.6666667","long":"160.6833333"}},{"country":"sb","city":"Bumbugaro","coordinates":{"lat":"-9.5833333","long":"160.3333333"}},{"country":"sb","city":"Bumbugoro","coordinates":{"lat":"-9.5833333","long":"160.3333333"}},{"country":"sb","city":"Bumbukuana","coordinates":{"lat":"-6.7333333","long":"156.7"}},{"country":"sb","city":"Buna","coordinates":{"lat":"-8.25","long":"159.7333333"}},{"country":"sb","city":"Bunala","coordinates":{"lat":"-9.1166667","long":"159.8333333"}},{"country":"sb","city":"Bungusile","coordinates":{"lat":"-8.5","long":"159.6666667"}},{"country":"sb","city":"Burianiasi","coordinates":{"lat":"-8.65","long":"160.9833333"}},{"country":"sb","city":"Busu","coordinates":{"lat":"-8.8833333","long":"160.7333333"}},{"country":"sb","city":"Busukwa'e","coordinates":{"lat":"-8.7166667","long":"160.9"}},{"country":"sb","city":"Busuone","coordinates":{"lat":"-8.7666667","long":"160.8333333"}},{"country":"sb","city":"Bwaomarau","coordinates":{"lat":"-10.5333333","long":"162.1166667"}},{"country":"sb","city":"Bwaroo","coordinates":{"lat":"-10.5","long":"162.0"}},{"country":"sb","city":"Bwaunasughu","coordinates":{"lat":"-10.45","long":"161.9"}},{"country":"sb","city":"Bwaunasu'u","coordinates":{"lat":"-10.45","long":"161.9"}},{"country":"sb","city":"Bweinaniawarikiapu","coordinates":{"lat":"-10.5666667","long":"161.8666667"}},{"country":"sb","city":"Caledonia","coordinates":{"lat":"-9.4","long":"160.1666667"}},{"country":"sb","city":"Canaan","coordinates":{"lat":"-8.2833333","long":"157.4166667"}},{"country":"sb","city":"Canaan","coordinates":{"lat":"-8.8333333","long":"161.0"}},{"country":"sb","city":"Chachara","coordinates":{"lat":"-9.6833333","long":"159.7166667"}},{"country":"sb","city":"Chaghoe","coordinates":{"lat":"-9.6","long":"159.6666667"}},{"country":"sb","city":"Chahoga","coordinates":{"lat":"-9.25","long":"159.7"}},{"country":"sb","city":"Chakundale","coordinates":{"lat":"-9.75","long":"159.8833333"}},{"country":"sb","city":"Chaliaru","coordinates":{"lat":"-9.7","long":"159.95"}},{"country":"sb","city":"Chalimpale","coordinates":{"lat":"-9.8","long":"160.0666667"}},{"country":"sb","city":"Chamburu","coordinates":{"lat":"-9.25","long":"159.6833333"}},{"country":"sb","city":"Chapana","coordinates":{"lat":"-9.7166667","long":"159.7333333"}},{"country":"sb","city":"Chapunamo","coordinates":{"lat":"-9.7333333","long":"159.7666667"}},{"country":"sb","city":"Chapuru","coordinates":{"lat":"-9.25","long":"159.7166667"}},{"country":"sb","city":"Charanggao","coordinates":{"lat":"-9.8","long":"160.2333333"}},{"country":"sb","city":"Charanimate","coordinates":{"lat":"-9.7333333","long":"159.85"}},{"country":"sb","city":"Charavutu","coordinates":{"lat":"-9.8","long":"160.2833333"}},{"country":"sb","city":"Charihaivati","coordinates":{"lat":"-9.5666667","long":"160.15"}},{"country":"sb","city":"Chariko","coordinates":{"lat":"-9.5833333","long":"160.25"}},{"country":"sb","city":"Chari Ndoke","coordinates":{"lat":"-9.5333333","long":"160.1166667"}},{"country":"sb","city":"Chaukandora","coordinates":{"lat":"-9.7","long":"159.8833333"}},{"country":"sb","city":"Chaunaroga","coordinates":{"lat":"-9.7833333","long":"159.95"}},{"country":"sb","city":"Chaunarogha","coordinates":{"lat":"-9.7833333","long":"159.95"}},{"country":"sb","city":"Chauneroga","coordinates":{"lat":"-9.7833333","long":"159.95"}},{"country":"sb","city":"Chautivi","coordinates":{"lat":"-9.65","long":"160.3666667"}},{"country":"sb","city":"Chavunggao","coordinates":{"lat":"-9.35","long":"159.5833333"}},{"country":"sb","city":"Chea","coordinates":{"lat":"-8.5","long":"158.0166667"}},{"country":"sb","city":"Checheche","coordinates":{"lat":"-9.8166667","long":"160.3833333"}},{"country":"sb","city":"Cheke","coordinates":{"lat":"-8.5166667","long":"158.0833333"}},{"country":"sb","city":"Cheli","coordinates":{"lat":"-9.4833333","long":"159.5833333"}},{"country":"sb","city":"Chelu","coordinates":{"lat":"-9.8","long":"160.2333333"}},{"country":"sb","city":"Chemoho","coordinates":{"lat":"-8.5166667","long":"157.9333333"}},{"country":"sb","city":"Chili","coordinates":{"lat":"-9.5666667","long":"160.4166667"}},{"country":"sb","city":"Chimbakoghe","coordinates":{"lat":"-9.7666667","long":"159.8833333"}},{"country":"sb","city":"Chimbori","coordinates":{"lat":"-9.8166667","long":"160.4166667"}},{"country":"sb","city":"Chinatown","coordinates":{"lat":"-9.1","long":"160.15"}},{"country":"sb","city":"Chiri","coordinates":{"lat":"-9.45","long":"159.8166667"}},{"country":"sb","city":"Chirovanga","coordinates":{"lat":"-6.65","long":"156.5666667"}},{"country":"sb","city":"Chivoko","coordinates":{"lat":"-6.6333333","long":"156.55"}},{"country":"sb","city":"Chocho","coordinates":{"lat":"-9.7666667","long":"159.8833333"}},{"country":"sb","city":"Chochokiki","coordinates":{"lat":"-9.5166667","long":"159.6"}},{"country":"sb","city":"Choghiri","coordinates":{"lat":"-9.8","long":"160.1833333"}},{"country":"sb","city":"Choha","coordinates":{"lat":"-9.6166667","long":"160.2333333"}},{"country":"sb","city":"Chokare","coordinates":{"lat":"-9.5833333","long":"160.4166667"}},{"country":"sb","city":"Chombonavaka","coordinates":{"lat":"-9.5833333","long":"159.65"}},{"country":"sb","city":"Chombu","coordinates":{"lat":"-8.7","long":"157.9"}},{"country":"sb","city":"Chörovanga","coordinates":{"lat":"-6.65","long":"156.5666667"}},{"country":"sb","city":"Chouna","coordinates":{"lat":"-9.6666667","long":"160.2333333"}},{"country":"sb","city":"Chuchulu","coordinates":{"lat":"-8.5","long":"157.9"}},{"country":"sb","city":"Chukakonia","coordinates":{"lat":"-9.8166667","long":"160.6333333"}},{"country":"sb","city":"Chuma","coordinates":{"lat":"-9.7666667","long":"160.2833333"}},{"country":"sb","city":"Chupuchupu","coordinates":{"lat":"-9.8166667","long":"160.4"}},{"country":"sb","city":"Chuva","coordinates":{"lat":"-9.5","long":"160.1833333"}},{"country":"sb","city":"Daboko","coordinates":{"lat":"-9.3333333","long":"159.8333333"}},{"country":"sb","city":"Dada'isalu","coordinates":{"lat":"-8.7","long":"160.7"}},{"country":"sb","city":"Dadaku'ulua","coordinates":{"lat":"-8.55","long":"160.7"}},{"country":"sb","city":"Dadale","coordinates":{"lat":"-8.1166667","long":"159.1166667"}},{"country":"sb","city":"Dai","coordinates":{"lat":"-8.05","long":"156.6333333"}},{"country":"sb","city":"Dala","coordinates":{"lat":"-8.5833333","long":"160.6666667"}},{"country":"sb","city":"Dalamata","coordinates":{"lat":"-8.6666667","long":"160.6833333"}},{"country":"sb","city":"Daolusu","coordinates":{"lat":"-8.85","long":"160.7333333"}},{"country":"sb","city":"Dara","coordinates":{"lat":"-7.05","long":"156.7833333"}},{"country":"sb","city":"Daringali","coordinates":{"lat":"-8.5333333","long":"160.9166667"}},{"country":"sb","city":"Darione","coordinates":{"lat":"-8.7","long":"160.8833333"}},{"country":"sb","city":"Dau","coordinates":{"lat":"-8.6333333","long":"160.75"}},{"country":"sb","city":"Dauta'e","coordinates":{"lat":"-8.9333333","long":"161.0666667"}},{"country":"sb","city":"Dedeu","coordinates":{"lat":"-7.95","long":"158.8666667"}},{"country":"sb","city":"Dende","coordinates":{"lat":"-9.15","long":"160.2833333"}},{"country":"sb","city":"Dhadhaje","coordinates":{"lat":"-8.5166667","long":"159.8"}},{"country":"sb","city":"Dhavoa","coordinates":{"lat":"-9.4666667","long":"160.3666667"}},{"country":"sb","city":"Dikona'ara","coordinates":{"lat":"-8.3166667","long":"160.8166667"}},{"country":"sb","city":"Dinare","coordinates":{"lat":"-9.1666667","long":"160.9166667"}},{"country":"sb","city":"Dingodingo","coordinates":{"lat":"-8.75","long":"160.9"}},{"country":"sb","city":"Dinoveek","coordinates":{"lat":"-9.1","long":"159.8166667"}},{"country":"sb","city":"Di'una","coordinates":{"lat":"-10.35","long":"161.3"}},{"country":"sb","city":"Doma","coordinates":{"lat":"-9.3166667","long":"159.8"}},{"country":"sb","city":"Domma","coordinates":{"lat":"-9.3166667","long":"159.8"}},{"country":"sb","city":"Domu","coordinates":{"lat":"-8.2333333","long":"159.55"}},{"country":"sb","city":"Down Wind","coordinates":{"lat":"-8.2833333","long":"159.75"}},{"country":"sb","city":"Dubona","coordinates":{"lat":"-9.4833333","long":"159.6"}},{"country":"sb","city":"Duindui","coordinates":{"lat":"-9.8","long":"159.9666667"}},{"country":"sb","city":"Dukwasi","coordinates":{"lat":"-8.75","long":"160.85"}},{"country":"sb","city":"Dundurava","coordinates":{"lat":"-7.1166667","long":"157.15"}},{"country":"sb","city":"Egelo","coordinates":{"lat":"-8.4","long":"157.3666667"}},{"country":"sb","city":"Eghelo","coordinates":{"lat":"-8.4","long":"157.3666667"}},{"country":"sb","city":"Eke","coordinates":{"lat":"-9.3833333","long":"161.1833333"}},{"country":"sb","city":"Eleoteve","coordinates":{"lat":"-7.8166667","long":"156.75"}},{"country":"sb","city":"Eliotavi","coordinates":{"lat":"-7.8166667","long":"156.75"}},{"country":"sb","city":"Eliote","coordinates":{"lat":"-9.5333333","long":"161.4"}},{"country":"sb","city":"Ena","coordinates":{"lat":"-8.1166667","long":"156.6"}},{"country":"sb","city":"Enara","coordinates":{"lat":"-6.6833333","long":"156.65"}},{"country":"sb","city":"Enarano","coordinates":{"lat":"-8.3","long":"157.2333333"}},{"country":"sb","city":"Engarano","coordinates":{"lat":"-8.3","long":"157.2333333"}},{"country":"sb","city":"'Ere Amsuli","coordinates":{"lat":"-8.7666667","long":"160.7666667"}},{"country":"sb","city":"'Ere'eresulu","coordinates":{"lat":"-8.7666667","long":"160.7666667"}},{"country":"sb","city":"Erenahata","coordinates":{"lat":"-9.2166667","long":"161.2"}},{"country":"sb","city":"Etamarorai","coordinates":{"lat":"-10.2666667","long":"161.5333333"}},{"country":"sb","city":"'Eteala","coordinates":{"lat":"-8.95","long":"161.0166667"}},{"country":"sb","city":"Etehonu","coordinates":{"lat":"-9.2666667","long":"161.2166667"}},{"country":"sb","city":"Etei'a","coordinates":{"lat":"-9.0666667","long":"161.2"}},{"country":"sb","city":"Etemwarore","coordinates":{"lat":"-10.2666667","long":"161.5333333"}},{"country":"sb","city":"Euro","coordinates":{"lat":"-9.7833333","long":"159.8166667"}},{"country":"sb","city":"Euru","coordinates":{"lat":"-9.7833333","long":"159.8166667"}},{"country":"sb","city":"Faalau","coordinates":{"lat":"-8.5","long":"160.7"}},{"country":"sb","city":"Faandile","coordinates":{"lat":"-8.45","long":"160.75"}},{"country":"sb","city":"Fa'arau","coordinates":{"lat":"-8.85","long":"160.7333333"}},{"country":"sb","city":"Faasaale","coordinates":{"lat":"-8.5166667","long":"160.7166667"}},{"country":"sb","city":"Fa'asileta","coordinates":{"lat":"-8.6666667","long":"160.9333333"}},{"country":"sb","city":"Fafa'idodo","coordinates":{"lat":"-8.75","long":"160.8833333"}},{"country":"sb","city":"Fafa'ikafo","coordinates":{"lat":"-8.6","long":"160.8"}},{"country":"sb","city":"Fafaiona","coordinates":{"lat":"-8.9333333","long":"161.0166667"}},{"country":"sb","city":"Fafalona","coordinates":{"lat":"-8.9333333","long":"161.0166667"}},{"country":"sb","city":"Fagani","coordinates":{"lat":"-10.3333333","long":"161.6166667"}},{"country":"sb","city":"Fageifa","coordinates":{"lat":"-10.85","long":"162.35"}},{"country":"sb","city":"Fagheifa","coordinates":{"lat":"-10.85","long":"162.35"}},{"country":"sb","city":"Fagini","coordinates":{"lat":"-10.3333333","long":"161.6166667"}},{"country":"sb","city":"Faiako","coordinates":{"lat":"-8.7","long":"160.7"}},{"country":"sb","city":"Faibubulia","coordinates":{"lat":"-8.7333333","long":"160.7"}},{"country":"sb","city":"Falabulu","coordinates":{"lat":"-8.8333333","long":"160.7333333"}},{"country":"sb","city":"Falamae","coordinates":{"lat":"-7.4","long":"155.5666667"}},{"country":"sb","city":"Falambulu","coordinates":{"lat":"-8.8333333","long":"160.7333333"}},{"country":"sb","city":"Falufa'alu","coordinates":{"lat":"-8.8666667","long":"160.7333333"}},{"country":"sb","city":"Fanalei","coordinates":{"lat":"-9.5666667","long":"161.55"}},{"country":"sb","city":"Fanelei","coordinates":{"lat":"-9.5666667","long":"161.55"}},{"country":"sb","city":"Fangamboni","coordinates":{"lat":"-8.95","long":"161.0166667"}},{"country":"sb","city":"Fanuafalai","coordinates":{"lat":"-8.9333333","long":"161.05"}},{"country":"sb","city":"Fanuamba'ita","coordinates":{"lat":"-8.9166667","long":"161.0166667"}},{"country":"sb","city":"Farisi","coordinates":{"lat":"-8.9","long":"161.0666667"}},{"country":"sb","city":"Farumalaula","coordinates":{"lat":"-8.8333333","long":"161.0333333"}},{"country":"sb","city":"Fata'olo","coordinates":{"lat":"-8.3666667","long":"160.7833333"}},{"country":"sb","city":"Faua'ala","coordinates":{"lat":"-8.8166667","long":"160.8166667"}},{"country":"sb","city":"Fauabu","coordinates":{"lat":"-8.5666667","long":"160.7166667"}},{"country":"sb","city":"Fauala","coordinates":{"lat":"-8.8166667","long":"160.8166667"}},{"country":"sb","city":"Faubala","coordinates":{"lat":"-8.7666667","long":"160.8666667"}},{"country":"sb","city":"Faufala","coordinates":{"lat":"-8.85","long":"160.7333333"}},{"country":"sb","city":"Faufalu","coordinates":{"lat":"-8.8333333","long":"161.0166667"}},{"country":"sb","city":"Faufanea","coordinates":{"lat":"-8.3333333","long":"160.7166667"}},{"country":"sb","city":"Fauiolo","coordinates":{"lat":"-8.75","long":"160.7166667"}},{"country":"sb","city":"Fauketa","coordinates":{"lat":"-8.7333333","long":"160.85"}},{"country":"sb","city":"Faulaloia","coordinates":{"lat":"-8.5333333","long":"160.75"}},{"country":"sb","city":"Faumamanu","coordinates":{"lat":"-8.7666667","long":"160.9333333"}},{"country":"sb","city":"Faumamanu Itolo","coordinates":{"lat":"-8.7666667","long":"160.9333333"}},{"country":"sb","city":"Faumbaekwa","coordinates":{"lat":"-8.4666667","long":"160.8833333"}},{"country":"sb","city":"Faunikari","coordinates":{"lat":"-8.6166667","long":"161.0"}},{"country":"sb","city":"Fausadio","coordinates":{"lat":"-8.8666667","long":"160.7833333"}},{"country":"sb","city":"Fausindio","coordinates":{"lat":"-8.8666667","long":"160.7833333"}},{"country":"sb","city":"Ferafalu","coordinates":{"lat":"-8.2833333","long":"160.8"}},{"country":"sb","city":"Ferafalu","coordinates":{"lat":"-8.6666667","long":"160.95"}},{"country":"sb","city":"Feranagono","coordinates":{"lat":"-8.6666667","long":"160.95"}},{"country":"sb","city":"Feranaso","coordinates":{"lat":"-8.55","long":"160.95"}},{"country":"sb","city":"Ferasi","coordinates":{"lat":"-8.75","long":"160.9333333"}},{"country":"sb","city":"Ferasimi","coordinates":{"lat":"-8.6833333","long":"160.95"}},{"country":"sb","city":"Fifihu","coordinates":{"lat":"-8.2833333","long":"159.6"}},{"country":"sb","city":"Filuo","coordinates":{"lat":"-7.7833333","long":"158.65"}},{"country":"sb","city":"Firifau","coordinates":{"lat":"-8.85","long":"160.7333333"}},{"country":"sb","city":"Fiti","coordinates":{"lat":"-8.3333333","long":"160.5833333"}},{"country":"sb","city":"Fiu","coordinates":{"lat":"-8.7166667","long":"160.6833333"}},{"country":"sb","city":"Fiumbu","coordinates":{"lat":"-8.4833333","long":"160.8833333"}},{"country":"sb","city":"Fiu Mission","coordinates":{"lat":"-8.7166667","long":"160.6833333"}},{"country":"sb","city":"Foa","coordinates":{"lat":"-10.6666667","long":"165.8666667"}},{"country":"sb","city":"Foafora","coordinates":{"lat":"-8.2333333","long":"159.5166667"}},{"country":"sb","city":"Fo'au","coordinates":{"lat":"-8.9","long":"160.7666667"}},{"country":"sb","city":"Folotana","coordinates":{"lat":"-8.4833333","long":"160.6833333"}},{"country":"sb","city":"Fo'ondo","coordinates":{"lat":"-8.45","long":"160.65"}},{"country":"sb","city":"Fote","coordinates":{"lat":"-8.6333333","long":"160.6666667"}},{"country":"sb","city":"Fouambu","coordinates":{"lat":"-8.4","long":"160.8"}},{"country":"sb","city":"Fouia","coordinates":{"lat":"-8.4333333","long":"160.85"}},{"country":"sb","city":"Foukwakwaoa","coordinates":{"lat":"-8.3166667","long":"160.75"}},{"country":"sb","city":"Foulandasusu","coordinates":{"lat":"-8.9","long":"161.05"}},{"country":"sb","city":"Foulanoasusu","coordinates":{"lat":"-8.9","long":"161.05"}},{"country":"sb","city":"Foulofo","coordinates":{"lat":"-8.9833333","long":"161.15"}},{"country":"sb","city":"Foumamatoo","coordinates":{"lat":"-8.2833333","long":"160.7666667"}},{"country":"sb","city":"Fouongge","coordinates":{"lat":"-8.9166667","long":"161.0666667"}},{"country":"sb","city":"Foutoru","coordinates":{"lat":"-8.9333333","long":"161.05"}},{"country":"sb","city":"Fuaga","coordinates":{"lat":"-8.5","long":"160.9"}},{"country":"sb","city":"Fugu","coordinates":{"lat":"-8.6166667","long":"160.8"}},{"country":"sb","city":"Fukha","coordinates":{"lat":"-8.1666667","long":"159.6333333"}},{"country":"sb","city":"Fula'ambu","coordinates":{"lat":"-8.9333333","long":"161.0666667"}},{"country":"sb","city":"Fula","coordinates":{"lat":"-8.9666667","long":"161.1666667"}},{"country":"sb","city":"Fuliabote","coordinates":{"lat":"-8.6333333","long":"160.9666667"}},{"country":"sb","city":"Fulifata'a","coordinates":{"lat":"-8.8","long":"160.8833333"}},{"country":"sb","city":"Fulifo'oe","coordinates":{"lat":"-8.3166667","long":"160.5666667"}},{"country":"sb","city":"Fuli","coordinates":{"lat":"-8.8333333","long":"160.7333333"}},{"country":"sb","city":"Fuligura","coordinates":{"lat":"-8.7","long":"160.8333333"}},{"country":"sb","city":"Fulisango","coordinates":{"lat":"-8.75","long":"160.7833333"}},{"country":"sb","city":"Fulitafe","coordinates":{"lat":"-8.3833333","long":"160.7333333"}},{"country":"sb","city":"Fulo","coordinates":{"lat":"-9.0833333","long":"160.8333333"}},{"country":"sb","city":"Fulufo","coordinates":{"lat":"-8.9833333","long":"161.15"}},{"country":"sb","city":"Funakuma","coordinates":{"lat":"-10.8333333","long":"162.25"}},{"country":"sb","city":"Funakumwa","coordinates":{"lat":"-10.8333333","long":"162.25"}},{"country":"sb","city":"Funiau","coordinates":{"lat":"-8.8666667","long":"161.0333333"}},{"country":"sb","city":"Funii'au","coordinates":{"lat":"-8.9","long":"161.0333333"}},{"country":"sb","city":"Fupukuna","coordinates":{"lat":"-8.1333333","long":"159.55"}},{"country":"sb","city":"Furii'au","coordinates":{"lat":"-8.9166667","long":"161.0666667"}},{"country":"sb","city":"Furii","coordinates":{"lat":"-8.4","long":"160.7333333"}},{"country":"sb","city":"Furi'ilai","coordinates":{"lat":"-8.95","long":"161.0333333"}},{"country":"sb","city":"Furindofe","coordinates":{"lat":"-8.45","long":"160.65"}},{"country":"sb","city":"Furona","coordinates":{"lat":"-8.1166667","long":"159.1"}},{"country":"sb","city":"Furuana","coordinates":{"lat":"-8.4666667","long":"160.6833333"}},{"country":"sb","city":"Futuna","coordinates":{"lat":"-8.3","long":"160.7666667"}},{"country":"sb","city":"Gagalu","coordinates":{"lat":"-8.5833333","long":"160.9833333"}},{"country":"sb","city":"Gagara","coordinates":{"lat":"-7.05","long":"157.1166667"}},{"country":"sb","city":"Gaimali","coordinates":{"lat":"-9.4","long":"160.15"}},{"country":"sb","city":"Gaini Viti","coordinates":{"lat":"-9.4833333","long":"160.45"}},{"country":"sb","city":"Galiatu","coordinates":{"lat":"-9.8166667","long":"160.0833333"}},{"country":"sb","city":"Galilee","coordinates":{"lat":"-9.4666667","long":"160.3666667"}},{"country":"sb","city":"Galovae","coordinates":{"lat":"-7.2333333","long":"157.0"}},{"country":"sb","city":"Ganongga","coordinates":{"lat":"-8.0833333","long":"156.5333333"}},{"country":"sb","city":"Gareka","coordinates":{"lat":"-9.15","long":"159.8333333"}},{"country":"sb","city":"Garofate","coordinates":{"lat":"-8.35","long":"159.5333333"}},{"country":"sb","city":"Gatakesa","coordinates":{"lat":"-7.0166667","long":"156.7666667"}},{"country":"sb","city":"Gatere","coordinates":{"lat":"-8.0666667","long":"156.9833333"}},{"country":"sb","city":"Gauale","coordinates":{"lat":"-9.6166667","long":"159.6666667"}},{"country":"sb","city":"Gavaga","coordinates":{"lat":"-9.6833333","long":"159.7166667"}},{"country":"sb","city":"Gavanga","coordinates":{"lat":"-9.35","long":"159.5833333"}},{"country":"sb","city":"Gavango","coordinates":{"lat":"-9.35","long":"159.5833333"}},{"country":"sb","city":"Gavuhoho","coordinates":{"lat":"-9.15","long":"160.2166667"}},{"country":"sb","city":"Gavuholo","coordinates":{"lat":"-9.15","long":"160.2166667"}},{"country":"sb","city":"Gazalata","coordinates":{"lat":"-6.8","long":"156.5333333"}},{"country":"sb","city":"Geeura","coordinates":{"lat":"-8.05","long":"156.5333333"}},{"country":"sb","city":"Gegena'ua","coordinates":{"lat":"-8.75","long":"160.7166667"}},{"country":"sb","city":"Gegenda","coordinates":{"lat":"-9.5","long":"160.4166667"}},{"country":"sb","city":"Gegende","coordinates":{"lat":"-9.5","long":"160.4166667"}},{"country":"sb","city":"Geigei","coordinates":{"lat":"-10.7333333","long":"161.7666667"}},{"country":"sb","city":"Gembua","coordinates":{"lat":"-9.5166667","long":"160.4333333"}},{"country":"sb","city":"Geta","coordinates":{"lat":"-10.85","long":"162.3"}},{"country":"sb","city":"Ghaghagra","coordinates":{"lat":"-8.2166667","long":"159.5166667"}},{"country":"sb","city":"Ghaghaolo","coordinates":{"lat":"-8.3","long":"159.55"}},{"country":"sb","city":"Ghaghara","coordinates":{"lat":"-7.05","long":"157.1166667"}},{"country":"sb","city":"Ghaimali","coordinates":{"lat":"-9.4","long":"160.15"}},{"country":"sb","city":"Ghaimanggere","coordinates":{"lat":"-9.7833333","long":"160.2"}},{"country":"sb","city":"Ghairavu","coordinates":{"lat":"-9.1166667","long":"160.2833333"}},{"country":"sb","city":"Ghaisere","coordinates":{"lat":"-9.8","long":"160.2666667"}},{"country":"sb","city":"Ghaivale","coordinates":{"lat":"-9.6166667","long":"159.6666667"}},{"country":"sb","city":"Ghaliatu","coordinates":{"lat":"-9.8166667","long":"160.0833333"}},{"country":"sb","city":"Ghalimbere","coordinates":{"lat":"-9.7833333","long":"159.8333333"}},{"country":"sb","city":"Ghamburi","coordinates":{"lat":"-8.2833333","long":"157.5666667"}},{"country":"sb","city":"Ghaningangao","coordinates":{"lat":"-9.4333333","long":"159.6"}},{"country":"sb","city":"Ghaomai","coordinates":{"lat":"-7.05","long":"155.65"}},{"country":"sb","city":"Gharina","coordinates":{"lat":"-8.5333333","long":"159.6833333"}},{"country":"sb","city":"Gharufate","coordinates":{"lat":"-8.35","long":"159.5333333"}},{"country":"sb","city":"Ghatere","coordinates":{"lat":"-8.0666667","long":"156.9833333"}},{"country":"sb","city":"Ghauvalisi","coordinates":{"lat":"-9.7333333","long":"159.8333333"}},{"country":"sb","city":"Ghavagha","coordinates":{"lat":"-9.6833333","long":"159.7166667"}},{"country":"sb","city":"Ghavigha","coordinates":{"lat":"-9.8","long":"160.1833333"}},{"country":"sb","city":"Ghavighanimumu","coordinates":{"lat":"-9.5333333","long":"160.55"}},{"country":"sb","city":"Ghavuhoho","coordinates":{"lat":"-9.15","long":"160.2166667"}},{"country":"sb","city":"Gheghende","coordinates":{"lat":"-9.5","long":"160.4166667"}},{"country":"sb","city":"Gheighei","coordinates":{"lat":"-10.7333333","long":"161.7666667"}},{"country":"sb","city":"Gheta","coordinates":{"lat":"-10.85","long":"162.3"}},{"country":"sb","city":"Ghizo","coordinates":{"lat":"-8.1","long":"156.85"}},{"country":"sb","city":"Ghole","coordinates":{"lat":"-9.1166667","long":"160.3833333"}},{"country":"sb","city":"Ghombaghoghoro","coordinates":{"lat":"-9.7666667","long":"159.8333333"}},{"country":"sb","city":"Ghombua","coordinates":{"lat":"-9.5166667","long":"160.4333333"}},{"country":"sb","city":"Ghorambau","coordinates":{"lat":"-9.4166667","long":"160.2333333"}},{"country":"sb","city":"Ghoroghavutu","coordinates":{"lat":"-9.8166667","long":"160.0833333"}},{"country":"sb","city":"Ghoroghoro","coordinates":{"lat":"-9.8","long":"160.1833333"}},{"country":"sb","city":"Ghoromala","coordinates":{"lat":"-9.7833333","long":"159.8333333"}},{"country":"sb","city":"Ghoroveitughu","coordinates":{"lat":"-9.7833333","long":"160.1833333"}},{"country":"sb","city":"Ghove","coordinates":{"lat":"-8.35","long":"159.5166667"}},{"country":"sb","city":"Ghoveo","coordinates":{"lat":"-8.0","long":"159.4"}},{"country":"sb","city":"Ghoverighi","coordinates":{"lat":"-9.55","long":"159.6333333"}},{"country":"sb","city":"Ghulavu","coordinates":{"lat":"-9.3833333","long":"159.6"}},{"country":"sb","city":"Ghumba","coordinates":{"lat":"-9.1833333","long":"160.2666667"}},{"country":"sb","city":"Ghumu","coordinates":{"lat":"-9.5333333","long":"159.6166667"}},{"country":"sb","city":"Ghupuna","coordinates":{"lat":"-10.8333333","long":"162.45"}},{"country":"sb","city":"Ghurumei","coordinates":{"lat":"-8.2666667","long":"159.7666667"}},{"country":"sb","city":"Gilbert 1","coordinates":{"lat":"-9.45","long":"159.9833333"}},{"country":"sb","city":"Gilbert 2","coordinates":{"lat":"-9.45","long":"159.9833333"}},{"country":"sb","city":"Gilumeuna","coordinates":{"lat":"-9.8166667","long":"160.1"}},{"country":"sb","city":"Giluniuna","coordinates":{"lat":"-9.8166667","long":"160.1"}},{"country":"sb","city":"Gizo","coordinates":{"lat":"-8.1","long":"156.85"}},{"country":"sb","city":"Gizo Government Station","coordinates":{"lat":"-8.1","long":"156.85"}},{"country":"sb","city":"Gnapwongo","coordinates":{"lat":"-11.3","long":"166.4666667"}},{"country":"sb","city":"Gnilomboo","coordinates":{"lat":"-11.2833333","long":"166.45"}},{"country":"sb","city":"Gnisunggu","coordinates":{"lat":"-11.2833333","long":"166.5333333"}},{"country":"sb","city":"Gnulahaghe","coordinates":{"lat":"-8.1166667","long":"159.5333333"}},{"country":"sb","city":"Goe","coordinates":{"lat":"-7.1","long":"156.8333333"}},{"country":"sb","city":"Goiravu","coordinates":{"lat":"-9.1166667","long":"160.2833333"}},{"country":"sb","city":"Gold Ridge","coordinates":{"lat":"-9.6","long":"160.1333333"}},{"country":"sb","city":"Gole","coordinates":{"lat":"-9.1166667","long":"160.3833333"}},{"country":"sb","city":"Gombua","coordinates":{"lat":"-9.5166667","long":"160.4333333"}},{"country":"sb","city":"Gorabau","coordinates":{"lat":"-9.4166667","long":"160.2333333"}},{"country":"sb","city":"Gorambau","coordinates":{"lat":"-9.4166667","long":"160.2333333"}},{"country":"sb","city":"Gotazae","coordinates":{"lat":"-7.0166667","long":"156.7666667"}},{"country":"sb","city":"Gouulu","coordinates":{"lat":"-8.3","long":"160.7"}},{"country":"sb","city":"Guguha","coordinates":{"lat":"-8.1166667","long":"159.55"}},{"country":"sb","city":"Gukhuna","coordinates":{"lat":"-8.15","long":"159.5666667"}},{"country":"sb","city":"Gumba","coordinates":{"lat":"-9.1833333","long":"160.2666667"}},{"country":"sb","city":"Gupuna","coordinates":{"lat":"-10.8333333","long":"162.45"}},{"country":"sb","city":"Guranja","coordinates":{"lat":"-9.3833333","long":"159.8166667"}},{"country":"sb","city":"Gurauja","coordinates":{"lat":"-9.3833333","long":"159.8166667"}},{"country":"sb","city":"Gurena","coordinates":{"lat":"-8.15","long":"159.6166667"}},{"country":"sb","city":"Gwai'akama","coordinates":{"lat":"-8.7833333","long":"160.7666667"}},{"country":"sb","city":"Gwaiako","coordinates":{"lat":"-8.7","long":"160.75"}},{"country":"sb","city":"Gwaiareko","coordinates":{"lat":"-8.3333333","long":"160.7666667"}},{"country":"sb","city":"Gwai'asai","coordinates":{"lat":"-8.6833333","long":"160.7"}},{"country":"sb","city":"Gwaidae'dae","coordinates":{"lat":"-8.7333333","long":"160.7"}},{"country":"sb","city":"Gwa'idae","coordinates":{"lat":"-8.65","long":"160.7666667"}},{"country":"sb","city":"Gwaidingale","coordinates":{"lat":"-8.9166667","long":"160.7666667"}},{"country":"sb","city":"Gwa'ifaefae","coordinates":{"lat":"-8.75","long":"160.9"}},{"country":"sb","city":"Gwaigeo","coordinates":{"lat":"-8.7","long":"160.6833333"}},{"country":"sb","city":"Gwa'ininiu","coordinates":{"lat":"-8.6333333","long":"160.8166667"}},{"country":"sb","city":"Gwa'irade","coordinates":{"lat":"-8.65","long":"160.8"}},{"country":"sb","city":"Gwa'irakwana","coordinates":{"lat":"-8.7166667","long":"160.8333333"}},{"country":"sb","city":"Gwaisila","coordinates":{"lat":"-8.8166667","long":"160.8166667"}},{"country":"sb","city":"Gwa'itaba'a","coordinates":{"lat":"-8.8","long":"160.7833333"}},{"country":"sb","city":"Gwaitamba'a","coordinates":{"lat":"-8.8","long":"160.7833333"}},{"country":"sb","city":"Gwango","coordinates":{"lat":"-8.3333333","long":"160.7166667"}},{"country":"sb","city":"Gwaunaoa","coordinates":{"lat":"-8.6666667","long":"160.6833333"}},{"country":"sb","city":"Gwaunaruu","coordinates":{"lat":"-8.3833333","long":"160.8"}},{"country":"sb","city":"Gwaunaruu","coordinates":{"lat":"-8.7","long":"160.6833333"}},{"country":"sb","city":"Gwaunasuu","coordinates":{"lat":"-8.3833333","long":"160.8"}},{"country":"sb","city":"Gwaunatafu","coordinates":{"lat":"-8.5333333","long":"160.7166667"}},{"country":"sb","city":"Gwaunatala","coordinates":{"lat":"-8.8","long":"160.8166667"}},{"country":"sb","city":"Haa'apu","coordinates":{"lat":"-9.2833333","long":"161.0333333"}},{"country":"sb","city":"Haa","coordinates":{"lat":"-9.0666667","long":"160.1833333"}},{"country":"sb","city":"Haarumou","coordinates":{"lat":"-9.5166667","long":"161.3"}},{"country":"sb","city":"Hachogha","coordinates":{"lat":"-9.8","long":"160.1666667"}},{"country":"sb","city":"Hada","coordinates":{"lat":"-10.25","long":"161.2666667"}},{"country":"sb","city":"Hadja","coordinates":{"lat":"-9.7833333","long":"161.9333333"}},{"country":"sb","city":"Haghalu","coordinates":{"lat":"-9.0833333","long":"160.1666667"}},{"country":"sb","city":"Hagharuhe","coordinates":{"lat":"-10.8","long":"161.9333333"}},{"country":"sb","city":"Hagharuhi","coordinates":{"lat":"-10.8","long":"161.9333333"}},{"country":"sb","city":"Haghela","coordinates":{"lat":"-9.0166667","long":"160.1666667"}},{"country":"sb","city":"Hagheulu","coordinates":{"lat":"-8.35","long":"159.7333333"}},{"country":"sb","city":"Hahietau","coordinates":{"lat":"-9.45","long":"161.4166667"}},{"country":"sb","city":"Hahorarumu","coordinates":{"lat":"-9.3","long":"161.1333333"}},{"country":"sb","city":"Hahorarunu","coordinates":{"lat":"-9.3","long":"161.1333333"}},{"country":"sb","city":"Hailalua","coordinates":{"lat":"-9.5166667","long":"160.0"}},{"country":"sb","city":"Hailovo","coordinates":{"lat":"-9.7333333","long":"160.3"}},{"country":"sb","city":"Hailupa","coordinates":{"lat":"-9.4666667","long":"160.0666667"}},{"country":"sb","city":"Haimarao","coordinates":{"lat":"-9.8666667","long":"160.4166667"}},{"country":"sb","city":"Haimatua","coordinates":{"lat":"-9.85","long":"160.4166667"}},{"country":"sb","city":"Haimbau","coordinates":{"lat":"-9.7","long":"160.3333333"}},{"country":"sb","city":"Haimela","coordinates":{"lat":"-9.6833333","long":"160.25"}},{"country":"sb","city":"Haimolumolu","coordinates":{"lat":"-9.8","long":"160.4166667"}},{"country":"sb","city":"Hainatogha","coordinates":{"lat":"-9.7","long":"160.5833333"}},{"country":"sb","city":"Hainatoha","coordinates":{"lat":"-9.7","long":"160.5833333"}},{"country":"sb","city":"Haiparia","coordinates":{"lat":"-9.7","long":"160.2166667"}},{"country":"sb","city":"Hairi","coordinates":{"lat":"-8.5166667","long":"159.6833333"}},{"country":"sb","city":"Haisavoria","coordinates":{"lat":"-9.6166667","long":"160.2333333"}},{"country":"sb","city":"Haisighinia","coordinates":{"lat":"-9.65","long":"160.35"}},{"country":"sb","city":"Haitete","coordinates":{"lat":"-9.7166667","long":"160.3666667"}},{"country":"sb","city":"Haivoha","coordinates":{"lat":"-9.7833333","long":"160.4"}},{"country":"sb","city":"Hakama","coordinates":{"lat":"-9.1166667","long":"160.3"}},{"country":"sb","city":"Hakanipua","coordinates":{"lat":"-10.25","long":"161.7333333"}},{"country":"sb","city":"Halahala","coordinates":{"lat":"-9.8833333","long":"160.7833333"}},{"country":"sb","city":"Hala Hala Mission","coordinates":{"lat":"-9.8833333","long":"160.7833333"}},{"country":"sb","city":"Halavo","coordinates":{"lat":"-9.1","long":"160.2"}},{"country":"sb","city":"Haleta","coordinates":{"lat":"-8.3","long":"160.7833333"}},{"country":"sb","city":"Haleta","coordinates":{"lat":"-9.0833333","long":"160.1166667"}},{"country":"sb","city":"Haliatu","coordinates":{"lat":"-9.8166667","long":"160.0833333"}},{"country":"sb","city":"Halisi","coordinates":{"lat":"-8.6833333","long":"157.8833333"}},{"country":"sb","city":"Haliupai","coordinates":{"lat":"-9.4166667","long":"159.6"}},{"country":"sb","city":"Hambere","coordinates":{"lat":"-8.0","long":"156.95"}},{"country":"sb","city":"Hamberi","coordinates":{"lat":"-8.0","long":"156.95"}},{"country":"sb","city":"Hambunameka","coordinates":{"lat":"-9.65","long":"160.3833333"}},{"country":"sb","city":"Hamihumanga","coordinates":{"lat":"-8.2833333","long":"157.1"}},{"country":"sb","city":"Hana'anaroho","coordinates":{"lat":"-9.2833333","long":"161.0166667"}},{"country":"sb","city":"Hangataru","coordinates":{"lat":"-10.1833333","long":"161.3166667"}},{"country":"sb","city":"Hang","coordinates":{"lat":"-7.0","long":"155.8333333"}},{"country":"sb","city":"Hanianawa","coordinates":{"lat":"-9.2333333","long":"161.2333333"}},{"country":"sb","city":"Haninggela","coordinates":{"lat":"-9.1","long":"159.8166667"}},{"country":"sb","city":"Hanivaivine","coordinates":{"lat":"-9.0833333","long":"160.3"}},{"country":"sb","city":"Hanivavine","coordinates":{"lat":"-9.0833333","long":"160.3"}},{"country":"sb","city":"Hanjohapeule","coordinates":{"lat":"-9.7666667","long":"160.35"}},{"country":"sb","city":"Hanua'apa","coordinates":{"lat":"-9.3333333","long":"161.1833333"}},{"country":"sb","city":"Hanuaniupa","coordinates":{"lat":"-9.1333333","long":"161.1"}},{"country":"sb","city":"Hanuasuu","coordinates":{"lat":"-9.2","long":"161.25"}},{"country":"sb","city":"Hanuvaivine","coordinates":{"lat":"-9.0833333","long":"160.3"}},{"country":"sb","city":"Hapai","coordinates":{"lat":"-8.2833333","long":"157.5666667"}},{"country":"sb","city":"Hapai","coordinates":{"lat":"-9.2666667","long":"161.0166667"}},{"country":"sb","city":"Harai","coordinates":{"lat":"-8.55","long":"157.35"}},{"country":"sb","city":"Harai","coordinates":{"lat":"-9.45","long":"161.2333333"}},{"country":"sb","city":"Hara'ina","coordinates":{"lat":"-9.7","long":"161.9333333"}},{"country":"sb","city":"Harana'eke","coordinates":{"lat":"-9.0833333","long":"161.1833333"}},{"country":"sb","city":"Harapa","coordinates":{"lat":"-6.9833333","long":"155.7"}},{"country":"sb","city":"Harea","coordinates":{"lat":"-9.4333333","long":"161.3166667"}},{"country":"sb","city":"Harehare","coordinates":{"lat":"-7.05","long":"155.8666667"}},{"country":"sb","city":"Harisiharihari","coordinates":{"lat":"-9.2","long":"161.2"}},{"country":"sb","city":"Harisi","coordinates":{"lat":"-9.15","long":"161.1666667"}},{"country":"sb","city":"Harisiu","coordinates":{"lat":"-9.25","long":"161.0333333"}},{"country":"sb","city":"Haroro","coordinates":{"lat":"-9.0166667","long":"160.1166667"}},{"country":"sb","city":"Hasupari","coordinates":{"lat":"-9.4166667","long":"161.2166667"}},{"country":"sb","city":"Hatakau","coordinates":{"lat":"-9.2333333","long":"161.1833333"}},{"country":"sb","city":"Hatanggua","coordinates":{"lat":"-11.5166667","long":"160.1166667"}},{"country":"sb","city":"Hatodeea","coordinates":{"lat":"-8.3166667","long":"160.8166667"}},{"country":"sb","city":"Hauharii","coordinates":{"lat":"-9.25","long":"161.2"}},{"country":"sb","city":"Hauhato","coordinates":{"lat":"-9.3","long":"161.1666667"}},{"country":"sb","city":"Hauhui","coordinates":{"lat":"-9.2166667","long":"160.9666667"}},{"country":"sb","city":"Haukoukou","coordinates":{"lat":"-9.2","long":"161.1666667"}},{"country":"sb","city":"Haumera","coordinates":{"lat":"-9.85","long":"160.8"}},{"country":"sb","city":"Haupara","coordinates":{"lat":"-9.2166667","long":"161.0166667"}},{"country":"sb","city":"Hauporo","coordinates":{"lat":"-9.25","long":"161.0166667"}},{"country":"sb","city":"Hauporomaea","coordinates":{"lat":"-9.2833333","long":"161.0833333"}},{"country":"sb","city":"Hauposo","coordinates":{"lat":"-9.5","long":"161.4833333"}},{"country":"sb","city":"Hauraha","coordinates":{"lat":"-10.7833333","long":"161.9666667"}},{"country":"sb","city":"Hauroho","coordinates":{"lat":"-8.9833333","long":"161.15"}},{"country":"sb","city":"Hautahe","coordinates":{"lat":"-9.85","long":"160.8333333"}},{"country":"sb","city":"Hautahi","coordinates":{"lat":"-9.85","long":"160.8333333"}},{"country":"sb","city":"Hautonima","coordinates":{"lat":"-9.05","long":"161.1833333"}},{"country":"sb","city":"Havaruvu","coordinates":{"lat":"-9.0333333","long":"160.2666667"}},{"country":"sb","city":"Haverughu","coordinates":{"lat":"-9.0333333","long":"160.2666667"}},{"country":"sb","city":"Havila","coordinates":{"lat":"-8.5166667","long":"159.8"}},{"country":"sb","city":"Heleta","coordinates":{"lat":"-9.0833333","long":"160.1166667"}},{"country":"sb","city":"Henuangoto","coordinates":{"lat":"-11.2666667","long":"159.7833333"}},{"country":"sb","city":"Hera","coordinates":{"lat":"-9.1833333","long":"161.1833333"}},{"country":"sb","city":"Heraisiu","coordinates":{"lat":"-9.2","long":"161.2"}},{"country":"sb","city":"Herani'asuhe","coordinates":{"lat":"-9.2666667","long":"161.0833333"}},{"country":"sb","city":"Heraniesi","coordinates":{"lat":"-9.5333333","long":"161.4833333"}},{"country":"sb","city":"Heranihio","coordinates":{"lat":"-9.35","long":"161.1666667"}},{"country":"sb","city":"Herepa'a","coordinates":{"lat":"-9.45","long":"161.4"}},{"country":"sb","city":"Heuhonu","coordinates":{"lat":"-9.55","long":"161.4666667"}},{"country":"sb","city":"Heupeine","coordinates":{"lat":"-9.65","long":"161.4833333"}},{"country":"sb","city":"Heuru","coordinates":{"lat":"-10.2","long":"161.4166667"}},{"country":"sb","city":"Hihiaka","coordinates":{"lat":"-8.5333333","long":"158.0333333"}},{"country":"sb","city":"Hihiaka Patukae","coordinates":{"lat":"-8.5333333","long":"158.0333333"}},{"country":"sb","city":"Hilamondu","coordinates":{"lat":"-9.65","long":"160.3666667"}},{"country":"sb","city":"Hirihiriasi","coordinates":{"lat":"-9.5166667","long":"161.2666667"}},{"country":"sb","city":"Hirihiripopo","coordinates":{"lat":"-9.8833333","long":"160.7833333"}},{"country":"sb","city":"Hirosare","coordinates":{"lat":"-8.2833333","long":"159.5666667"}},{"country":"sb","city":"Hirovanga","coordinates":{"lat":"-8.3166667","long":"159.4833333"}},{"country":"sb","city":"Hiuasi","coordinates":{"lat":"-9.1","long":"161.2"}},{"country":"sb","city":"Hofi","coordinates":{"lat":"-8.1833333","long":"159.65"}},{"country":"sb","city":"Hofovo","coordinates":{"lat":"-8.5666667","long":"157.2"}},{"country":"sb","city":"Hoilava","coordinates":{"lat":"-9.4333333","long":"159.6"}},{"country":"sb","city":"Hoilona","coordinates":{"lat":"-9.65","long":"159.7"}},{"country":"sb","city":"Holebara","coordinates":{"lat":"-8.1333333","long":"159.5666667"}},{"country":"sb","city":"Hombahohoro","coordinates":{"lat":"-9.5","long":"160.1833333"}},{"country":"sb","city":"Homba","coordinates":{"lat":"-9.7833333","long":"160.4"}},{"country":"sb","city":"Honiara","coordinates":{"lat":"-9.4333333","long":"159.95"}},{"country":"sb","city":"Honoa","coordinates":{"lat":"-9.1833333","long":"161.25"}},{"country":"sb","city":"Hopongo","coordinates":{"lat":"-8.5666667","long":"157.2"}},{"country":"sb","city":"Horanari","coordinates":{"lat":"-9.3666667","long":"161.2333333"}},{"country":"sb","city":"Horaniu","coordinates":{"lat":"-7.6833333","long":"156.7333333"}},{"country":"sb","city":"Horara","coordinates":{"lat":"-8.4166667","long":"159.8"}},{"country":"sb","city":"Horokao","coordinates":{"lat":"-9.3333333","long":"161.1166667"}},{"country":"sb","city":"Horouru","coordinates":{"lat":"-9.0666667","long":"161.1833333"}},{"country":"sb","city":"Hote","coordinates":{"lat":"-9.5333333","long":"161.4666667"}},{"country":"sb","city":"Houaha","coordinates":{"lat":"-9.4","long":"161.2333333"}},{"country":"sb","city":"Houa","coordinates":{"lat":"-9.7333333","long":"160.7666667"}},{"country":"sb","city":"Hou'ao","coordinates":{"lat":"-9.0833333","long":"161.2"}},{"country":"sb","city":"Houhepa","coordinates":{"lat":"-9.1","long":"161.1833333"}},{"country":"sb","city":"Houhou","coordinates":{"lat":"-9.3333333","long":"161.1"}},{"country":"sb","city":"Houhouna","coordinates":{"lat":"-9.8","long":"160.6333333"}},{"country":"sb","city":"Houkari","coordinates":{"lat":"-9.35","long":"161.1666667"}},{"country":"sb","city":"Houkeni","coordinates":{"lat":"-9.35","long":"161.1666667"}},{"country":"sb","city":"Houkokore","coordinates":{"lat":"-9.1666667","long":"161.2333333"}},{"country":"sb","city":"Houkona","coordinates":{"lat":"-9.3166667","long":"161.0833333"}},{"country":"sb","city":"Houmatana","coordinates":{"lat":"-9.3333333","long":"161.15"}},{"country":"sb","city":"Hounasi","coordinates":{"lat":"-9.3833333","long":"161.1833333"}},{"country":"sb","city":"Houoa","coordinates":{"lat":"-9.45","long":"161.2333333"}},{"country":"sb","city":"Houparoparo","coordinates":{"lat":"-9.2166667","long":"161.2333333"}},{"country":"sb","city":"Houpuna","coordinates":{"lat":"-9.4666667","long":"161.25"}},{"country":"sb","city":"Houri","coordinates":{"lat":"-9.25","long":"161.0166667"}},{"country":"sb","city":"Houripipisu","coordinates":{"lat":"-9.2","long":"161.2666667"}},{"country":"sb","city":"Houripou","coordinates":{"lat":"-9.1666667","long":"161.2666667"}},{"country":"sb","city":"Houro'a","coordinates":{"lat":"-9.2833333","long":"161.2"}},{"country":"sb","city":"Houroho","coordinates":{"lat":"-8.9833333","long":"161.15"}},{"country":"sb","city":"Houro","coordinates":{"lat":"-9.1833333","long":"161.1166667"}},{"country":"sb","city":"Housuru","coordinates":{"lat":"-9.3833333","long":"161.2"}},{"country":"sb","city":"Houte'ete'e","coordinates":{"lat":"-9.2333333","long":"161.2166667"}},{"country":"sb","city":"Hovi","coordinates":{"lat":"-8.3666667","long":"159.8166667"}},{"country":"sb","city":"Hovoro","coordinates":{"lat":"-8.0833333","long":"157.6"}},{"country":"sb","city":"Hovukoilo","coordinates":{"lat":"-8.1","long":"159.5166667"}},{"country":"sb","city":"Huali","coordinates":{"lat":"-8.3833333","long":"159.7666667"}},{"country":"sb","city":"Huehule","coordinates":{"lat":"-8.3","long":"159.7"}},{"country":"sb","city":"Hu","coordinates":{"lat":"-9.3","long":"161.1"}},{"country":"sb","city":"Huhuru","coordinates":{"lat":"-9.4333333","long":"159.9333333"}},{"country":"sb","city":"Hulavu","coordinates":{"lat":"-9.3833333","long":"159.6"}},{"country":"sb","city":"Hulihale","coordinates":{"lat":"-10.25","long":"161.7666667"}},{"country":"sb","city":"Hulina Manukiki","coordinates":{"lat":"-9.5333333","long":"160.1166667"}},{"country":"sb","city":"Hulo","coordinates":{"lat":"-9.0833333","long":"160.8333333"}},{"country":"sb","city":"Hunahao","coordinates":{"lat":"-9.4","long":"161.2"}},{"country":"sb","city":"Hunahau","coordinates":{"lat":"-9.4","long":"161.1833333"}},{"country":"sb","city":"Hunanaawa","coordinates":{"lat":"-9.4833333","long":"161.3666667"}},{"country":"sb","city":"Hunanahara","coordinates":{"lat":"-9.3","long":"161.0833333"}},{"country":"sb","city":"Hunanapuru","coordinates":{"lat":"-9.2666667","long":"161.0666667"}},{"country":"sb","city":"Hunda","coordinates":{"lat":"-8.1","long":"157.0166667"}},{"country":"sb","city":"Huni'ama","coordinates":{"lat":"-9.0666667","long":"161.1833333"}},{"country":"sb","city":"Hunihara","coordinates":{"lat":"-9.3833333","long":"161.2166667"}},{"country":"sb","city":"Hunihu","coordinates":{"lat":"-10.4666667","long":"161.5166667"}},{"country":"sb","city":"Hunimasi","coordinates":{"lat":"-9.3","long":"161.1833333"}},{"country":"sb","city":"Huno Ramu","coordinates":{"lat":"-10.5333333","long":"161.5333333"}},{"country":"sb","city":"Hunouri","coordinates":{"lat":"-9.2333333","long":"161.1833333"}},{"country":"sb","city":"Hunughu","coordinates":{"lat":"-8.95","long":"160.0666667"}},{"country":"sb","city":"Hunurama","coordinates":{"lat":"-10.5333333","long":"161.5333333"}},{"country":"sb","city":"Hunuta","coordinates":{"lat":"-10.2333333","long":"161.75"}},{"country":"sb","city":"Hurakaia","coordinates":{"lat":"-9.2833333","long":"161.15"}},{"country":"sb","city":"Huranahai","coordinates":{"lat":"-9.7","long":"160.5833333"}},{"country":"sb","city":"Huranja","coordinates":{"lat":"-9.3833333","long":"159.8166667"}},{"country":"sb","city":"Hurasona","coordinates":{"lat":"-9.4","long":"161.2333333"}},{"country":"sb","city":"Hure","coordinates":{"lat":"-9.4666667","long":"161.4"}},{"country":"sb","city":"Hurepelo","coordinates":{"lat":"-8.1833333","long":"159.2166667"}},{"country":"sb","city":"Hurihasu","coordinates":{"lat":"-9.8666667","long":"160.8"}},{"country":"sb","city":"Huri'i","coordinates":{"lat":"-9.4833333","long":"161.3333333"}},{"country":"sb","city":"Huro","coordinates":{"lat":"-10.25","long":"161.35"}},{"country":"sb","city":"Huru","coordinates":{"lat":"-9.1666667","long":"161.2333333"}},{"country":"sb","city":"Huu","coordinates":{"lat":"-9.4333333","long":"161.2166667"}},{"country":"sb","city":"Hu'umarere","coordinates":{"lat":"-9.7833333","long":"160.8333333"}},{"country":"sb","city":"Iaru","coordinates":{"lat":"-10.8","long":"162.05"}},{"country":"sb","city":"Iaruraha","coordinates":{"lat":"-10.8","long":"162.05"}},{"country":"sb","city":"Igwa","coordinates":{"lat":"-9.1666667","long":"160.8833333"}},{"country":"sb","city":"Ikupaara","coordinates":{"lat":"-9.1","long":"161.1666667"}},{"country":"sb","city":"Ilangana","coordinates":{"lat":"-8.3333333","long":"157.2833333"}},{"country":"sb","city":"Ilikaliana","coordinates":{"lat":"-8.6833333","long":"160.7"}},{"country":"sb","city":"Iliki","coordinates":{"lat":"-8.45","long":"160.7166667"}},{"country":"sb","city":"Imana","coordinates":{"lat":"-8.2833333","long":"157.1166667"}},{"country":"sb","city":"Imomoru","coordinates":{"lat":"-9.6666667","long":"159.7"}},{"country":"sb","city":"Inagau","coordinates":{"lat":"-9.8","long":"160.0166667"}},{"country":"sb","city":"Ina Ghau","coordinates":{"lat":"-9.8","long":"160.0166667"}},{"country":"sb","city":"Ina Ghavigha","coordinates":{"lat":"-9.8","long":"160.0333333"}},{"country":"sb","city":"Ina Ghoana","coordinates":{"lat":"-9.8","long":"160.0166667"}},{"country":"sb","city":"Inahombe","coordinates":{"lat":"-9.7833333","long":"160.2666667"}},{"country":"sb","city":"Ina Kala","coordinates":{"lat":"-9.7833333","long":"160.0"}},{"country":"sb","city":"Inakona","coordinates":{"lat":"-9.8166667","long":"160.0333333"}},{"country":"sb","city":"Inakona Mission","coordinates":{"lat":"-9.8166667","long":"160.0333333"}},{"country":"sb","city":"Ina Kongga","coordinates":{"lat":"-9.7666667","long":"160.15"}},{"country":"sb","city":"Ina Kua","coordinates":{"lat":"-9.7833333","long":"160.1666667"}},{"country":"sb","city":"Ina Maole","coordinates":{"lat":"-9.8","long":"160.0"}},{"country":"sb","city":"Ina Mati","coordinates":{"lat":"-9.7666667","long":"160.1666667"}},{"country":"sb","city":"Ina Mbombo","coordinates":{"lat":"-9.7833333","long":"160.2166667"}},{"country":"sb","city":"Inanunu","coordinates":{"lat":"-8.8333333","long":"161.0166667"}},{"country":"sb","city":"Ina Puru","coordinates":{"lat":"-9.8","long":"160.0"}},{"country":"sb","city":"Ina Ravu","coordinates":{"lat":"-9.8","long":"160.1833333"}},{"country":"sb","city":"Ina Vindi","coordinates":{"lat":"-9.8","long":"159.9666667"}},{"country":"sb","city":"Ina Visa","coordinates":{"lat":"-9.8","long":"160.0333333"}},{"country":"sb","city":"Iofana","coordinates":{"lat":"-8.9333333","long":"161.0666667"}},{"country":"sb","city":"Ione","coordinates":{"lat":"-9.8666667","long":"160.8166667"}},{"country":"sb","city":"Iramarore","coordinates":{"lat":"-9.2166667","long":"161.2166667"}},{"country":"sb","city":"Iranumu","coordinates":{"lat":"-8.8333333","long":"161.0166667"}},{"country":"sb","city":"Iranunu","coordinates":{"lat":"-8.8333333","long":"161.0166667"}},{"country":"sb","city":"Ireke","coordinates":{"lat":"-8.1","long":"157.0166667"}},{"country":"sb","city":"Iremaea","coordinates":{"lat":"-9.2","long":"161.2833333"}},{"country":"sb","city":"Irindofe","coordinates":{"lat":"-8.45","long":"160.65"}},{"country":"sb","city":"Iringgila","coordinates":{"lat":"-7.6166667","long":"156.5"}},{"country":"sb","city":"Iripaina","coordinates":{"lat":"-9.3166667","long":"161.2333333"}},{"country":"sb","city":"Iriri","coordinates":{"lat":"-8.0333333","long":"156.95"}},{"country":"sb","city":"Ironunu","coordinates":{"lat":"-8.8333333","long":"161.0166667"}},{"country":"sb","city":"Irowai","coordinates":{"lat":"-9.2333333","long":"161.2"}},{"country":"sb","city":"Iruiru","coordinates":{"lat":"-9.8","long":"159.8333333"}},{"country":"sb","city":"Isiisu","coordinates":{"lat":"-9.5666667","long":"160.2666667"}},{"country":"sb","city":"Isipeni","coordinates":{"lat":"-9.65","long":"160.5"}},{"country":"sb","city":"Israel","coordinates":{"lat":"-8.3","long":"157.55"}},{"country":"sb","city":"Isuisu","coordinates":{"lat":"-9.8","long":"159.9333333"}},{"country":"sb","city":"Isuna","coordinates":{"lat":"-9.8","long":"159.9666667"}},{"country":"sb","city":"Isunavara","coordinates":{"lat":"-9.65","long":"159.6833333"}},{"country":"sb","city":"Itina","coordinates":{"lat":"-9.8","long":"159.8333333"}},{"country":"sb","city":"Jaklo","coordinates":{"lat":"-8.3","long":"159.75"}},{"country":"sb","city":"Japuana","coordinates":{"lat":"-8.4833333","long":"159.7666667"}},{"country":"sb","city":"Jarava","coordinates":{"lat":"-8.3166667","long":"159.8166667"}},{"country":"sb","city":"Java","coordinates":{"lat":"-7.65","long":"156.6666667"}},{"country":"sb","city":"Jejevo","coordinates":{"lat":"-8.1333333","long":"159.6"}},{"country":"sb","city":"Jiku","coordinates":{"lat":"-7.15","long":"157.1833333"}},{"country":"sb","city":"Jinjapili","coordinates":{"lat":"-6.9833333","long":"157.1"}},{"country":"sb","city":"Joroveto","coordinates":{"lat":"-7.8333333","long":"156.7166667"}},{"country":"sb","city":"Judaea","coordinates":{"lat":"-8.6333333","long":"157.2666667"}},{"country":"sb","city":"Kaanggua","coordinates":{"lat":"-11.4666667","long":"160.0333333"}},{"country":"sb","city":"Kaekui","coordinates":{"lat":"-6.8166667","long":"156.8166667"}},{"country":"sb","city":"Kafema'u","coordinates":{"lat":"-8.2333333","long":"159.5333333"}},{"country":"sb","city":"Kafoambu","coordinates":{"lat":"-8.35","long":"160.6333333"}},{"country":"sb","city":"Kafo'elia","coordinates":{"lat":"-8.6166667","long":"160.8833333"}},{"country":"sb","city":"Kafoi'ilo","coordinates":{"lat":"-8.35","long":"160.7333333"}},{"country":"sb","city":"Kafulafiu","coordinates":{"lat":"-8.85","long":"160.9"}},{"country":"sb","city":"Kaio","coordinates":{"lat":"-9.4166667","long":"160.3"}},{"country":"sb","city":"Kakake","coordinates":{"lat":"-9.8166667","long":"160.0666667"}},{"country":"sb","city":"Kakalaa'ano","coordinates":{"lat":"-8.5333333","long":"160.7666667"}},{"country":"sb","city":"Kakalaka","coordinates":{"lat":"-9.35","long":"159.5833333"}},{"country":"sb","city":"Kakalambao","coordinates":{"lat":"-9.6666667","long":"160.2166667"}},{"country":"sb","city":"Kakalao","coordinates":{"lat":"-9.5","long":"160.2833333"}},{"country":"sb","city":"Kakalokasa","coordinates":{"lat":"-7.0833333","long":"157.1333333"}},{"country":"sb","city":"Kakambona","coordinates":{"lat":"-9.4166667","long":"159.9166667"}},{"country":"sb","city":"Kakambona Villages","coordinates":{"lat":"-9.4166667","long":"159.9166667"}},{"country":"sb","city":"Kakara","coordinates":{"lat":"-8.5666667","long":"160.6833333"}},{"country":"sb","city":"Kakaro","coordinates":{"lat":"-9.5666667","long":"160.5833333"}},{"country":"sb","city":"Kakaru","coordinates":{"lat":"-8.3333333","long":"160.7"}},{"country":"sb","city":"Kakaru","coordinates":{"lat":"-9.8333333","long":"160.8333333"}},{"country":"sb","city":"Kakasa","coordinates":{"lat":"-7.2666667","long":"157.0166667"}},{"country":"sb","city":"Kakatio","coordinates":{"lat":"-8.2","long":"159.5333333"}},{"country":"sb","city":"Kakavovo","coordinates":{"lat":"-9.8","long":"160.0"}},{"country":"sb","city":"Kakaza","coordinates":{"lat":"-7.2666667","long":"157.0166667"}},{"country":"sb","city":"Kakendakena","coordinates":{"lat":"-9.7333333","long":"160.5333333"}},{"country":"sb","city":"Kakolia","coordinates":{"lat":"-9.7833333","long":"159.8166667"}},{"country":"sb","city":"Kalaka","coordinates":{"lat":"-9.15","long":"159.8"}},{"country":"sb","city":"Kalala'ao","coordinates":{"lat":"-8.55","long":"160.7333333"}},{"country":"sb","city":"Kalambisi","coordinates":{"lat":"-9.7666667","long":"160.7166667"}},{"country":"sb","city":"Kalanggwata","coordinates":{"lat":"-8.8666667","long":"160.75"}},{"country":"sb","city":"Kalavaolu","coordinates":{"lat":"-9.7833333","long":"160.1833333"}},{"country":"sb","city":"Kalenga","coordinates":{"lat":"-8.55","long":"159.8333333"}},{"country":"sb","city":"Kaliala","coordinates":{"lat":"-9.0166667","long":"160.2666667"}},{"country":"sb","city":"Kalibato","coordinates":{"lat":"-9.8166667","long":"160.1666667"}},{"country":"sb","city":"Kalimai","coordinates":{"lat":"-9.7","long":"161.95"}},{"country":"sb","city":"Kalima","coordinates":{"lat":"-9.65","long":"160.4166667"}},{"country":"sb","city":"Kaloka","coordinates":{"lat":"-8.3","long":"159.8"}},{"country":"sb","city":"Kalona","coordinates":{"lat":"-9.5666667","long":"161.5333333"}},{"country":"sb","city":"Kaltoma","coordinates":{"lat":"-9.6833333","long":"159.7166667"}},{"country":"sb","city":"Kamaleai 2","coordinates":{"lat":"-6.9666667","long":"155.7166667"}},{"country":"sb","city":"Kamaleai","coordinates":{"lat":"-6.95","long":"155.7333333"}},{"country":"sb","city":"Kamangga","coordinates":{"lat":"-6.9666667","long":"157.0333333"}},{"country":"sb","city":"Kamanjikoko","coordinates":{"lat":"-9.7833333","long":"160.5833333"}},{"country":"sb","city":"Kamaosi","coordinates":{"lat":"-8.4666667","long":"159.8"}},{"country":"sb","city":"Kamoniboko","coordinates":{"lat":"-9.7333333","long":"160.7166667"}},{"country":"sb","city":"Kanata","coordinates":{"lat":"-9.0833333","long":"161.1833333"}},{"country":"sb","city":"Kanava'eha","coordinates":{"lat":"-11.5833333","long":"160.2166667"}},{"country":"sb","city":"Kanda","coordinates":{"lat":"-9.7","long":"160.2166667"}},{"country":"sb","city":"Kandiavata","coordinates":{"lat":"-9.15","long":"159.8"}},{"country":"sb","city":"Kandova","coordinates":{"lat":"-6.9","long":"157.0166667"}},{"country":"sb","city":"Kanggava","coordinates":{"lat":"-11.6833333","long":"160.2833333"}},{"country":"sb","city":"Kanipa","coordinates":{"lat":"-9.65","long":"159.7"}},{"country":"sb","city":"Kaoka","coordinates":{"lat":"-9.7","long":"160.6833333"}},{"country":"sb","city":"Kaokaona","coordinates":{"lat":"-10.3833333","long":"161.7"}},{"country":"sb","city":"Kaonasughu","coordinates":{"lat":"-10.4","long":"161.7666667"}},{"country":"sb","city":"Kaonasugu","coordinates":{"lat":"-10.4","long":"161.7666667"}},{"country":"sb","city":"Kaonggele","coordinates":{"lat":"-9.1333333","long":"159.8333333"}},{"country":"sb","city":"Kaori","coordinates":{"lat":"-8.15","long":"159.6166667"}},{"country":"sb","city":"Kaotave","coordinates":{"lat":"-9.4333333","long":"160.2333333"}},{"country":"sb","city":"Kapasiro","coordinates":{"lat":"-8.25","long":"159.55"}},{"country":"sb","city":"Kapeu","coordinates":{"lat":"-9.8166667","long":"160.8333333"}},{"country":"sb","city":"Kapicha","coordinates":{"lat":"-9.8","long":"160.0666667"}},{"country":"sb","city":"Kapika","coordinates":{"lat":"-6.95","long":"157.1"}},{"country":"sb","city":"Karaka","coordinates":{"lat":"-7.65","long":"156.6666667"}},{"country":"sb","city":"Kareki","coordinates":{"lat":"-6.9","long":"156.1"}},{"country":"sb","city":"Karinara","coordinates":{"lat":"-9.3166667","long":"161.0666667"}},{"country":"sb","city":"Karipaupapa","coordinates":{"lat":"-9.8666667","long":"160.8"}},{"country":"sb","city":"Karivalu","coordinates":{"lat":"-9.8","long":"160.3333333"}},{"country":"sb","city":"Karivasa","coordinates":{"lat":"-9.8","long":"160.2333333"}},{"country":"sb","city":"Karo","coordinates":{"lat":"-9.6833333","long":"159.7166667"}},{"country":"sb","city":"Karokaro","coordinates":{"lat":"-9.15","long":"161.15"}},{"country":"sb","city":"Karona","coordinates":{"lat":"-9.15","long":"161.1833333"}},{"country":"sb","city":"Karukaru","coordinates":{"lat":"-9.8833333","long":"160.55"}},{"country":"sb","city":"Karupopora","coordinates":{"lat":"-9.8666667","long":"160.8"}},{"country":"sb","city":"Karu'uu","coordinates":{"lat":"-9.4833333","long":"161.4166667"}},{"country":"sb","city":"Kasaranga","coordinates":{"lat":"-9.6333333","long":"159.65"}},{"country":"sb","city":"Kasarongo","coordinates":{"lat":"-8.4166667","long":"159.7"}},{"country":"sb","city":"Kasimburu","coordinates":{"lat":"-8.9","long":"161.0666667"}},{"country":"sb","city":"Katurasele","coordinates":{"lat":"-7.1833333","long":"156.9166667"}},{"country":"sb","city":"Kauchupuchupu","coordinates":{"lat":"-9.7166667","long":"159.7833333"}},{"country":"sb","city":"Kau","coordinates":{"lat":"-9.5","long":"159.5833333"}},{"country":"sb","city":"Kau Kau Mission","coordinates":{"lat":"-9.7","long":"160.6833333"}},{"country":"sb","city":"Kaukona","coordinates":{"lat":"-10.3833333","long":"161.7"}},{"country":"sb","city":"Kaunasugu","coordinates":{"lat":"-10.4","long":"161.7666667"}},{"country":"sb","city":"Kausa","coordinates":{"lat":"-9.7833333","long":"160.35"}},{"country":"sb","city":"Kauva","coordinates":{"lat":"-9.7666667","long":"160.15"}},{"country":"sb","city":"Kauvare","coordinates":{"lat":"-9.4166667","long":"159.6"}},{"country":"sb","city":"Kavahambe","coordinates":{"lat":"-9.5333333","long":"160.1833333"}},{"country":"sb","city":"Kava","coordinates":{"lat":"-8.35","long":"159.55"}},{"country":"sb","city":"Kavoa","coordinates":{"lat":"-9.8333333","long":"160.55"}},{"country":"sb","city":"Kavo","coordinates":{"lat":"-9.7","long":"159.9833333"}},{"country":"sb","city":"Keala","coordinates":{"lat":"-7.3833333","long":"157.3"}},{"country":"sb","city":"Ke'ana","coordinates":{"lat":"-8.9833333","long":"161.1666667"}},{"country":"sb","city":"Keara","coordinates":{"lat":"-8.1333333","long":"156.5666667"}},{"country":"sb","city":"Kekena","coordinates":{"lat":"-9.4833333","long":"160.3"}},{"country":"sb","city":"Kekepina","coordinates":{"lat":"-8.2666667","long":"159.6833333"}},{"country":"sb","city":"Kelakwai","coordinates":{"lat":"-8.7333333","long":"160.6666667"}},{"country":"sb","city":"Keloanamusu","coordinates":{"lat":"-8.3666667","long":"160.6333333"}},{"country":"sb","city":"Kelomari'i","coordinates":{"lat":"-8.7","long":"160.7333333"}},{"country":"sb","city":"Kemane","coordinates":{"lat":"-9.5833333","long":"159.7"}},{"country":"sb","city":"Kemba","coordinates":{"lat":"-9.4","long":"159.8"}},{"country":"sb","city":"Kena","coordinates":{"lat":"-8.0833333","long":"157.0166667"}},{"country":"sb","city":"Keravuru","coordinates":{"lat":"-9.4166667","long":"160.15"}},{"country":"sb","city":"Kere","coordinates":{"lat":"-9.25","long":"161.0166667"}},{"country":"sb","city":"Kerekoka","coordinates":{"lat":"-9.4166667","long":"160.3666667"}},{"country":"sb","city":"Keremanivo","coordinates":{"lat":"-9.65","long":"160.3833333"}},{"country":"sb","city":"Kerenapisi","coordinates":{"lat":"-9.2166667","long":"161.1333333"}},{"country":"sb","city":"Kerepai","coordinates":{"lat":"-10.2666667","long":"161.7333333"}},{"country":"sb","city":"Kerepei","coordinates":{"lat":"-8.45","long":"159.8166667"}},{"country":"sb","city":"Kerepei","coordinates":{"lat":"-10.2666667","long":"161.7333333"}},{"country":"sb","city":"Kerepukavala","coordinates":{"lat":"-9.7833333","long":"160.15"}},{"country":"sb","city":"Keru","coordinates":{"lat":"-8.1833333","long":"157.6666667"}},{"country":"sb","city":"Keru Village","coordinates":{"lat":"-8.1833333","long":"157.6666667"}},{"country":"sb","city":"Kesao","coordinates":{"lat":"-9.25","long":"159.6666667"}},{"country":"sb","city":"Kesatamba","coordinates":{"lat":"-9.85","long":"160.3833333"}},{"country":"sb","city":"Ketoketo","coordinates":{"lat":"-8.5833333","long":"158.1166667"}},{"country":"sb","city":"Ketonga","coordinates":{"lat":"-9.1333333","long":"159.8333333"}},{"country":"sb","city":"Keviani","coordinates":{"lat":"-8.2833333","long":"157.1166667"}},{"country":"sb","city":"Kia","coordinates":{"lat":"-7.55","long":"158.4333333"}},{"country":"sb","city":"Kiala","coordinates":{"lat":"-7.3833333","long":"157.3"}},{"country":"sb","city":"Kibelifolo","coordinates":{"lat":"-8.8333333","long":"160.7333333"}},{"country":"sb","city":"Kibelifolu","coordinates":{"lat":"-8.8333333","long":"160.7333333"}},{"country":"sb","city":"Kicho","coordinates":{"lat":"-9.45","long":"159.95"}},{"country":"sb","city":"Kikinocho","coordinates":{"lat":"-9.8166667","long":"160.0"}},{"country":"sb","city":"Kikiri","coordinates":{"lat":"-8.4833333","long":"160.6833333"}},{"country":"sb","city":"Kililonga","coordinates":{"lat":"-9.7833333","long":"160.35"}},{"country":"sb","city":"Kilokaka","coordinates":{"lat":"-8.2333333","long":"159.3166667"}},{"country":"sb","city":"Kilufali","coordinates":{"lat":"-8.6833333","long":"160.7"}},{"country":"sb","city":"Kilufi","coordinates":{"lat":"-8.7333333","long":"160.6833333"}},{"country":"sb","city":"Kilusakwalo","coordinates":{"lat":"-8.7166667","long":"160.7"}},{"country":"sb","city":"Kiluufi","coordinates":{"lat":"-8.7333333","long":"160.6833333"}},{"country":"sb","city":"Kimaga","coordinates":{"lat":"-8.2166667","long":"159.7"}},{"country":"sb","city":"Kimbito","coordinates":{"lat":"-9.5333333","long":"160.5166667"}},{"country":"sb","city":"Kindivoroa","coordinates":{"lat":"-9.8","long":"160.3333333"}},{"country":"sb","city":"Kinoso","coordinates":{"lat":"-7.2166667","long":"156.95"}},{"country":"sb","city":"Kioramo","coordinates":{"lat":"-9.65","long":"160.6666667"}},{"country":"sb","city":"Kira","coordinates":{"lat":"-9.3333333","long":"161.25"}},{"country":"sb","city":"Kirakira","coordinates":{"lat":"-10.45","long":"161.9166667"}},{"country":"sb","city":"Kirighi","coordinates":{"lat":"-8.45","long":"159.65"}},{"country":"sb","city":"Kirighi","coordinates":{"lat":"-9.1166667","long":"160.2666667"}},{"country":"sb","city":"Kirigi","coordinates":{"lat":"-9.1166667","long":"160.2666667"}},{"country":"sb","city":"Kiripaasu","coordinates":{"lat":"-9.2","long":"161.2333333"}},{"country":"sb","city":"Kiu","coordinates":{"lat":"-9.2833333","long":"161.0333333"}},{"country":"sb","city":"Kmagha","coordinates":{"lat":"-8.2166667","long":"159.7"}},{"country":"sb","city":"Koaa","coordinates":{"lat":"-8.9166667","long":"161.0666667"}},{"country":"sb","city":"Koache","coordinates":{"lat":"-9.6666667","long":"159.7"}},{"country":"sb","city":"Koa","coordinates":{"lat":"-8.6833333","long":"160.6833333"}},{"country":"sb","city":"Koalia","coordinates":{"lat":"-8.8666667","long":"160.7333333"}},{"country":"sb","city":"Koatolo","coordinates":{"lat":"-8.6833333","long":"160.7"}},{"country":"sb","city":"Kobiloko","coordinates":{"lat":"-9.4166667","long":"159.6"}},{"country":"sb","city":"Koburu","coordinates":{"lat":"-8.3166667","long":"160.8"}},{"country":"sb","city":"Kochitoa","coordinates":{"lat":"-9.75","long":"159.85"}},{"country":"sb","city":"Kochokocho","coordinates":{"lat":"-9.7833333","long":"160.05"}},{"country":"sb","city":"Koela","coordinates":{"lat":"-9.1166667","long":"159.7833333"}},{"country":"sb","city":"Koepilua","coordinates":{"lat":"-9.8166667","long":"160.4"}},{"country":"sb","city":"Koetungi","coordinates":{"lat":"-9.7166667","long":"160.7"}},{"country":"sb","city":"Kofi","coordinates":{"lat":"-8.6","long":"157.3333333"}},{"country":"sb","city":"Kofiloko","coordinates":{"lat":"-8.4333333","long":"160.8333333"}},{"country":"sb","city":"Koghambugha","coordinates":{"lat":"-9.75","long":"159.8"}},{"country":"sb","city":"Koghe","coordinates":{"lat":"-8.2666667","long":"159.6"}},{"country":"sb","city":"Koila","coordinates":{"lat":"-9.1166667","long":"159.7833333"}},{"country":"sb","city":"Koilambu","coordinates":{"lat":"-9.5833333","long":"160.6"}},{"country":"sb","city":"Koilonambo","coordinates":{"lat":"-9.6","long":"159.6666667"}},{"country":"sb","city":"Koilosuimomoru","coordinates":{"lat":"-9.6666667","long":"159.7166667"}},{"country":"sb","city":"Koilotumaria","coordinates":{"lat":"-9.4666667","long":"160.4333333"}},{"country":"sb","city":"Koilotumuria","coordinates":{"lat":"-9.4666667","long":"160.4333333"}},{"country":"sb","city":"Koilovala","coordinates":{"lat":"-9.1833333","long":"160.25"}},{"country":"sb","city":"Koilovata","coordinates":{"lat":"-9.1833333","long":"160.25"}},{"country":"sb","city":"Kokamau","coordinates":{"lat":"-9.2666667","long":"159.65"}},{"country":"sb","city":"Kokenggolo","coordinates":{"lat":"-8.3166667","long":"157.2666667"}},{"country":"sb","city":"Kokengolo","coordinates":{"lat":"-8.3166667","long":"157.2666667"}},{"country":"sb","city":"Kokengolo Mission","coordinates":{"lat":"-8.3166667","long":"157.2666667"}},{"country":"sb","city":"Kokepaku","coordinates":{"lat":"-9.5333333","long":"160.5333333"}},{"country":"sb","city":"Kokoerata","coordinates":{"lat":"-9.0166667","long":"161.2"}},{"country":"sb","city":"Kokoilo","coordinates":{"lat":"-9.4166667","long":"159.85"}},{"country":"sb","city":"Kokolapa","coordinates":{"lat":"-9.65","long":"160.15"}},{"country":"sb","city":"Kokolope","coordinates":{"lat":"-7.7","long":"156.75"}},{"country":"sb","city":"Kokombagia","coordinates":{"lat":"-8.0166667","long":"157.6"}},{"country":"sb","city":"Kokombono","coordinates":{"lat":"-9.4166667","long":"159.9166667"}},{"country":"sb","city":"Kokomu","coordinates":{"lat":"-9.4333333","long":"159.9833333"}},{"country":"sb","city":"Kokomuruka","coordinates":{"lat":"-9.55","long":"159.6333333"}},{"country":"sb","city":"Kokosuliseu","coordinates":{"lat":"-9.6666667","long":"161.4333333"}},{"country":"sb","city":"Kokosurisau","coordinates":{"lat":"-9.6666667","long":"161.4333333"}},{"country":"sb","city":"Kokote","coordinates":{"lat":"-8.5166667","long":"159.8"}},{"country":"sb","city":"Kokumaruki","coordinates":{"lat":"-9.55","long":"159.6333333"}},{"country":"sb","city":"Kokumbona","coordinates":{"lat":"-9.4166667","long":"159.9166667"}},{"country":"sb","city":"Kokumuruka","coordinates":{"lat":"-9.55","long":"159.6333333"}},{"country":"sb","city":"Koleala","coordinates":{"lat":"-9.0166667","long":"160.2666667"}},{"country":"sb","city":"Kolenamoa","coordinates":{"lat":"-6.9666667","long":"156.7166667"}},{"country":"sb","city":"Koliai","coordinates":{"lat":"-7.0333333","long":"155.8666667"}},{"country":"sb","city":"Kolika","coordinates":{"lat":"-9.15","long":"159.8166667"}},{"country":"sb","city":"Koli","coordinates":{"lat":"-9.4","long":"160.1833333"}},{"country":"sb","city":"Kolina","coordinates":{"lat":"-9.8","long":"159.9833333"}},{"country":"sb","city":"Kolochachara","coordinates":{"lat":"-9.8166667","long":"160.0333333"}},{"country":"sb","city":"Kolochega","coordinates":{"lat":"-8.2833333","long":"159.7666667"}},{"country":"sb","city":"Kolochemba","coordinates":{"lat":"-9.6333333","long":"160.5666667"}},{"country":"sb","city":"Kolochimiu","coordinates":{"lat":"-9.75","long":"159.85"}},{"country":"sb","city":"Kolochiri","coordinates":{"lat":"-9.8","long":"159.9833333"}},{"country":"sb","city":"Kolochulu","coordinates":{"lat":"-9.6166667","long":"160.3"}},{"country":"sb","city":"Koloe","coordinates":{"lat":"-6.8833333","long":"156.9833333"}},{"country":"sb","city":"Kolofi","coordinates":{"lat":"-8.3666667","long":"160.75"}},{"country":"sb","city":"Kologhajogha","coordinates":{"lat":"-8.3833333","long":"159.7333333"}},{"country":"sb","city":"Kologhalivei","coordinates":{"lat":"-9.8166667","long":"160.15"}},{"country":"sb","city":"Kologhasi","coordinates":{"lat":"-9.8166667","long":"160.1666667"}},{"country":"sb","city":"Kologhavatu","coordinates":{"lat":"-8.3333333","long":"159.8333333"}},{"country":"sb","city":"Kologhavutu","coordinates":{"lat":"-8.3333333","long":"159.8333333"}},{"country":"sb","city":"Kologhodu","coordinates":{"lat":"-8.1833333","long":"159.4833333"}},{"country":"sb","city":"Kologhona","coordinates":{"lat":"-9.7166667","long":"159.8166667"}},{"country":"sb","city":"Kolohambusi","coordinates":{"lat":"-9.6","long":"160.5166667"}},{"country":"sb","city":"Kolohaumbi","coordinates":{"lat":"-9.8833333","long":"160.5166667"}},{"country":"sb","city":"Kolokapalu","coordinates":{"lat":"-9.7166667","long":"160.3333333"}},{"country":"sb","city":"Kolokapasi","coordinates":{"lat":"-7.2166667","long":"156.9666667"}},{"country":"sb","city":"Kolokarako","coordinates":{"lat":"-9.6333333","long":"160.3833333"}},{"country":"sb","city":"Kolokeleve","coordinates":{"lat":"-8.2833333","long":"159.75"}},{"country":"sb","city":"Kolokiki","coordinates":{"lat":"-9.8166667","long":"160.1166667"}},{"country":"sb","city":"Kolokoko","coordinates":{"lat":"-9.8166667","long":"160.35"}},{"country":"sb","city":"Kolokundukundu","coordinates":{"lat":"-9.8","long":"160.0166667"}},{"country":"sb","city":"Kololauvi","coordinates":{"lat":"-9.9","long":"160.6833333"}},{"country":"sb","city":"Kolombagia","coordinates":{"lat":"-8.0166667","long":"157.6"}},{"country":"sb","city":"Kolombaleho","coordinates":{"lat":"-9.7166667","long":"160.3"}},{"country":"sb","city":"Kolombangara","coordinates":{"lat":"-8.0833333","long":"156.7833333"}},{"country":"sb","city":"Kolombari","coordinates":{"lat":"-9.8833333","long":"160.7833333"}},{"country":"sb","city":"Kolombolo","coordinates":{"lat":"-9.7833333","long":"160.1666667"}},{"country":"sb","city":"Kolombora","coordinates":{"lat":"-9.7","long":"160.3833333"}},{"country":"sb","city":"Kolomola","coordinates":{"lat":"-8.1333333","long":"159.5333333"}},{"country":"sb","city":"Kolomosu","coordinates":{"lat":"-8.2166667","long":"159.7166667"}},{"country":"sb","city":"Kolondoli","coordinates":{"lat":"-9.7833333","long":"160.1666667"}},{"country":"sb","city":"Kolonjiri","coordinates":{"lat":"-9.75","long":"160.7333333"}},{"country":"sb","city":"Kolosigana","coordinates":{"lat":"-8.3","long":"159.7333333"}},{"country":"sb","city":"Kolosula","coordinates":{"lat":"-9.6166667","long":"160.3"}},{"country":"sb","city":"Kolosulu","coordinates":{"lat":"-9.6166667","long":"160.3"}},{"country":"sb","city":"Kolotambu","coordinates":{"lat":"-9.8333333","long":"160.3833333"}},{"country":"sb","city":"Koloteve","coordinates":{"lat":"-8.45","long":"159.7833333"}},{"country":"sb","city":"Kolotita","coordinates":{"lat":"-9.7666667","long":"160.6333333"}},{"country":"sb","city":"Kolotubi","coordinates":{"lat":"-8.35","long":"159.55"}},{"country":"sb","city":"Kolotumaria","coordinates":{"lat":"-9.4666667","long":"160.4333333"}},{"country":"sb","city":"Kolovaleve","coordinates":{"lat":"-9.8166667","long":"160.15"}},{"country":"sb","city":"Kolovalu","coordinates":{"lat":"-6.8666667","long":"156.6"}},{"country":"sb","city":"Kolovaolu","coordinates":{"lat":"-9.9166667","long":"160.65"}},{"country":"sb","city":"Kolovasari","coordinates":{"lat":"-6.85","long":"156.5833333"}},{"country":"sb","city":"Kolovatuniura","coordinates":{"lat":"-9.6666667","long":"160.6"}},{"country":"sb","city":"Kolovelo","coordinates":{"lat":"-9.8166667","long":"160.7666667"}},{"country":"sb","city":"Kolovuluvulu","coordinates":{"lat":"-9.7333333","long":"160.5833333"}},{"country":"sb","city":"Kolumbaghea","coordinates":{"lat":"-8.0166667","long":"157.6"}},{"country":"sb","city":"Kolutoha","coordinates":{"lat":"-9.4166667","long":"159.9"}},{"country":"sb","city":"Komambulu","coordinates":{"lat":"-9.3333333","long":"159.6"}},{"country":"sb","city":"Komanuga","coordinates":{"lat":"-9.25","long":"159.7"}},{"country":"sb","city":"Komanuha","coordinates":{"lat":"-9.25","long":"159.7"}},{"country":"sb","city":"Komaru","coordinates":{"lat":"-9.4166667","long":"160.15"}},{"country":"sb","city":"Komate","coordinates":{"lat":"-9.7833333","long":"159.8833333"}},{"country":"sb","city":"Komati","coordinates":{"lat":"-9.7833333","long":"159.8833333"}},{"country":"sb","city":"Kombae","coordinates":{"lat":"-6.9666667","long":"156.7166667"}},{"country":"sb","city":"Kombalombalo","coordinates":{"lat":"-9.6833333","long":"159.7166667"}},{"country":"sb","city":"Kombau","coordinates":{"lat":"-9.6166667","long":"159.6666667"}},{"country":"sb","city":"Kombe'aikiki","coordinates":{"lat":"-8.4333333","long":"160.7833333"}},{"country":"sb","city":"Kombe'ai","coordinates":{"lat":"-8.4333333","long":"160.7833333"}},{"country":"sb","city":"Kombe","coordinates":{"lat":"-9.1","long":"160.35"}},{"country":"sb","city":"Kombi","coordinates":{"lat":"-9.7","long":"159.7666667"}},{"country":"sb","city":"Kombiloko","coordinates":{"lat":"-9.4166667","long":"159.6"}},{"country":"sb","city":"Kombito II","coordinates":{"lat":"-9.5333333","long":"160.5166667"}},{"country":"sb","city":"Kombito I","coordinates":{"lat":"-9.5333333","long":"160.5166667"}},{"country":"sb","city":"Kombito","coordinates":{"lat":"-9.4333333","long":"159.9833333"}},{"country":"sb","city":"Kombokisa","coordinates":{"lat":"-6.9166667","long":"157.05"}},{"country":"sb","city":"Komimbo","coordinates":{"lat":"-9.25","long":"159.6666667"}},{"country":"sb","city":"Komindi","coordinates":{"lat":"-9.4333333","long":"160.1833333"}},{"country":"sb","city":"Komoniboko","coordinates":{"lat":"-9.7333333","long":"160.7166667"}},{"country":"sb","city":"Komoto","coordinates":{"lat":"-9.7","long":"160.65"}},{"country":"sb","city":"Komovaolo","coordinates":{"lat":"-9.9166667","long":"160.5833333"}},{"country":"sb","city":"Komughavea","coordinates":{"lat":"-9.45","long":"160.25"}},{"country":"sb","city":"Komu'isia","coordinates":{"lat":"-9.8166667","long":"160.8833333"}},{"country":"sb","city":"Komukama","coordinates":{"lat":"-9.5166667","long":"160.3"}},{"country":"sb","city":"Komukea","coordinates":{"lat":"-9.4166667","long":"160.25"}},{"country":"sb","city":"Komu","coordinates":{"lat":"-9.8","long":"160.1833333"}},{"country":"sb","city":"Komukomu","coordinates":{"lat":"-9.6666667","long":"159.7333333"}},{"country":"sb","city":"Komukusua","coordinates":{"lat":"-9.7333333","long":"160.6"}},{"country":"sb","city":"Komule","coordinates":{"lat":"-9.5833333","long":"160.3333333"}},{"country":"sb","city":"Komulevugha","coordinates":{"lat":"-9.5166667","long":"159.6"}},{"country":"sb","city":"Komumarara","coordinates":{"lat":"-8.9666667","long":"160.0833333"}},{"country":"sb","city":"Komumbembe","coordinates":{"lat":"-9.4166667","long":"160.2333333"}},{"country":"sb","city":"Komuna","coordinates":{"lat":"-9.7166667","long":"160.5833333"}},{"country":"sb","city":"Komungelea","coordinates":{"lat":"-9.5333333","long":"160.55"}},{"country":"sb","city":"Komuniao","coordinates":{"lat":"-9.6","long":"160.2833333"}},{"country":"sb","city":"Komuniato","coordinates":{"lat":"-9.5833333","long":"160.6"}},{"country":"sb","city":"Komunidhimbo","coordinates":{"lat":"-9.4666667","long":"160.4333333"}},{"country":"sb","city":"Komunighogha","coordinates":{"lat":"-9.5333333","long":"160.3166667"}},{"country":"sb","city":"Komunihaka","coordinates":{"lat":"-9.5","long":"161.25"}},{"country":"sb","city":"Komunihara","coordinates":{"lat":"-9.8","long":"160.7833333"}},{"country":"sb","city":"Komunikoa","coordinates":{"lat":"-9.8166667","long":"160.8166667"}},{"country":"sb","city":"Komunima'angga","coordinates":{"lat":"-9.65","long":"160.65"}},{"country":"sb","city":"Komunimala","coordinates":{"lat":"-9.4333333","long":"160.3833333"}},{"country":"sb","city":"Komunimatangga","coordinates":{"lat":"-9.4333333","long":"160.3833333"}},{"country":"sb","city":"Komunimbaimbai","coordinates":{"lat":"-9.85","long":"160.8333333"}},{"country":"sb","city":"Komunimbambasa","coordinates":{"lat":"-9.65","long":"160.55"}},{"country":"sb","city":"Komunimboko","coordinates":{"lat":"-9.5333333","long":"160.5"}},{"country":"sb","city":"Komunimbolo","coordinates":{"lat":"-9.6333333","long":"160.5333333"}},{"country":"sb","city":"Komunimbombolo","coordinates":{"lat":"-9.75","long":"160.7333333"}},{"country":"sb","city":"Komuninggita","coordinates":{"lat":"-9.4833333","long":"160.45"}},{"country":"sb","city":"Komunisambaha","coordinates":{"lat":"-9.65","long":"160.5333333"}},{"country":"sb","city":"Komunitambalolo","coordinates":{"lat":"-9.9","long":"160.6833333"}},{"country":"sb","city":"Komunivele","coordinates":{"lat":"-9.4166667","long":"160.1666667"}},{"country":"sb","city":"Komupau","coordinates":{"lat":"-9.8666667","long":"160.8166667"}},{"country":"sb","city":"Komuporo","coordinates":{"lat":"-9.4","long":"160.1666667"}},{"country":"sb","city":"Komurarata","coordinates":{"lat":"-9.4333333","long":"160.2833333"}},{"country":"sb","city":"Komureo","coordinates":{"lat":"-9.5166667","long":"160.1"}},{"country":"sb","city":"Komusondu","coordinates":{"lat":"-9.6166667","long":"160.6333333"}},{"country":"sb","city":"Komuvadha","coordinates":{"lat":"-9.4666667","long":"160.2333333"}},{"country":"sb","city":"Komuvaolu","coordinates":{"lat":"-9.4333333","long":"160.1833333"}},{"country":"sb","city":"Kona","coordinates":{"lat":"-6.8666667","long":"156.6"}},