[{"country":"kp","city":"Aanshu","coordinates":{"lat":"39.6177778","long":"125.6647222"}},{"country":"kp","city":"Abuamni","coordinates":{"lat":"40.1633333","long":"125.5261111"}},{"country":"kp","city":"Abyungni","coordinates":{"lat":"39.4388889","long":"125.5802778"}},{"country":"kp","city":"Achadong","coordinates":{"lat":"38.9633333","long":"125.6475"}},{"country":"kp","city":"Achigonni","coordinates":{"lat":"39.3777778","long":"127.3802778"}},{"country":"kp","city":"Achimni","coordinates":{"lat":"38.38","long":"127.5233333"}},{"country":"kp","city":"Achiul","coordinates":{"lat":"38.8472222","long":"126.0819444"}},{"country":"kp","city":"Achon","coordinates":{"lat":"39.0002778","long":"126.1727778"}},{"country":"kp","city":"Achondong","coordinates":{"lat":"38.8852778","long":"126.2938889"}},{"country":"kp","city":"Adong","coordinates":{"lat":"38.2858333","long":"126.6013889"}},{"country":"kp","city":"Adongni","coordinates":{"lat":"39.6733333","long":"127.3061111"}},{"country":"kp","city":"Adukpa","coordinates":{"lat":"40.9666667","long":"126.8333333"}},{"country":"kp","city":"Adukpo","coordinates":{"lat":"40.9666667","long":"126.8333333"}},{"country":"kp","city":"Aeamdong","coordinates":{"lat":"41.2","long":"129.7"}},{"country":"kp","city":"Aechang","coordinates":{"lat":"39.7166667","long":"126.6333333"}},{"country":"kp","city":"Aecholli","coordinates":{"lat":"38.2788889","long":"125.3302778"}},{"country":"kp","city":"Aechon","coordinates":{"lat":"38.5194444","long":"125.7811111"}},{"country":"kp","city":"Aechon","coordinates":{"lat":"38.3041667","long":"126.8727778"}},{"country":"kp","city":"Aechonni","coordinates":{"lat":"38.2788889","long":"125.3302778"}},{"country":"kp","city":"Aedangdong","coordinates":{"lat":"38.7688889","long":"125.4338889"}},{"country":"kp","city":"Aedangpo","coordinates":{"lat":"38.7733333","long":"125.4413889"}},{"country":"kp","city":"Aedodong","coordinates":{"lat":"39.525","long":"125.1988889"}},{"country":"kp","city":"Aedong","coordinates":{"lat":"38.1966667","long":"126.8266667"}},{"country":"kp","city":"Aedong","coordinates":{"lat":"39.2347222","long":"126.085"}},{"country":"kp","city":"Aedonodongjagu","coordinates":{"lat":"39.525","long":"125.1988889"}},{"country":"kp","city":"Aegongni","coordinates":{"lat":"38.8091667","long":"125.6125"}},{"country":"kp","city":"Aejong","coordinates":{"lat":"38.4325","long":"125.6508333"}},{"country":"kp","city":"Aenak","coordinates":{"lat":"38.5052778","long":"125.4958333"}},{"country":"kp","city":"Aenamdong","coordinates":{"lat":"39.2633333","long":"125.4833333"}},{"country":"kp","city":"Aengdangdong","coordinates":{"lat":"38.2997222","long":"125.2780556"}},{"country":"kp","city":"Aenggari","coordinates":{"lat":"38.3088889","long":"125.2663889"}},{"country":"kp","city":"Aepodong","coordinates":{"lat":"39.0963889","long":"125.8933333"}},{"country":"kp","city":"Aepori","coordinates":{"lat":"37.8363889","long":"126.6480556"}},{"country":"kp","city":"Aesandong","coordinates":{"lat":"37.9","long":"125.7"}},{"country":"kp","city":"Aesanpo","coordinates":{"lat":"39.4108333","long":"125.4986111"}},{"country":"kp","city":"Aeudong","coordinates":{"lat":"38.2577778","long":"125.5916667"}},{"country":"kp","city":"Aewolli","coordinates":{"lat":"38.8422222","long":"125.3852778"}},{"country":"kp","city":"Aewonni","coordinates":{"lat":"38.8422222","long":"125.3852778"}},{"country":"kp","city":"Agalli","coordinates":{"lat":"38.8905556","long":"127.9427778"}},{"country":"kp","city":"Agochi","coordinates":{"lat":"42.5191667","long":"130.3955556"}},{"country":"kp","city":"Agochido","coordinates":{"lat":"42.5191667","long":"130.3955556"}},{"country":"kp","city":"Agojido","coordinates":{"lat":"42.5191667","long":"130.3955556"}},{"country":"kp","city":"Ahari","coordinates":{"lat":"39.2683333","long":"126.0158333"}},{"country":"kp","city":"Ahodong","coordinates":{"lat":"37.8941667","long":"126.3741667"}},{"country":"kp","city":"AhomiHadong","coordinates":{"lat":"40.3305556","long":"125.7488889"}},{"country":"kp","city":"Ahomisangdong","coordinates":{"lat":"40.3069444","long":"125.7583333"}},{"country":"kp","city":"Ahopkubul","coordinates":{"lat":"38.1463889","long":"126.1194444"}},{"country":"kp","city":"Ahudong","coordinates":{"lat":"38.2638889","long":"125.1097222"}},{"country":"kp","city":"Ahundogi","coordinates":{"lat":"40.9844444","long":"128.8636111"}},{"country":"kp","city":"Ahunggol","coordinates":{"lat":"41.0133333","long":"128.8619444"}},{"country":"kp","city":"Ahungol","coordinates":{"lat":"41.0133333","long":"128.8619444"}},{"country":"kp","city":"Ahyondong","coordinates":{"lat":"38.1886111","long":"125.6055556"}},{"country":"kp","city":"Ahyonni","coordinates":{"lat":"38.0666667","long":"126.0333333"}},{"country":"kp","city":"Ahyonni","coordinates":{"lat":"38.6833333","long":"127.6666667"}},{"country":"kp","city":"Ai","coordinates":{"lat":"38.9977778","long":"125.2844444"}},{"country":"kp","city":"Aiso","coordinates":{"lat":"39.7166667","long":"126.6333333"}},{"country":"kp","city":"Allangni","coordinates":{"lat":"37.75","long":"125.4166667"}},{"country":"kp","city":"Alli","coordinates":{"lat":"38.6833333","long":"125.55"}},{"country":"kp","city":"Allungdong","coordinates":{"lat":"37.9419444","long":"126.5494444"}},{"country":"kp","city":"Allungni","coordinates":{"lat":"37.9419444","long":"126.5494444"}},{"country":"kp","city":"Allyangkol","coordinates":{"lat":"40.8336111","long":"128.2780556"}},{"country":"kp","city":"Allyegol","coordinates":{"lat":"41.01","long":"129.4136111"}},{"country":"kp","city":"Allyekol","coordinates":{"lat":"41.01","long":"129.4136111"}},{"country":"kp","city":"Almaegol","coordinates":{"lat":"39.3552778","long":"125.6783333"}},{"country":"kp","city":"Almegol","coordinates":{"lat":"38.3883333","long":"125.75"}},{"country":"kp","city":"Ambangdong","coordinates":{"lat":"40.8872222","long":"129.5586111"}},{"country":"kp","city":"Amchon","coordinates":{"lat":"38.1","long":"125.6333333"}},{"country":"kp","city":"Amchon","coordinates":{"lat":"40.8675","long":"129.5455556"}},{"country":"kp","city":"Amchondong","coordinates":{"lat":"38.12","long":"125.3577778"}},{"country":"kp","city":"Amdo","coordinates":{"lat":"38.7","long":"125.6"}},{"country":"kp","city":"Amdong","coordinates":{"lat":"38.0","long":"125.1666667"}},{"country":"kp","city":"Amdong","coordinates":{"lat":"40.1333333","long":"125.8166667"}},{"country":"kp","city":"Amdong","coordinates":{"lat":"39.6","long":"125.65"}},{"country":"kp","city":"Amduri","coordinates":{"lat":"39.6844444","long":"125.0002778"}},{"country":"kp","city":"Amhoedong","coordinates":{"lat":"42.1261111","long":"130.0594444"}},{"country":"kp","city":"Amhoeri","coordinates":{"lat":"41.2666667","long":"128.2833333"}},{"country":"kp","city":"Amhungni","coordinates":{"lat":"40.9666667","long":"128.3"}},{"country":"kp","city":"Amhwari","coordinates":{"lat":"38.9333333","long":"125.5044444"}},{"country":"kp","city":"Amidong","coordinates":{"lat":"40.1666667","long":"126.5166667"}},{"country":"kp","city":"Amigol","coordinates":{"lat":"40.1666667","long":"126.5166667"}},{"country":"kp","city":"Amigol","coordinates":{"lat":"37.9666667","long":"126.5"}},{"country":"kp","city":"Amikol","coordinates":{"lat":"40.1666667","long":"126.5166667"}},{"country":"kp","city":"Amiri","coordinates":{"lat":"37.7833333","long":"125.4833333"}},{"country":"kp","city":"Amjo","coordinates":{"lat":"38.1744444","long":"126.2811111"}},{"country":"kp","city":"Amjo","coordinates":{"lat":"38.8833333","long":"125.9666667"}},{"country":"kp","city":"Amjo","coordinates":{"lat":"40.8580556","long":"129.5830556"}},{"country":"kp","city":"Amjodong","coordinates":{"lat":"38.7130556","long":"126.5044444"}},{"country":"kp","city":"Amjondong","coordinates":{"lat":"38.1588889","long":"125.3644444"}},{"country":"kp","city":"Amjong","coordinates":{"lat":"38.2877778","long":"125.905"}},{"country":"kp","city":"Amjongni","coordinates":{"lat":"39.2591667","long":"125.6727778"}},{"country":"kp","city":"Amjuktong","coordinates":{"lat":"39.6705556","long":"124.98"}},{"country":"kp","city":"Amjungni","coordinates":{"lat":"39.6705556","long":"124.98"}},{"country":"kp","city":"Ammal","coordinates":{"lat":"39.2066667","long":"126.0269444"}},{"country":"kp","city":"Amnae","coordinates":{"lat":"38.1755556","long":"126.2894444"}},{"country":"kp","city":"Amnamdong","coordinates":{"lat":"38.115","long":"125.3697222"}},{"country":"kp","city":"Amni","coordinates":{"lat":"38.3933333","long":"127.8558333"}},{"country":"kp","city":"Amnyongni","coordinates":{"lat":"39.1277778","long":"127.7438889"}},{"country":"kp","city":"Amokchongni","coordinates":{"lat":"39.2833333","long":"127.1833333"}},{"country":"kp","city":"Ampen","coordinates":{"lat":"39.0425","long":"127.5238889"}},{"country":"kp","city":"Ampori","coordinates":{"lat":"39.2358333","long":"126.2477778"}},{"country":"kp","city":"Amsil","coordinates":{"lat":"37.7830556","long":"126.5902778"}},{"country":"kp","city":"Amsodong","coordinates":{"lat":"38.1422222","long":"126.505"}},{"country":"kp","city":"Amtodong","coordinates":{"lat":"41.3272222","long":"126.4186111"}},{"country":"kp","city":"Anagup","coordinates":{"lat":"38.5052778","long":"125.4958333"}},{"country":"kp","city":"Anak","coordinates":{"lat":"38.5052778","long":"125.4958333"}},{"country":"kp","city":"Anakup","coordinates":{"lat":"38.5052778","long":"125.4958333"}},{"country":"kp","city":"Anam","coordinates":{"lat":"38.6583333","long":"128.3361111"}},{"country":"kp","city":"AnAn","coordinates":{"lat":"38.6436111","long":"127.7172222"}},{"country":"kp","city":"Anansimi","coordinates":{"lat":"37.9405556","long":"126.2888889"}},{"country":"kp","city":"Anansimni","coordinates":{"lat":"37.9405556","long":"126.2888889"}},{"country":"kp","city":"Anban","coordinates":{"lat":"38.49","long":"125.6708333"}},{"country":"kp","city":"Anbi","coordinates":{"lat":"39.3875","long":"126.2083333"}},{"country":"kp","city":"Anbomsan","coordinates":{"lat":"38.0622222","long":"126.3275"}},{"country":"kp","city":"Anbongdong","coordinates":{"lat":"38.0597222","long":"125.5452778"}},{"country":"kp","city":"Anbongni","coordinates":{"lat":"38.285","long":"126.7741667"}},{"country":"kp","city":"Anbyon","coordinates":{"lat":"39.0425","long":"127.5238889"}},{"country":"kp","city":"Anbyonup","coordinates":{"lat":"39.0425","long":"127.5238889"}},{"country":"kp","city":"Anchalli","coordinates":{"lat":"41.0402778","long":"126.4216667"}},{"country":"kp","city":"Anchandong","coordinates":{"lat":"41.0402778","long":"126.4216667"}},{"country":"kp","city":"Anchangdong","coordinates":{"lat":"40.0283333","long":"125.055"}},{"country":"kp","city":"Anchangni","coordinates":{"lat":"38.2877778","long":"126.1636111"}},{"country":"kp","city":"Anchanni","coordinates":{"lat":"41.0402778","long":"126.4216667"}},{"country":"kp","city":"Anchon","coordinates":{"lat":"40.4030556","long":"128.6611111"}},{"country":"kp","city":"Anchon","coordinates":{"lat":"38.5333333","long":"125.0666667"}},{"country":"kp","city":"Anchon","coordinates":{"lat":"39.1252778","long":"125.5244444"}},{"country":"kp","city":"Anchon","coordinates":{"lat":"41.6977778","long":"129.4205556"}},{"country":"kp","city":"Anchongmori","coordinates":{"lat":"37.9969444","long":"125.8772222"}},{"country":"kp","city":"Anchungdogi","coordinates":{"lat":"41.3097222","long":"129.4797222"}},{"country":"kp","city":"Anchungoogi","coordinates":{"lat":"41.3097222","long":"129.4797222"}},{"country":"kp","city":"Anchununni","coordinates":{"lat":"38.6077778","long":"126.5877778"}},{"country":"kp","city":"Andae","coordinates":{"lat":"38.1505556","long":"125.7236111"}},{"country":"kp","city":"Andaedong","coordinates":{"lat":"39.2852778","long":"125.8511111"}},{"country":"kp","city":"Andaegol","coordinates":{"lat":"38.46","long":"125.9"}},{"country":"kp","city":"Andaltong","coordinates":{"lat":"39.6677778","long":"125.3883333"}},{"country":"kp","city":"Andari","coordinates":{"lat":"38.0913889","long":"126.1277778"}},{"country":"kp","city":"Andodong","coordinates":{"lat":"41.2313889","long":"126.5313889"}},{"country":"kp","city":"Andojang","coordinates":{"lat":"38.8780556","long":"125.4427778"}},{"country":"kp","city":"Andoktong","coordinates":{"lat":"38.5516667","long":"125.4072222"}},{"country":"kp","city":"Andol","coordinates":{"lat":"40.1127778","long":"126.2733333"}},{"country":"kp","city":"Andol","coordinates":{"lat":"38.6341667","long":"127.1913889"}},{"country":"kp","city":"Andol","coordinates":{"lat":"40.9666667","long":"129.05"}},{"country":"kp","city":"Andolgol","coordinates":{"lat":"38.3333333","long":"125.4"}},{"country":"kp","city":"Andolli","coordinates":{"lat":"41.0041667","long":"129.5855556"}},{"country":"kp","city":"Andoltari","coordinates":{"lat":"38.2833333","long":"126.9833333"}},{"country":"kp","city":"Andoltong","coordinates":{"lat":"41.3197222","long":"129.3083333"}},{"country":"kp","city":"Andong","coordinates":{"lat":"41.7502778","long":"126.8702778"}},{"country":"kp","city":"Andong","coordinates":{"lat":"38.1394444","long":"126.1647222"}},{"country":"kp","city":"Andong","coordinates":{"lat":"37.8897222","long":"126.4486111"}},{"country":"kp","city":"Andong","coordinates":{"lat":"39.5894444","long":"125.1252778"}},{"country":"kp","city":"Andong","coordinates":{"lat":"38.9147222","long":"125.2730556"}},{"country":"kp","city":"Andongdong","coordinates":{"lat":"38.3172222","long":"126.7947222"}},{"country":"kp","city":"Andongni","coordinates":{"lat":"39.4827778","long":"127.4905556"}},{"country":"kp","city":"Andongni","coordinates":{"lat":"39.8658333","long":"125.4788889"}},{"country":"kp","city":"Andongni","coordinates":{"lat":"39.8019444","long":"126.2827778"}},{"country":"kp","city":"Andore","coordinates":{"lat":"41.5913889","long":"129.6702778"}},{"country":"kp","city":"Andori","coordinates":{"lat":"40.8647222","long":"127.3175"}},{"country":"kp","city":"Andori","coordinates":{"lat":"39.4477778","long":"127.0263889"}},{"country":"kp","city":"Andori","coordinates":{"lat":"38.4683333","long":"128.2061111"}},{"country":"kp","city":"Andschu","coordinates":{"lat":"39.6177778","long":"125.6647222"}},{"country":"kp","city":"Anduri","coordinates":{"lat":"37.9166667","long":"125.25"}},{"country":"kp","city":"Angaegol","coordinates":{"lat":"38.8302778","long":"126.1036111"}},{"country":"kp","city":"Angaegol","coordinates":{"lat":"39.3561111","long":"125.6952778"}},{"country":"kp","city":"Angaekol","coordinates":{"lat":"38.8302778","long":"126.1036111"}},{"country":"kp","city":"Angaekol","coordinates":{"lat":"39.3488889","long":"125.7019444"}},{"country":"kp","city":"Angaji","coordinates":{"lat":"40.8586111","long":"128.9938889"}},{"country":"kp","city":"Angaku","coordinates":{"lat":"38.5052778","long":"125.4958333"}},{"country":"kp","city":"Angandok","coordinates":{"lat":"41.6197222","long":"129.5477778"}},{"country":"kp","city":"Angangdong","coordinates":{"lat":"38.2391667","long":"125.1263889"}},{"country":"kp","city":"Angendo","coordinates":{"lat":"42.7169444","long":"130.1777778"}},{"country":"kp","city":"Angeri","coordinates":{"lat":"41.335","long":"128.2169444"}},{"country":"kp","city":"Angidong","coordinates":{"lat":"37.9933333","long":"125.9858333"}},{"country":"kp","city":"Angilli","coordinates":{"lat":"42.4825","long":"130.2269444"}},{"country":"kp","city":"Angiri","coordinates":{"lat":"41.0108333","long":"127.5744444"}},{"country":"kp","city":"Angobang","coordinates":{"lat":"41.2422222","long":"128.8083333"}},{"country":"kp","city":"Angojan","coordinates":{"lat":"37.9638889","long":"125.7091667"}},{"country":"kp","city":"Angok","coordinates":{"lat":"40.4655556","long":"128.6452778"}},{"country":"kp","city":"Angok","coordinates":{"lat":"38.2986111","long":"125.3791667"}},{"country":"kp","city":"Angok","coordinates":{"lat":"39.5916667","long":"125.1533333"}},{"country":"kp","city":"Angok","coordinates":{"lat":"41.5666667","long":"129.65"}},{"country":"kp","city":"Angoktong","coordinates":{"lat":"40.5666667","long":"125.9166667"}},{"country":"kp","city":"Angol","coordinates":{"lat":"39.3452778","long":"127.1241667"}},{"country":"kp","city":"Angol","coordinates":{"lat":"37.8594444","long":"125.9075"}},{"country":"kp","city":"Angol","coordinates":{"lat":"38.2483333","long":"126.2452778"}},{"country":"kp","city":"Angol","coordinates":{"lat":"38.5061111","long":"127.9133333"}},{"country":"kp","city":"Angol","coordinates":{"lat":"39.5505556","long":"124.865"}},{"country":"kp","city":"Angol","coordinates":{"lat":"38.8191667","long":"126.0016667"}},{"country":"kp","city":"Angol","coordinates":{"lat":"40.8447222","long":"127.8791667"}},{"country":"kp","city":"Angol","coordinates":{"lat":"38.7619444","long":"125.5"}},{"country":"kp","city":"Angol","coordinates":{"lat":"38.8402778","long":"125.2466667"}},{"country":"kp","city":"Angol","coordinates":{"lat":"41.5666667","long":"129.65"}},{"country":"kp","city":"Angongni","coordinates":{"lat":"40.1963889","long":"128.3688889"}},{"country":"kp","city":"Angongni","coordinates":{"lat":"38.1558333","long":"125.4302778"}},{"country":"kp","city":"Angongni","coordinates":{"lat":"38.5705556","long":"125.7172222"}},{"country":"kp","city":"Angsidongni","coordinates":{"lat":"40.3586111","long":"128.5569444"}},{"country":"kp","city":"Angtodong","coordinates":{"lat":"40.8591667","long":"125.8333333"}},{"country":"kp","city":"Angtori","coordinates":{"lat":"40.8591667","long":"125.8333333"}},{"country":"kp","city":"Anguji","coordinates":{"lat":"38.6791667","long":"126.2963889"}},{"country":"kp","city":"Angwangchon","coordinates":{"lat":"39.5747222","long":"125.2983333"}},{"country":"kp","city":"Angwoltong","coordinates":{"lat":"38.6061111","long":"125.3775"}},{"country":"kp","city":"Angyeri","coordinates":{"lat":"41.335","long":"128.2169444"}},{"country":"kp","city":"Angyo","coordinates":{"lat":"41.3716667","long":"129.7308333"}},{"country":"kp","city":"Anha","coordinates":{"lat":"39.8166667","long":"124.8833333"}},{"country":"kp","city":"Anhadong","coordinates":{"lat":"41.0383333","long":"126.3969444"}},{"country":"kp","city":"Anhaktong","coordinates":{"lat":"39.0661111","long":"125.8536111"}},{"country":"kp","city":"Anhari","coordinates":{"lat":"40.5833333","long":"125.7166667"}},{"country":"kp","city":"Anhari","coordinates":{"lat":"39.1897222","long":"125.7202778"}},{"country":"kp","city":"Anhari","coordinates":{"lat":"39.5258333","long":"126.3263889"}},{"country":"kp","city":"Anhen","coordinates":{"lat":"39.0425","long":"127.5238889"}},{"country":"kp","city":"Anhouidong","coordinates":{"lat":"40.9936111","long":"129.3908333"}},{"country":"kp","city":"Anhungdong","coordinates":{"lat":"39.7288889","long":"125.2491667"}},{"country":"kp","city":"Anhungdong","coordinates":{"lat":"40.7211111","long":"129.0483333"}},{"country":"kp","city":"Anhungni","coordinates":{"lat":"39.4022222","long":"127.4027778"}},{"country":"kp","city":"Anhungni","coordinates":{"lat":"39.8077778","long":"125.4191667"}},{"country":"kp","city":"Anhungni","coordinates":{"lat":"39.1836111","long":"125.7091667"}},{"country":"kp","city":"Anhungni","coordinates":{"lat":"39.4275","long":"126.0908333"}},{"country":"kp","city":"Anhyolli","coordinates":{"lat":"37.9466667","long":"126.1461111"}},{"country":"kp","city":"Anhyolli","coordinates":{"lat":"38.8205556","long":"125.6072222"}},{"country":"kp","city":"Anhyon","coordinates":{"lat":"37.9166667","long":"125.1166667"}},{"country":"kp","city":"Anhyondong","coordinates":{"lat":"42.2747222","long":"129.5625"}},{"country":"kp","city":"Anhyonni","coordinates":{"lat":"37.9466667","long":"126.1461111"}},{"country":"kp","city":"Anhyonni","coordinates":{"lat":"38.8205556","long":"125.6072222"}},{"country":"kp","city":"Anhyop","coordinates":{"lat":"38.3569444","long":"126.8188889"}},{"country":"kp","city":"Anhyoptong","coordinates":{"lat":"38.4083333","long":"125.0175"}},{"country":"kp","city":"Anjaedong","coordinates":{"lat":"42.2747222","long":"129.5625"}},{"country":"kp","city":"Anjaegae","coordinates":{"lat":"38.4461111","long":"125.985"}},{"country":"kp","city":"Anjangdong","coordinates":{"lat":"38.4319444","long":"127.4105556"}},{"country":"kp","city":"Anjidong","coordinates":{"lat":"38.1044444","long":"125.8380556"}},{"country":"kp","city":"Anjikkol","coordinates":{"lat":"41.2833333","long":"129.3"}},{"country":"kp","city":"Anjindong","coordinates":{"lat":"41.9075","long":"129.9558333"}},{"country":"kp","city":"Anjogun","coordinates":{"lat":"39.8944444","long":"127.7938889"}},{"country":"kp","city":"Anjongni","coordinates":{"lat":"38.9813889","long":"125.5547222"}},{"country":"kp","city":"Anjongni","coordinates":{"lat":"39.0936111","long":"125.3666667"}},{"country":"kp","city":"Anjonjang","coordinates":{"lat":"41.3633333","long":"129.4669444"}},{"country":"kp","city":"Anju","coordinates":{"lat":"39.6177778","long":"125.6647222"}},{"country":"kp","city":"Anjudong","coordinates":{"lat":"42.2338889","long":"130.3161111"}},{"country":"kp","city":"Anjunodongjagu","coordinates":{"lat":"39.4877778","long":"125.4611111"}},{"country":"kp","city":"Anjunodongjagu","coordinates":{"lat":"42.2338889","long":"130.3161111"}},{"country":"kp","city":"Anjuri","coordinates":{"lat":"42.2338889","long":"130.3161111"}},{"country":"kp","city":"Anjuup","coordinates":{"lat":"39.6177778","long":"125.6647222"}},{"country":"kp","city":"Ankkonmi","coordinates":{"lat":"38.3986111","long":"125.4336111"}},{"country":"kp","city":"Ankkotcholgol","coordinates":{"lat":"38.3633333","long":"125.7983333"}},{"country":"kp","city":"Ankol","coordinates":{"lat":"39.3452778","long":"127.1241667"}},{"country":"kp","city":"Ankol","coordinates":{"lat":"39.0069444","long":"126.1227778"}},{"country":"kp","city":"Ankol","coordinates":{"lat":"39.1472222","long":"125.5511111"}},{"country":"kp","city":"Ankyo","coordinates":{"lat":"38.3569444","long":"126.8188889"}},{"country":"kp","city":"Anmaedong","coordinates":{"lat":"37.9825","long":"126.3480556"}},{"country":"kp","city":"Anmal","coordinates":{"lat":"37.7930556","long":"126.5891667"}},{"country":"kp","city":"Anmal","coordinates":{"lat":"38.4719444","long":"126.8172222"}},{"country":"kp","city":"Anmaul","coordinates":{"lat":"38.5858333","long":"127.9711111"}},{"country":"kp","city":"Anmaul","coordinates":{"lat":"38.9","long":"125.8833333"}},{"country":"kp","city":"Anmedong","coordinates":{"lat":"37.9825","long":"126.3480556"}},{"country":"kp","city":"Anmi","coordinates":{"lat":"38.5241667","long":"128.0111111"}},{"country":"kp","city":"Anmindong","coordinates":{"lat":"40.8455556","long":"129.1433333"}},{"country":"kp","city":"Anmiri","coordinates":{"lat":"38.7405556","long":"127.8333333"}},{"country":"kp","city":"Anmungol","coordinates":{"lat":"39.7786111","long":"126.6388889"}},{"country":"kp","city":"Annamgol","coordinates":{"lat":"38.2747222","long":"126.6041667"}},{"country":"kp","city":"Anni","coordinates":{"lat":"38.6833333","long":"125.55"}},{"country":"kp","city":"Annongni","coordinates":{"lat":"42.7888889","long":"130.2088889"}},{"country":"kp","city":"Annurum","coordinates":{"lat":"38.875","long":"125.4908333"}},{"country":"kp","city":"Anoryudong","coordinates":{"lat":"39.3561111","long":"127.2469444"}},{"country":"kp","city":"Anpandari","coordinates":{"lat":"38.1855556","long":"126.4902778"}},{"country":"kp","city":"Anpen","coordinates":{"lat":"39.0425","long":"127.5238889"}},{"country":"kp","city":"Anpungdong","coordinates":{"lat":"40.2863889","long":"125.4483333"}},{"country":"kp","city":"AnpungdongSongpungdong","coordinates":{"lat":"40.1252778","long":"125.3722222"}},{"country":"kp","city":"Anpungni","coordinates":{"lat":"40.1333333","long":"127.95"}},{"country":"kp","city":"Anpungni","coordinates":{"lat":"40.2863889","long":"125.4483333"}},{"country":"kp","city":"Anpyong","coordinates":{"lat":"39.7747222","long":"124.6027778"}},{"country":"kp","city":"Anpyongni","coordinates":{"lat":"39.9402778","long":"125.5019444"}},{"country":"kp","city":"Anraesangkol","coordinates":{"lat":"39.34","long":"126.9725"}},{"country":"kp","city":"Ansaeu","coordinates":{"lat":"38.4988889","long":"126.7686111"}},{"country":"kp","city":"Ansalli","coordinates":{"lat":"39.7575","long":"124.7713889"}},{"country":"kp","city":"Ansammundong","coordinates":{"lat":"41.4233333","long":"128.3963889"}},{"country":"kp","city":"Ansan","coordinates":{"lat":"38.1727778","long":"126.0361111"}},{"country":"kp","city":"Ansan","coordinates":{"lat":"38.1908333","long":"126.0255556"}},{"country":"kp","city":"Ansandong","coordinates":{"lat":"38.4519444","long":"125.0002778"}},{"country":"kp","city":"Ansandong","coordinates":{"lat":"39.7575","long":"124.7713889"}},{"country":"kp","city":"Ansandong","coordinates":{"lat":"39.0166667","long":"125.7166667"}},{"country":"kp","city":"Ansandong","coordinates":{"lat":"39.515","long":"126.3316667"}},{"country":"kp","city":"Ansangdong","coordinates":{"lat":"41.0425","long":"126.4205556"}},{"country":"kp","city":"Ansangdong","coordinates":{"lat":"39.8305556","long":"124.9044444"}},{"country":"kp","city":"Ansangni","coordinates":{"lat":"40.5713889","long":"125.6986111"}},{"country":"kp","city":"Ansangni","coordinates":{"lat":"39.8305556","long":"124.9044444"}},{"country":"kp","city":"Ansangni","coordinates":{"lat":"39.1936111","long":"125.7288889"}},{"country":"kp","city":"Ansangni","coordinates":{"lat":"39.515","long":"126.3316667"}},{"country":"kp","city":"Ansanni","coordinates":{"lat":"39.7575","long":"124.7713889"}},{"country":"kp","city":"Ansanni","coordinates":{"lat":"39.6897222","long":"126.2188889"}},{"country":"kp","city":"Ansekiri","coordinates":{"lat":"38.9708333","long":"125.2191667"}},{"country":"kp","city":"Anshin","coordinates":{"lat":"39.8166667","long":"125.4333333"}},{"country":"kp","city":"Anshindo","coordinates":{"lat":"39.8166667","long":"125.4333333"}},{"country":"kp","city":"Anshu","coordinates":{"lat":"39.6177778","long":"125.6647222"}},{"country":"kp","city":"Ansidongniyangji","coordinates":{"lat":"40.47","long":"128.5497222"}},{"country":"kp","city":"Ansimchon","coordinates":{"lat":"38.7166667","long":"125.7166667"}},{"country":"kp","city":"Ansimdong","coordinates":{"lat":"39.7238889","long":"125.2730556"}},{"country":"kp","city":"Ansimdong","coordinates":{"lat":"41.0822222","long":"129.5805556"}},{"country":"kp","city":"Ansimgol","coordinates":{"lat":"39.8527778","long":"126.0719444"}},{"country":"kp","city":"Ansindong","coordinates":{"lat":"38.2813889","long":"126.6516667"}},{"country":"kp","city":"Ansiri","coordinates":{"lat":"40.3138889","long":"128.5877778"}},{"country":"kp","city":"Ansodae","coordinates":{"lat":"39.0333333","long":"126.1194444"}},{"country":"kp","city":"Ansogun","coordinates":{"lat":"39.8944444","long":"127.7938889"}},{"country":"kp","city":"Ansojae","coordinates":{"lat":"38.5958333","long":"127.7180556"}},{"country":"kp","city":"Ansolgogae","coordinates":{"lat":"38.0","long":"125.2333333"}},{"country":"kp","city":"Ansommal","coordinates":{"lat":"38.4066667","long":"125.7866667"}},{"country":"kp","city":"Ansong","coordinates":{"lat":"38.3194444","long":"126.1105556"}},{"country":"kp","city":"Ansong","coordinates":{"lat":"38.7066667","long":"128.3208333"}},{"country":"kp","city":"Ansongdong","coordinates":{"lat":"38.4583333","long":"125.2075"}},{"country":"kp","city":"Ansonggol","coordinates":{"lat":"38.4583333","long":"125.2075"}},{"country":"kp","city":"Ansonggwan","coordinates":{"lat":"38.4794444","long":"127.4275"}},{"country":"kp","city":"Ansonghyon","coordinates":{"lat":"39.2505556","long":"126.1305556"}},{"country":"kp","city":"Ansongni","coordinates":{"lat":"38.8611111","long":"125.415"}},{"country":"kp","city":"Ansongni","coordinates":{"lat":"38.9708333","long":"125.2191667"}},{"country":"kp","city":"Ansoppa","coordinates":{"lat":"38.49","long":"126.6866667"}},{"country":"kp","city":"Ansoppa","coordinates":{"lat":"38.5008333","long":"126.7291667"}},{"country":"kp","city":"Ansorok","coordinates":{"lat":"39.5922222","long":"125.1461111"}},{"country":"kp","city":"Anssaakpodong","coordinates":{"lat":"41.9619444","long":"129.9577778"}},{"country":"kp","city":"Anssangpodong","coordinates":{"lat":"41.9619444","long":"129.9577778"}},{"country":"kp","city":"Ansyu","coordinates":{"lat":"39.6177778","long":"125.6647222"}},{"country":"kp","city":"Ansyu Yu","coordinates":{"lat":"39.6177778","long":"125.6647222"}},{"country":"kp","city":"Antaek","coordinates":{"lat":"41.2452778","long":"128.85"}},{"country":"kp","city":"Antaengni","coordinates":{"lat":"39.1925","long":"126.1038889"}},{"country":"kp","city":"Antaeri","coordinates":{"lat":"39.9333333","long":"125.4666667"}},{"country":"kp","city":"Antarikol","coordinates":{"lat":"38.7797222","long":"127.2163889"}},{"country":"kp","city":"Anto","coordinates":{"lat":"39.3716667","long":"127.1691667"}},{"country":"kp","city":"Anto","coordinates":{"lat":"38.1505556","long":"125.7236111"}},{"country":"kp","city":"Anto","coordinates":{"lat":"38.5986111","long":"126.4975"}},{"country":"kp","city":"Anto","coordinates":{"lat":"40.8730556","long":"127.9491667"}},{"country":"kp","city":"Anto","coordinates":{"lat":"39.4252778","long":"125.5258333"}},{"country":"kp","city":"Antoekogae","coordinates":{"lat":"39.9627778","long":"125.4641667"}},{"country":"kp","city":"Antogol","coordinates":{"lat":"37.9933333","long":"125.9858333"}},{"country":"kp","city":"Anuidong","coordinates":{"lat":"39.6691667","long":"125.0216667"}},{"country":"kp","city":"Anuiri","coordinates":{"lat":"39.6691667","long":"125.0216667"}},{"country":"kp","city":"Anwari","coordinates":{"lat":"39.4352778","long":"126.0813889"}},{"country":"kp","city":"Anwolli","coordinates":{"lat":"42.7169444","long":"130.1777778"}},{"country":"kp","city":"Anwondong","coordinates":{"lat":"42.7169444","long":"130.1777778"}},{"country":"kp","city":"Anwonni","coordinates":{"lat":"42.7169444","long":"130.1777778"}},{"country":"kp","city":"Anyangdong","coordinates":{"lat":"38.555","long":"125.3563889"}},{"country":"kp","city":"Anyangdong","coordinates":{"lat":"39.6502778","long":"125.3333333"}},{"country":"kp","city":"Anyanggol","coordinates":{"lat":"39.6502778","long":"125.3333333"}},{"country":"kp","city":"Anyangni","coordinates":{"lat":"38.4552778","long":"126.9741667"}},{"country":"kp","city":"Anyangni","coordinates":{"lat":"39.6375","long":"125.4522222"}},{"country":"kp","city":"Anyolli","coordinates":{"lat":"39.2847222","long":"125.4191667"}},{"country":"kp","city":"Anyong","coordinates":{"lat":"39.3897222","long":"127.17"}},{"country":"kp","city":"Anyongmiri","coordinates":{"lat":"39.3583333","long":"127.5477778"}},{"country":"kp","city":"Anyonni","coordinates":{"lat":"39.2847222","long":"125.4191667"}},{"country":"kp","city":"Aoji","coordinates":{"lat":"42.5191667","long":"130.3955556"}},{"country":"kp","city":"Aojidong","coordinates":{"lat":"42.5191667","long":"130.3955556"}},{"country":"kp","city":"Aojiri","coordinates":{"lat":"42.5191667","long":"130.3955556"}},{"country":"kp","city":"Apari","coordinates":{"lat":"39.2683333","long":"126.0158333"}},{"country":"kp","city":"Aphyongje","coordinates":{"lat":"38.75","long":"125.65"}},{"country":"kp","city":"Apkangdong","coordinates":{"lat":"42.9847222","long":"129.8905556"}},{"country":"kp","city":"Apkogae","coordinates":{"lat":"39.6269444","long":"125.1877778"}},{"country":"kp","city":"Apkombau","coordinates":{"lat":"38.9222222","long":"125.6616667"}},{"country":"kp","city":"Apkomunbawi","coordinates":{"lat":"38.9222222","long":"125.6616667"}},{"country":"kp","city":"Apkori","coordinates":{"lat":"39.0666667","long":"125.45"}},{"country":"kp","city":"Apmaul","coordinates":{"lat":"41.6","long":"129.5833333"}},{"country":"kp","city":"Apssungmul","coordinates":{"lat":"38.8833333","long":"125.7"}},{"country":"kp","city":"Apsudong","coordinates":{"lat":"38.0763889","long":"126.3691667"}},{"country":"kp","city":"Aptogi","coordinates":{"lat":"40.9027778","long":"129.6447222"}},{"country":"kp","city":"Aptok","coordinates":{"lat":"40.9027778","long":"129.6447222"}},{"country":"kp","city":"Aptongni","coordinates":{"lat":"38.4152778","long":"127.3525"}},{"country":"kp","city":"Aptongsan","coordinates":{"lat":"38.9","long":"125.75"}},{"country":"kp","city":"Arachongdan","coordinates":{"lat":"40.1333333","long":"126.9333333"}},{"country":"kp","city":"Araebangganmal","coordinates":{"lat":"38.4322222","long":"125.0272222"}},{"country":"kp","city":"Araebangganmaul","coordinates":{"lat":"38.4322222","long":"125.0272222"}},{"country":"kp","city":"Araebol","coordinates":{"lat":"37.9419444","long":"126.4622222"}},{"country":"kp","city":"Araebuhungni","coordinates":{"lat":"37.9641667","long":"125.9005556"}},{"country":"kp","city":"Araechanggol","coordinates":{"lat":"37.95","long":"126.2019444"}},{"country":"kp","city":"Araechangmal","coordinates":{"lat":"37.95","long":"126.2019444"}},{"country":"kp","city":"Araechangmaul","coordinates":{"lat":"37.95","long":"126.2019444"}},{"country":"kp","city":"Araechinbul","coordinates":{"lat":"39.1077778","long":"127.6516667"}},{"country":"kp","city":"Araecholkol","coordinates":{"lat":"39.4077778","long":"126.995"}},{"country":"kp","city":"Araechongdan","coordinates":{"lat":"40.1333333","long":"126.9333333"}},{"country":"kp","city":"Araechongdok","coordinates":{"lat":"41.5508333","long":"129.5402778"}},{"country":"kp","city":"Araechongmaru","coordinates":{"lat":"39.0877778","long":"125.3408333"}},{"country":"kp","city":"Araechongol","coordinates":{"lat":"39.1477778","long":"125.9647222"}},{"country":"kp","city":"Araedambau","coordinates":{"lat":"39.0658333","long":"126.8608333"}},{"country":"kp","city":"Araedoegol","coordinates":{"lat":"38.1722222","long":"126.6861111"}},{"country":"kp","city":"Araegajang","coordinates":{"lat":"38.9166667","long":"125.8333333"}},{"country":"kp","city":"Araegalchomni","coordinates":{"lat":"40.9522222","long":"127.3094444"}},{"country":"kp","city":"Araegandamdong","coordinates":{"lat":"38.5886111","long":"125.1775"}},{"country":"kp","city":"Araegangsanbong","coordinates":{"lat":"41.5713889","long":"128.3136111"}},{"country":"kp","city":"Araegapsangol","coordinates":{"lat":"41.0080556","long":"128.9213889"}},{"country":"kp","city":"Araegaraegol","coordinates":{"lat":"38.9333333","long":"125.85"}},{"country":"kp","city":"Araegi","coordinates":{"lat":"37.9833333","long":"125.4833333"}},{"country":"kp","city":"Araegingol","coordinates":{"lat":"38.1263889","long":"126.7397222"}},{"country":"kp","city":"Araegol","coordinates":{"lat":"39.0247222","long":"126.0619444"}},{"country":"kp","city":"Araegomundong","coordinates":{"lat":"38.9","long":"125.8333333"}},{"country":"kp","city":"Araegongae","coordinates":{"lat":"41.2236111","long":"126.9533333"}},{"country":"kp","city":"Araegubi","coordinates":{"lat":"42.1166667","long":"129.05"}},{"country":"kp","city":"Araeguji","coordinates":{"lat":"39.3683333","long":"127.0452778"}},{"country":"kp","city":"Araegumchon","coordinates":{"lat":"41.0391667","long":"129.1183333"}},{"country":"kp","city":"Araegumsumul","coordinates":{"lat":"38.8833333","long":"125.75"}},{"country":"kp","city":"Araegumumbau","coordinates":{"lat":"38.15","long":"126.6891667"}},{"country":"kp","city":"Araegwangtalli","coordinates":{"lat":"39.4183333","long":"127.3391667"}},{"country":"kp","city":"Araegwanto","coordinates":{"lat":"41.0122222","long":"129.2886111"}},{"country":"kp","city":"Araehachi","coordinates":{"lat":"38.9","long":"125.7833333"}},{"country":"kp","city":"Araehaksa","coordinates":{"lat":"42.4033333","long":"129.4941667"}},{"country":"kp","city":"Araejangkol","coordinates":{"lat":"38.5980556","long":"126.4755556"}},{"country":"kp","city":"Araejigyongnae","coordinates":{"lat":"38.9666667","long":"126.9333333"}},{"country":"kp","city":"Araejinbul","coordinates":{"lat":"39.1072222","long":"127.6566667"}},{"country":"kp","city":"Araejom","coordinates":{"lat":"38.3869444","long":"127.4966667"}},{"country":"kp","city":"Araejongmaru","coordinates":{"lat":"39.0877778","long":"125.3408333"}},{"country":"kp","city":"Araejulam","coordinates":{"lat":"38.9333333","long":"125.8166667"}},{"country":"kp","city":"Araekapsankol","coordinates":{"lat":"41.0080556","long":"128.9213889"}},{"country":"kp","city":"Araekkoin","coordinates":{"lat":"39.4169444","long":"126.5955556"}},{"country":"kp","city":"Araekkol","coordinates":{"lat":"42.5627778","long":"130.5105556"}},{"country":"kp","city":"Araekomul","coordinates":{"lat":"38.2997222","long":"126.5569444"}},{"country":"kp","city":"Araekosmun","coordinates":{"lat":"38.4219444","long":"126.5741667"}},{"country":"kp","city":"Araekuji","coordinates":{"lat":"39.3683333","long":"127.0452778"}},{"country":"kp","city":"Araekwanto","coordinates":{"lat":"41.0122222","long":"129.2886111"}},{"country":"kp","city":"Araemal","coordinates":{"lat":"38.4713889","long":"127.1672222"}},{"country":"kp","city":"Araemaul","coordinates":{"lat":"39.9833333","long":"124.5666667"}},{"country":"kp","city":"Araemaul","coordinates":{"lat":"41.6166667","long":"129.6833333"}},{"country":"kp","city":"Araemulssogi","coordinates":{"lat":"38.9333333","long":"125.7333333"}},{"country":"kp","city":"Araemuralli","coordinates":{"lat":"38.8475","long":"127.7119444"}},{"country":"kp","city":"Araemuranni","coordinates":{"lat":"38.8475","long":"127.7119444"}},{"country":"kp","city":"Araenaemak","coordinates":{"lat":"40.3405556","long":"126.8016667"}},{"country":"kp","city":"Araenmal","coordinates":{"lat":"38.7608333","long":"127.6069444"}},{"country":"kp","city":"Araenmal","coordinates":{"lat":"39.3488889","long":"126.4622222"}},{"country":"kp","city":"Araenongol","coordinates":{"lat":"39.0486111","long":"126.1913889"}},{"country":"kp","city":"Araenunggol","coordinates":{"lat":"38.3786111","long":"125.3891667"}},{"country":"kp","city":"Araeppaewon","coordinates":{"lat":"38.1566667","long":"126.6672222"}},{"country":"kp","city":"Araesabong","coordinates":{"lat":"38.125","long":"126.0752778"}},{"country":"kp","city":"Araesaeto","coordinates":{"lat":"38.1444444","long":"126.4880556"}},{"country":"kp","city":"Araesaji","coordinates":{"lat":"42.4336111","long":"129.4194444"}},{"country":"kp","city":"Araesandae","coordinates":{"lat":"39.2166667","long":"125.35"}},{"country":"kp","city":"Araesatkol","coordinates":{"lat":"39.4444444","long":"126.175"}},{"country":"kp","city":"Araesejuwon","coordinates":{"lat":"38.7719444","long":"127.5122222"}},{"country":"kp","city":"Araesindari","coordinates":{"lat":"38.8872222","long":"125.6686111"}},{"country":"kp","city":"Araesoksaeul","coordinates":{"lat":"39.0194444","long":"126.1711111"}},{"country":"kp","city":"Araesongdong","coordinates":{"lat":"38.4938889","long":"127.1911111"}},{"country":"kp","city":"Araesonggol","coordinates":{"lat":"37.9558333","long":"125.8836111"}},{"country":"kp","city":"Araesumijong","coordinates":{"lat":"38.2313889","long":"126.5052778"}},{"country":"kp","city":"Araetambau","coordinates":{"lat":"39.0658333","long":"126.8608333"}},{"country":"kp","city":"Araetapkori","coordinates":{"lat":"38.4572222","long":"127.5244444"}},{"country":"kp","city":"Araetkol","coordinates":{"lat":"39.1691667","long":"125.9927778"}},{"country":"kp","city":"Araetoekol","coordinates":{"lat":"38.1722222","long":"126.6861111"}},{"country":"kp","city":"Araetokchang","coordinates":{"lat":"38.1263889","long":"126.0666667"}},{"country":"kp","city":"Araetopyong","coordinates":{"lat":"38.1877778","long":"126.1222222"}},{"country":"kp","city":"Araeungol","coordinates":{"lat":"38.7","long":"125.65"}},{"country":"kp","city":"Araeyomsugol","coordinates":{"lat":"38.1722222","long":"125.8"}},{"country":"kp","city":"Arangdong","coordinates":{"lat":"38.5341667","long":"124.82"}},{"country":"kp","city":"Arangpo","coordinates":{"lat":"38.2333333","long":"124.9"}},{"country":"kp","city":"Aresosiktong","coordinates":{"lat":"41.2288889","long":"129.2777778"}},{"country":"kp","city":"Aridong","coordinates":{"lat":"39.6252778","long":"126.4991667"}},{"country":"kp","city":"Arilcham","coordinates":{"lat":"39.7147222","long":"126.0983333"}},{"country":"kp","city":"Arilli","coordinates":{"lat":"39.7072222","long":"126.0186111"}},{"country":"kp","city":"Arillodongjagu","coordinates":{"lat":"39.7072222","long":"126.0186111"}},{"country":"kp","city":"Ariltong","coordinates":{"lat":"39.7072222","long":"126.0186111"}},{"country":"kp","city":"Arongsongdong","coordinates":{"lat":"40.3","long":"126.3666667"}},{"country":"kp","city":"Arongsongni","coordinates":{"lat":"40.3","long":"126.3666667"}},{"country":"kp","city":"Asalli","coordinates":{"lat":"38.9658333","long":"127.8125"}},{"country":"kp","city":"Asongdong","coordinates":{"lat":"38.0369444","long":"125.2969444"}},{"country":"kp","city":"Ayangdong","coordinates":{"lat":"41.7711111","long":"129.5586111"}},{"country":"kp","city":"Ayangni","coordinates":{"lat":"37.8625","long":"126.2683333"}},{"country":"kp","city":"Bado","coordinates":{"lat":"38.4713889","long":"125.8877778"}},{"country":"kp","city":"Baenri","coordinates":{"lat":"38.4266667","long":"127.3455556"}},{"country":"kp","city":"Baisanten","coordinates":{"lat":"39.2116667","long":"125.855"}},{"country":"kp","city":"Bakkei","coordinates":{"lat":"39.8555556","long":"127.7544444"}},{"country":"kp","city":"Bakkumi","coordinates":{"lat":"40.135","long":"128.4747222"}},{"country":"kp","city":"Bakomi","coordinates":{"lat":"39.8758333","long":"127.7772222"}},{"country":"kp","city":"Bammonten","coordinates":{"lat":"37.9383333","long":"126.6452778"}},{"country":"kp","city":"Banchunjo","coordinates":{"lat":"39.6458333","long":"127.4152778"}},{"country":"kp","city":"Banjori","coordinates":{"lat":"39.3","long":"125.7666667"}},{"country":"kp","city":"Banshiri","coordinates":{"lat":"39.3","long":"125.8"}},{"country":"kp","city":"Banshori","coordinates":{"lat":"39.3086111","long":"125.7627778"}},{"country":"kp","city":"Banshundo","coordinates":{"lat":"40.57","long":"129.1547222"}},{"country":"kp","city":"Banshunjo","coordinates":{"lat":"39.6458333","long":"127.4152778"}},{"country":"kp","city":"Barando","coordinates":{"lat":"39.1752778","long":"125.8252778"}},{"country":"kp","city":"Basanri","coordinates":{"lat":"38.4305556","long":"127.1780556"}},{"country":"kp","city":"Bashisen","coordinates":{"lat":"38.4508333","long":"127.7833333"}},{"country":"kp","city":"Batenri","coordinates":{"lat":"39.1113889","long":"127.1313889"}},{"country":"kp","city":"Bayo","coordinates":{"lat":"42.0444444","long":"129.4944444"}},{"country":"kp","city":"Bayodo","coordinates":{"lat":"42.0444444","long":"129.4944444"}},{"country":"kp","city":"Bazan","coordinates":{"lat":"37.9347222","long":"125.3619444"}},{"country":"kp","city":"Bazan","coordinates":{"lat":"38.4636111","long":"125.8355556"}},{"country":"kp","city":"Bazando","coordinates":{"lat":"40.0","long":"124.6666667"}},{"country":"kp","city":"Bazanri","coordinates":{"lat":"38.4636111","long":"125.8355556"}},{"country":"kp","city":"Bekkado","coordinates":{"lat":"40.7886111","long":"126.5702778"}},{"country":"kp","city":"Bekkari","coordinates":{"lat":"40.7886111","long":"126.5702778"}},{"country":"kp","city":"Bessori","coordinates":{"lat":"39.2833333","long":"126.4333333"}},{"country":"kp","city":"Betsugodo","coordinates":{"lat":"41.1338889","long":"126.2422222"}},{"country":"kp","city":"Betsukakuson","coordinates":{"lat":"40.4975","long":"128.82"}},{"country":"kp","city":"Betsukari","coordinates":{"lat":"40.7886111","long":"126.5702778"}},{"country":"kp","city":"Bidori","coordinates":{"lat":"39.5744444","long":"127.54"}},{"country":"kp","city":"Binson","coordinates":{"lat":"41.0","long":"129.2333333"}},{"country":"kp","city":"Bisanri","coordinates":{"lat":"39.0738889","long":"125.7925"}},{"country":"kp","city":"Bochido","coordinates":{"lat":"38.1","long":"124.75"}},{"country":"kp","city":"Bodo","coordinates":{"lat":"38.0158333","long":"126.4269444"}},{"country":"kp","city":"Bohori","coordinates":{"lat":"40.0333333","long":"124.5833333"}},{"country":"kp","city":"Bokeido","coordinates":{"lat":"42.3991667","long":"130.0866667"}},{"country":"kp","city":"Bokodo","coordinates":{"lat":"41.4183333","long":"129.7238889"}},{"country":"kp","city":"Bokuchu","coordinates":{"lat":"41.6633333","long":"129.6216667"}},{"country":"kp","city":"Bokuchudo","coordinates":{"lat":"41.6633333","long":"129.6216667"}},{"country":"kp","city":"Bokuto","coordinates":{"lat":"38.7125","long":"125.4369444"}},{"country":"kp","city":"Bokutoho","coordinates":{"lat":"38.7166667","long":"125.4355556"}},{"country":"kp","city":"Bokutori","coordinates":{"lat":"38.7125","long":"125.4369444"}},{"country":"kp","city":"Bokyodo","coordinates":{"lat":"42.3991667","long":"130.0866667"}},{"country":"kp","city":"Bonhokuri","coordinates":{"lat":"38.5113889","long":"127.2566667"}},{"country":"kp","city":"Bori","coordinates":{"lat":"39.35","long":"126.2333333"}},{"country":"kp","city":"Boseibo","coordinates":{"lat":"38.75","long":"125.7"}},{"country":"kp","city":"Boshindo","coordinates":{"lat":"38.8994444","long":"125.9027778"}},{"country":"kp","city":"Boshinjo","coordinates":{"lat":"38.8994444","long":"125.9027778"}},{"country":"kp","city":"Botokuri","coordinates":{"lat":"40.3","long":"126.0666667"}},{"country":"kp","city":"Boyado","coordinates":{"lat":"38.1","long":"124.75"}},{"country":"kp","city":"Buheiri","coordinates":{"lat":"40.6858333","long":"126.4591667"}},{"country":"kp","city":"Buhyori","coordinates":{"lat":"40.6858333","long":"126.4591667"}},{"country":"kp","city":"Bukkairi","coordinates":{"lat":"38.3797222","long":"126.3269444"}},{"country":"kp","city":"Bumburi","coordinates":{"lat":"38.4330556","long":"126.0669444"}},{"country":"kp","city":"Bumpyo","coordinates":{"lat":"39.2338889","long":"127.3597222"}},{"country":"kp","city":"Bunganri","coordinates":{"lat":"40.0","long":"128.2166667"}},{"country":"kp","city":"Bunganri","coordinates":{"lat":"38.6677778","long":"126.9180556"}},{"country":"kp","city":"Bungo","coordinates":{"lat":"39.0","long":"126.4166667"}},{"country":"kp","city":"Bungori","coordinates":{"lat":"39.0","long":"126.4166667"}},{"country":"kp","city":"Bunheiri","coordinates":{"lat":"39.2338889","long":"127.3597222"}},{"country":"kp","city":"Bunka","coordinates":{"lat":"38.4061111","long":"125.41"}},{"country":"kp","city":"Bunpeiri","coordinates":{"lat":"39.2338889","long":"127.3597222"}},{"country":"kp","city":"Bunseiri","coordinates":{"lat":"38.065","long":"125.6355556"}},{"country":"kp","city":"Bunsen","coordinates":{"lat":"39.2897222","long":"127.2997222"}},{"country":"kp","city":"Buntei","coordinates":{"lat":"39.2338889","long":"127.3597222"}},{"country":"kp","city":"Bunto","coordinates":{"lat":"38.3408333","long":"127.9752778"}},{"country":"kp","city":"Buntokudo","coordinates":{"lat":"38.8680556","long":"126.7155556"}},{"country":"kp","city":"Buntori","coordinates":{"lat":"38.3408333","long":"127.9752778"}},{"country":"kp","city":"Buryodo","coordinates":{"lat":"38.3563889","long":"126.8394444"}},{"country":"kp","city":"Butsukairi","coordinates":{"lat":"38.3797222","long":"126.3269444"}},{"country":"kp","city":"Butsumondo","coordinates":{"lat":"38.2238889","long":"126.9325"}},{"country":"kp","city":"Chaadong","coordinates":{"lat":"39.5552778","long":"126.7288889"}},{"country":"kp","city":"Chaamdong","coordinates":{"lat":"41.44","long":"129.2436111"}},{"country":"kp","city":"Chaari","coordinates":{"lat":"39.6616667","long":"126.7161111"}},{"country":"kp","city":"Chabangni","coordinates":{"lat":"39.2308333","long":"127.2277778"}},{"country":"kp","city":"Chabatkol","coordinates":{"lat":"38.1155556","long":"125.7397222"}},{"country":"kp","city":"Chabok","coordinates":{"lat":"37.865","long":"125.9433333"}},{"country":"kp","city":"Chaboktong","coordinates":{"lat":"39.9744444","long":"125.35"}},{"country":"kp","city":"Chabongni","coordinates":{"lat":"37.8844444","long":"126.1322222"}},{"country":"kp","city":"Chabongni","coordinates":{"lat":"38.9388889","long":"125.2644444"}},{"country":"kp","city":"Chabori","coordinates":{"lat":"41.2847222","long":"127.7297222"}},{"country":"kp","city":"Chabuk","coordinates":{"lat":"37.865","long":"125.9433333"}},{"country":"kp","city":"Chabuk","coordinates":{"lat":"39.0666667","long":"125.75"}},{"country":"kp","city":"Chachangni","coordinates":{"lat":"38.2872222","long":"126.1116667"}},{"country":"kp","city":"Chachidong","coordinates":{"lat":"41.2622222","long":"128.835"}},{"country":"kp","city":"Chachilli","coordinates":{"lat":"39.3497222","long":"125.5544444"}},{"country":"kp","city":"Chachon","coordinates":{"lat":"37.8461111","long":"125.9488889"}},{"country":"kp","city":"Chadalli","coordinates":{"lat":"37.8777778","long":"126.1397222"}},{"country":"kp","city":"Chadan","coordinates":{"lat":"38.1166667","long":"125.9030556"}},{"country":"kp","city":"Chadangni","coordinates":{"lat":"40.6","long":"125.6333333"}},{"country":"kp","city":"Chadolbaegi","coordinates":{"lat":"38.15","long":"125.1333333"}},{"country":"kp","city":"Chadolgol","coordinates":{"lat":"38.1861111","long":"126.3341667"}},{"country":"kp","city":"Chadolkol","coordinates":{"lat":"38.1861111","long":"126.3341667"}},{"country":"kp","city":"Chadolmol","coordinates":{"lat":"38.335","long":"125.9527778"}},{"country":"kp","city":"Chadolmoru","coordinates":{"lat":"38.7052778","long":"125.7455556"}},{"country":"kp","city":"Chadong","coordinates":{"lat":"40.2369444","long":"126.1122222"}},{"country":"kp","city":"Chadong","coordinates":{"lat":"40.4005556","long":"128.1383333"}},{"country":"kp","city":"Chadong","coordinates":{"lat":"37.8666667","long":"125.6333333"}},{"country":"kp","city":"Chadong","coordinates":{"lat":"39.0333333","long":"127.1833333"}},{"country":"kp","city":"Chadong","coordinates":{"lat":"39.9166667","long":"124.9333333"}},{"country":"kp","city":"Chadong","coordinates":{"lat":"39.0391667","long":"125.96"}},{"country":"kp","city":"Chadong","coordinates":{"lat":"39.4925","long":"126.2033333"}},{"country":"kp","city":"Chadong","coordinates":{"lat":"40.7380556","long":"129.1138889"}},{"country":"kp","city":"Chadongni","coordinates":{"lat":"40.1","long":"127.4333333"}},{"country":"kp","city":"Chadongni","coordinates":{"lat":"39.4925","long":"126.2033333"}},{"country":"kp","city":"Chadorag","coordinates":{"lat":"38.2338889","long":"126.7602778"}},{"country":"kp","city":"Chadoragi","coordinates":{"lat":"38.2338889","long":"126.7602778"}},{"country":"kp","city":"Chadorogwi","coordinates":{"lat":"38.2338889","long":"126.7602778"}},{"country":"kp","city":"Chaealli","coordinates":{"lat":"39.8347222","long":"127.4091667"}},{"country":"kp","city":"Chaeammol","coordinates":{"lat":"37.9427778","long":"125.9452778"}},{"country":"kp","city":"Chaeamni","coordinates":{"lat":"37.9427778","long":"125.9452778"}},{"country":"kp","city":"Chaeari","coordinates":{"lat":"40.95","long":"127.1333333"}},{"country":"kp","city":"Chaebau","coordinates":{"lat":"41.9591667","long":"128.7505556"}},{"country":"kp","city":"Chaebongdong","coordinates":{"lat":"38.3652778","long":"126.7341667"}},{"country":"kp","city":"Chaebonggok","coordinates":{"lat":"41.6711111","long":"129.6075"}},{"country":"kp","city":"Chaebonggol","coordinates":{"lat":"38.4986111","long":"125.93"}},{"country":"kp","city":"Chaebonggol","coordinates":{"lat":"41.6711111","long":"129.6075"}},{"country":"kp","city":"Chaebongkol","coordinates":{"lat":"41.6711111","long":"129.6075"}},{"country":"kp","city":"Chaechanggumi","coordinates":{"lat":"41.3236111","long":"129.7594444"}},{"country":"kp","city":"Chaechangumi","coordinates":{"lat":"41.3236111","long":"129.7594444"}},{"country":"kp","city":"Chaechol","coordinates":{"lat":"38.2433333","long":"126.0988889"}},{"country":"kp","city":"Chaecholli","coordinates":{"lat":"38.4316667","long":"125.6152778"}},{"country":"kp","city":"Chaechon","coordinates":{"lat":"39.5352778","long":"127.1838889"}},{"country":"kp","city":"Chaechon","coordinates":{"lat":"38.465","long":"125.0508333"}},{"country":"kp","city":"Chaechon","coordinates":{"lat":"38.8833333","long":"125.8666667"}},{"country":"kp","city":"Chaechon","coordinates":{"lat":"39.1775","long":"126.8819444"}},{"country":"kp","city":"Chaechon","coordinates":{"lat":"40.8616667","long":"129.5833333"}},{"country":"kp","city":"Chaechonni","coordinates":{"lat":"38.4316667","long":"125.6152778"}},{"country":"kp","city":"Chaechonni","coordinates":{"lat":"38.8","long":"127.4"}},{"country":"kp","city":"Chaedaldong","coordinates":{"lat":"40.8666667","long":"128.15"}},{"country":"kp","city":"Chaedalgol","coordinates":{"lat":"40.8666667","long":"128.15"}},{"country":"kp","city":"Chaedaltong","coordinates":{"lat":"40.8666667","long":"128.15"}},{"country":"kp","city":"Chaedogi","coordinates":{"lat":"41.0138889","long":"129.3561111"}},{"country":"kp","city":"Chaedok","coordinates":{"lat":"41.1313889","long":"129.1591667"}},{"country":"kp","city":"Chaedong","coordinates":{"lat":"38.3211111","long":"125.8488889"}},{"country":"kp","city":"Chaedong","coordinates":{"lat":"38.9372222","long":"125.5752778"}},{"country":"kp","city":"Chaedong","coordinates":{"lat":"39.4925","long":"126.2033333"}},{"country":"kp","city":"Chaedong","coordinates":{"lat":"40.85","long":"129.4666667"}},{"country":"kp","city":"Chaedongni","coordinates":{"lat":"38.2561111","long":"126.2825"}},{"country":"kp","city":"Chaedongni","coordinates":{"lat":"39.4925","long":"126.2033333"}},{"country":"kp","city":"Chaedongnodongjagu","coordinates":{"lat":"39.4925","long":"126.2033333"}},{"country":"kp","city":"Chaegaegol","coordinates":{"lat":"41.4366667","long":"129.3766667"}},{"country":"kp","city":"Chaegaewon","coordinates":{"lat":"39.9713889","long":"124.6488889"}},{"country":"kp","city":"Chaegari","coordinates":{"lat":"41.1858333","long":"127.9327778"}},{"country":"kp","city":"Chaeggyongri","coordinates":{"lat":"39.1730556","long":"127.13"}},{"country":"kp","city":"Chaegol","coordinates":{"lat":"38.4075","long":"125.9552778"}},{"country":"kp","city":"Chaegol","coordinates":{"lat":"39.1305556","long":"126.2711111"}},{"country":"kp","city":"Chaegolli","coordinates":{"lat":"39.1530556","long":"126.2322222"}},{"country":"kp","city":"Chaegongni","coordinates":{"lat":"39.6333333","long":"125.5"}},{"country":"kp","city":"Chaegung","coordinates":{"lat":"39.6033333","long":"126.8497222"}},{"country":"kp","city":"Chaegung","coordinates":{"lat":"38.2033333","long":"126.3166667"}},{"country":"kp","city":"Chaegung","coordinates":{"lat":"39.6672222","long":"125.3744444"}},{"country":"kp","city":"Chaegung","coordinates":{"lat":"38.915","long":"125.3994444"}},{"country":"kp","city":"Chaegungchon","coordinates":{"lat":"40.6166667","long":"129.1666667"}},{"country":"kp","city":"Chaegungdong","coordinates":{"lat":"38.29","long":"125.5369444"}},{"country":"kp","city":"Chaegungdong","coordinates":{"lat":"38.8166667","long":"125.7166667"}},{"country":"kp","city":"Chaegungdong","coordinates":{"lat":"39.7394444","long":"124.9166667"}},{"country":"kp","city":"Chaegungdong","coordinates":{"lat":"38.9833333","long":"125.8333333"}},{"country":"kp","city":"Chaegungdong","coordinates":{"lat":"39.4088889","long":"125.7288889"}},{"country":"kp","city":"Chaegungdong","coordinates":{"lat":"40.9591667","long":"129.2188889"}},{"country":"kp","city":"Chaegunggol","coordinates":{"lat":"40.4475","long":"128.8555556"}},{"country":"kp","city":"Chaegungni","coordinates":{"lat":"37.9994444","long":"126.1138889"}},{"country":"kp","city":"Chaegungni","coordinates":{"lat":"38.1994444","long":"126.3747222"}},{"country":"kp","city":"Chaegyodong","coordinates":{"lat":"39.2902778","long":"125.5575"}},{"country":"kp","city":"Chaegyonggol","coordinates":{"lat":"37.9852778","long":"126.2147222"}},{"country":"kp","city":"Chaegyongni","coordinates":{"lat":"39.1333333","long":"125.6666667"}},{"country":"kp","city":"Chaehamni","coordinates":{"lat":"41.3002778","long":"128.06"}},{"country":"kp","city":"Chaehangchon","coordinates":{"lat":"40.2227778","long":"128.6169444"}},{"country":"kp","city":"Chaehudong","coordinates":{"lat":"37.97","long":"126.34"}},{"country":"kp","city":"Chaehyanggol","coordinates":{"lat":"37.9852778","long":"126.2147222"}},{"country":"kp","city":"Chaehyon","coordinates":{"lat":"38.215","long":"126.3244444"}},{"country":"kp","city":"Chaeilli","coordinates":{"lat":"39.3777778","long":"127.2822222"}},{"country":"kp","city":"Chaeinchon","coordinates":{"lat":"38.8666667","long":"125.3833333"}},{"country":"kp","city":"Chaeinchon","coordinates":{"lat":"42.95","long":"130.05"}},{"country":"kp","city":"Chaeinmaul","coordinates":{"lat":"38.8666667","long":"125.3833333"}},{"country":"kp","city":"Chaejidong","coordinates":{"lat":"38.975","long":"126.4513889"}},{"country":"kp","city":"Chaejolli","coordinates":{"lat":"41.3141667","long":"128.0647222"}},{"country":"kp","city":"Chaejondong","coordinates":{"lat":"41.7419444","long":"127.0"}},{"country":"kp","city":"Chaejongni 3ni","coordinates":{"lat":"39.3644444","long":"125.5958333"}},{"country":"kp","city":"Chaejongni","coordinates":{"lat":"39.3813889","long":"125.5883333"}},{"country":"kp","city":"Chaejongnisamni","coordinates":{"lat":"39.3644444","long":"125.5958333"}},{"country":"kp","city":"Chaejonni","coordinates":{"lat":"41.3141667","long":"128.0647222"}},{"country":"kp","city":"Chaejonni","coordinates":{"lat":"39.5333333","long":"125.75"}},{"country":"kp","city":"Chaekbau","coordinates":{"lat":"38.2713889","long":"126.6527778"}},{"country":"kp","city":"Chaekkol","coordinates":{"lat":"39.0088889","long":"126.1547222"}},{"country":"kp","city":"Chaekol","coordinates":{"lat":"39.1305556","long":"126.2711111"}},{"country":"kp","city":"Chaektong","coordinates":{"lat":"38.8061111","long":"125.6544444"}},{"country":"kp","city":"Chaemal","coordinates":{"lat":"39.5394444","long":"127.275"}},{"country":"kp","city":"Chaemal","coordinates":{"lat":"37.9383333","long":"125.925"}},{"country":"kp","city":"Chaemang","coordinates":{"lat":"38.8808333","long":"125.8333333"}},{"country":"kp","city":"Chaemaul","coordinates":{"lat":"38.9","long":"125.7666667"}},{"country":"kp","city":"Chaemundong","coordinates":{"lat":"41.4452778","long":"129.6197222"}},{"country":"kp","city":"Chaemyongni","coordinates":{"lat":"38.3586111","long":"126.1511111"}},{"country":"kp","city":"Chaenamu","coordinates":{"lat":"37.93","long":"126.0944444"}},{"country":"kp","city":"Chaenggyongni","coordinates":{"lat":"39.1730556","long":"127.13"}},{"country":"kp","city":"Chaengmyonggok","coordinates":{"lat":"41.5997222","long":"129.3530556"}},{"country":"kp","city":"Chaengmyonggol","coordinates":{"lat":"41.5997222","long":"129.3530556"}},{"country":"kp","city":"Chaengmyongkol","coordinates":{"lat":"41.5997222","long":"129.3530556"}},{"country":"kp","city":"Chaenmal","coordinates":{"lat":"38.8483333","long":"125.4152778"}},{"country":"kp","city":"Chaenmol","coordinates":{"lat":"38.8483333","long":"125.4152778"}},{"country":"kp","city":"Chaenyong","coordinates":{"lat":"38.3991667","long":"125.6155556"}},{"country":"kp","city":"Chaeokkae","coordinates":{"lat":"39.2716667","long":"125.8916667"}},{"country":"kp","city":"Chaepo","coordinates":{"lat":"41.4013889","long":"129.7466667"}},{"country":"kp","city":"Chaeri","coordinates":{"lat":"40.95","long":"127.1333333"}},{"country":"kp","city":"Chaeri","coordinates":{"lat":"39.3397222","long":"127.4391667"}},{"country":"kp","city":"Chaeriwonni","coordinates":{"lat":"38.8147222","long":"126.2933333"}},{"country":"kp","city":"Chaeriwonni","coordinates":{"lat":"40.9408333","long":"128.2327778"}},{"country":"kp","city":"Chaeryolli","coordinates":{"lat":"37.8438889","long":"126.5933333"}},{"country":"kp","city":"Chaeryong","coordinates":{"lat":"38.3991667","long":"125.6155556"}},{"country":"kp","city":"Chaeryongdong","coordinates":{"lat":"38.7961111","long":"125.4830556"}},{"country":"kp","city":"Chaeryongni","coordinates":{"lat":"38.735","long":"125.2358333"}},{"country":"kp","city":"Chaeryongni","coordinates":{"lat":"39.5333333","long":"126.2166667"}},{"country":"kp","city":"Chaeryongup","coordinates":{"lat":"38.3991667","long":"125.6155556"}},{"country":"kp","city":"Chaeryonni","coordinates":{"lat":"39.8666667","long":"124.6666667"}},{"country":"kp","city":"Chaesangdong","coordinates":{"lat":"39.4788889","long":"127.1844444"}},{"country":"kp","city":"Chaesongni","coordinates":{"lat":"38.8833333","long":"125.8666667"}},{"country":"kp","city":"Chaesongni","coordinates":{"lat":"39.5325","long":"125.5144444"}},{"country":"kp","city":"Chaesongwon","coordinates":{"lat":"38.9833333","long":"125.75"}},{"country":"kp","city":"Chaetkol","coordinates":{"lat":"38.1286111","long":"126.4158333"}},{"country":"kp","city":"Chaeto","coordinates":{"lat":"40.8847222","long":"129.1166667"}},{"country":"kp","city":"Chaeulgudok","coordinates":{"lat":"39.7475","long":"126.5286111"}},{"country":"kp","city":"Chaeungol","coordinates":{"lat":"40.2216667","long":"124.5730556"}},{"country":"kp","city":"Chaewonni","coordinates":{"lat":"40.25","long":"127.2833333"}},{"country":"kp","city":"Chaeyang","coordinates":{"lat":"38.305","long":"126.0166667"}},{"country":"kp","city":"Chaeyangdong","coordinates":{"lat":"40.3775","long":"126.6894444"}},{"country":"kp","city":"Chaeyangdong","coordinates":{"lat":"38.7736111","long":"125.6183333"}},{"country":"kp","city":"Chaeyangdong","coordinates":{"lat":"41.0","long":"129.1666667"}},{"country":"kp","city":"Chaeyom","coordinates":{"lat":"37.8","long":"125.4166667"}},{"country":"kp","city":"Chaeyongdong","coordinates":{"lat":"40.8219444","long":"129.2758333"}},{"country":"kp","city":"Chaeyugae","coordinates":{"lat":"39.7997222","long":"126.3397222"}},{"country":"kp","city":"Chagabol","coordinates":{"lat":"41.1816667","long":"126.2936111"}},{"country":"kp","city":"Chagadok","coordinates":{"lat":"39.4127778","long":"126.9063889"}},{"country":"kp","city":"Chagadong","coordinates":{"lat":"40.85","long":"129.4613889"}},{"country":"kp","city":"Chagadul","coordinates":{"lat":"41.1816667","long":"126.2936111"}},{"country":"kp","city":"Chagaeatto","coordinates":{"lat":"39.0944444","long":"126.3441667"}},{"country":"kp","city":"Chagaedong","coordinates":{"lat":"41.4802778","long":"126.7358333"}},{"country":"kp","city":"Chagaedong","coordinates":{"lat":"38.2886111","long":"126.7516667"}},{"country":"kp","city":"Chagaedong","coordinates":{"lat":"38.2669444","long":"126.8988889"}},{"country":"kp","city":"Chagaedong","coordinates":{"lat":"41.4361111","long":"127.0516667"}},{"country":"kp","city":"Chagaedung","coordinates":{"lat":"39.8816667","long":"127.3019444"}},{"country":"kp","city":"Chagaekkol","coordinates":{"lat":"38.7888889","long":"126.9802778"}},{"country":"kp","city":"Chagaewon","coordinates":{"lat":"39.9713889","long":"124.6488889"}},{"country":"kp","city":"Chagagol","coordinates":{"lat":"38.0833333","long":"126.0"}},{"country":"kp","city":"Chagagol","coordinates":{"lat":"39.1713889","long":"125.5530556"}},{"country":"kp","city":"Chagakol","coordinates":{"lat":"39.1713889","long":"125.5530556"}},{"country":"kp","city":"Chagamji","coordinates":{"lat":"37.985","long":"126.0138889"}},{"country":"kp","city":"Chagari","coordinates":{"lat":"40.85","long":"129.4613889"}},{"country":"kp","city":"Chagattul","coordinates":{"lat":"41.1816667","long":"126.2936111"}},{"country":"kp","city":"Chagidong","coordinates":{"lat":"38.8888889","long":"125.8338889"}},{"country":"kp","city":"Chagigol","coordinates":{"lat":"38.8888889","long":"125.8338889"}},{"country":"kp","city":"Chagndong","coordinates":{"lat":"38.4188889","long":"125.8372222"}},{"country":"kp","city":"Chagol","coordinates":{"lat":"38.0088889","long":"125.335"}},{"country":"kp","city":"Chagol","coordinates":{"lat":"39.3591667","long":"127.3525"}},{"country":"kp","city":"Chagol","coordinates":{"lat":"41.2880556","long":"127.7358333"}},{"country":"kp","city":"Chagol","coordinates":{"lat":"41.2058333","long":"129.3527778"}},{"country":"kp","city":"Chagolchon","coordinates":{"lat":"40.4063889","long":"128.8469444"}},{"country":"kp","city":"Chagonsoksagol","coordinates":{"lat":"38.73","long":"128.0163889"}},{"country":"kp","city":"Chagunbaegol","coordinates":{"lat":"39.91","long":"127.1408333"}},{"country":"kp","city":"Chagunbaekkol","coordinates":{"lat":"39.91","long":"127.1408333"}},{"country":"kp","city":"Chagunbaetkol","coordinates":{"lat":"39.91","long":"127.1408333"}},{"country":"kp","city":"Chagundadan","coordinates":{"lat":"41.8316667","long":"129.8722222"}},{"country":"kp","city":"Chagundaechugol","coordinates":{"lat":"39.1683333","long":"126.0644444"}},{"country":"kp","city":"Chagundaekkol","coordinates":{"lat":"40.1205556","long":"126.1975"}},{"country":"kp","city":"Chagundarigonno","coordinates":{"lat":"39.2166667","long":"125.4166667"}},{"country":"kp","city":"Chagundatan","coordinates":{"lat":"41.8316667","long":"129.8722222"}},{"country":"kp","city":"Chagundojangdong","coordinates":{"lat":"40.85","long":"129.3316667"}},{"country":"kp","city":"Chagundok","coordinates":{"lat":"40.4833333","long":"127.3833333"}},{"country":"kp","city":"Chagundugol","coordinates":{"lat":"38.8","long":"125.7666667"}},{"country":"kp","city":"Chagundungnyong","coordinates":{"lat":"41.2127778","long":"128.8494444"}},{"country":"kp","city":"Chagungae","coordinates":{"lat":"41.0","long":"129.5333333"}},{"country":"kp","city":"Chagungaemal","coordinates":{"lat":"39.21","long":"125.4830556"}},{"country":"kp","city":"Chagungaemaul","coordinates":{"lat":"39.21","long":"125.4830556"}},{"country":"kp","city":"Chagungalgum","coordinates":{"lat":"39.5494444","long":"124.6344444"}},{"country":"kp","city":"Chagungangnampum","coordinates":{"lat":"39.5166667","long":"124.7"}},{"country":"kp","city":"Chagungaraegol","coordinates":{"lat":"39.9052778","long":"126.9277778"}},{"country":"kp","city":"Chagungo","coordinates":{"lat":"41.5002778","long":"128.3352778"}},{"country":"kp","city":"Chagungogae","coordinates":{"lat":"37.9663889","long":"126.0805556"}},{"country":"kp","city":"Chagungogae","coordinates":{"lat":"38.7333333","long":"126.1108333"}},{"country":"kp","city":"Chagungol","coordinates":{"lat":"41.0833333","long":"127.2"}},{"country":"kp","city":"Chagungol","coordinates":{"lat":"38.6063889","long":"127.8391667"}},{"country":"kp","city":"Chagungol","coordinates":{"lat":"39.7116667","long":"126.1994444"}},{"country":"kp","city":"Chagungol","coordinates":{"lat":"40.7619444","long":"129.2488889"}},{"country":"kp","city":"Chagungoram","coordinates":{"lat":"41.5002778","long":"128.3352778"}},{"country":"kp","city":"Chagungoran","coordinates":{"lat":"41.5002778","long":"128.3352778"}},{"country":"kp","city":"Chagungorang","coordinates":{"lat":"41.5002778","long":"128.3352778"}},{"country":"kp","city":"Chagungumi","coordinates":{"lat":"41.3","long":"129.75"}},{"country":"kp","city":"Chagunhan","coordinates":{"lat":"38.4469444","long":"125.715"}},{"country":"kp","city":"Chagunhwangsogol","coordinates":{"lat":"41.55","long":"129.2833333"}},{"country":"kp","city":"Chagunhwayanggol","coordinates":{"lat":"41.05","long":"128.9333333"}},{"country":"kp","city":"Chagunhyangnomi","coordinates":{"lat":"40.15","long":"126.9833333"}},{"country":"kp","city":"Chagunjonggae","coordinates":{"lat":"40.4975","long":"128.8638889"}},{"country":"kp","city":"Chagunjoulgol","coordinates":{"lat":"39.9411111","long":"126.9547222"}},{"country":"kp","city":"Chagunjunggol","coordinates":{"lat":"38.95","long":"125.8666667"}},{"country":"kp","city":"Chagunjungji","coordinates":{"lat":"39.5666667","long":"124.9"}},{"country":"kp","city":"Chagunkombakkol","coordinates":{"lat":"38.1819444","long":"126.4547222"}},{"country":"kp","city":"Chagunkomungol","coordinates":{"lat":"41.545","long":"129.1813889"}},{"country":"kp","city":"Chagunmalgurikogae","coordinates":{"lat":"39.8044444","long":"125.1308333"}},{"country":"kp","city":"Chagunmaul","coordinates":{"lat":"39.65","long":"125.3833333"}},{"country":"kp","city":"Chagunminarikol","coordinates":{"lat":"38.7572222","long":"127.3111111"}},{"country":"kp","city":"Chagunmok","coordinates":{"lat":"37.96","long":"126.2255556"}},{"country":"kp","city":"Chagunmusu","coordinates":{"lat":"42.1166667","long":"129.5833333"}},{"country":"kp","city":"Chagunnolmegigol","coordinates":{"lat":"40.3883333","long":"126.8433333"}},{"country":"kp","city":"Chagunnungsongdong","coordinates":{"lat":"37.9127778","long":"126.4708333"}},{"country":"kp","city":"Chagunojigae","coordinates":{"lat":"40.0166667","long":"126.95"}},{"country":"kp","city":"Chagunoryugol","coordinates":{"lat":"38.615","long":"126.0291667"}},{"country":"kp","city":"Chagunoryuri","coordinates":{"lat":"38.9902778","long":"125.9111111"}},{"country":"kp","city":"Chagunpaenamu","coordinates":{"lat":"38.5430556","long":"127.3147222"}},{"country":"kp","city":"Chagunsoksagol","coordinates":{"lat":"38.73","long":"128.0163889"}},{"country":"kp","city":"Chagunsosura","coordinates":{"lat":"41.8161111","long":"129.87"}},{"country":"kp","city":"Chaguntakum","coordinates":{"lat":"39.5705556","long":"124.6794444"}},{"country":"kp","city":"Chaguntalmedogi","coordinates":{"lat":"41.0577778","long":"128.8433333"}},{"country":"kp","city":"Chaguntomi","coordinates":{"lat":"37.9194444","long":"126.2702778"}},{"country":"kp","city":"Chaguntongnamdong","coordinates":{"lat":"41.595","long":"128.3388889"}},{"country":"kp","city":"Chagunyoogaeri","coordinates":{"lat":"39.01","long":"125.2930556"}},{"country":"kp","city":"Chaguri","coordinates":{"lat":"39.3611111","long":"125.5677778"}},{"country":"kp","city":"Chahadong","coordinates":{"lat":"38.0525","long":"125.5205556"}},{"country":"kp","city":"Chahadong","coordinates":{"lat":"38.6925","long":"127.1216667"}},{"country":"kp","city":"Chahagol","coordinates":{"lat":"38.5277778","long":"127.4861111"}},{"country":"kp","city":"Chahakol","coordinates":{"lat":"38.5344444","long":"127.4747222"}},{"country":"kp","city":"Chahangni","coordinates":{"lat":"41.415","long":"127.6563889"}},{"country":"kp","city":"Chahari","coordinates":{"lat":"38.1441667","long":"125.6811111"}},{"country":"kp","city":"Chahari","coordinates":{"lat":"38.1319444","long":"126.8219444"}},{"country":"kp","city":"Chahari","coordinates":{"lat":"40.0691667","long":"125.2122222"}},{"country":"kp","city":"Chahaul","coordinates":{"lat":"38.3888889","long":"126.9633333"}},{"country":"kp","city":"Chaho","coordinates":{"lat":"40.2158333","long":"128.6441667"}},{"country":"kp","city":"Chahonodongjagu","coordinates":{"lat":"40.2158333","long":"128.6441667"}},{"country":"kp","city":"Chahorodongjagu","coordinates":{"lat":"40.2158333","long":"128.6441667"}},{"country":"kp","city":"Chahungdong","coordinates":{"lat":"40.0486111","long":"125.2163889"}},{"country":"kp","city":"Chahungni","coordinates":{"lat":"39.38","long":"125.6583333"}},{"country":"kp","city":"Chahungnodongjagu","coordinates":{"lat":"40.0666667","long":"125.2166667"}},{"country":"kp","city":"Chahwadong","coordinates":{"lat":"38.205","long":"125.6413889"}},{"country":"kp","city":"Chahwangchon","coordinates":{"lat":"39.1730556","long":"125.7208333"}},{"country":"kp","city":"Chahwangni","coordinates":{"lat":"39.1730556","long":"125.7208333"}},{"country":"kp","city":"Chahyolli","coordinates":{"lat":"39.2616667","long":"125.5938889"}},{"country":"kp","city":"Chahyon","coordinates":{"lat":"38.1713889","long":"126.4038889"}},{"country":"kp","city":"Chahyondong","coordinates":{"lat":"38.15","long":"125.15"}},{"country":"kp","city":"Chahyonni","coordinates":{"lat":"39.2616667","long":"125.5938889"}},{"country":"kp","city":"Chailli","coordinates":{"lat":"39.8666667","long":"127.6166667"}},{"country":"kp","city":"Chailli","coordinates":{"lat":"39.4141667","long":"125.6916667"}},{"country":"kp","city":"Chailtong","coordinates":{"lat":"38.4327778","long":"125.3805556"}},{"country":"kp","city":"Chaindong","coordinates":{"lat":"38.1141667","long":"125.3055556"}},{"country":"kp","city":"Chainni","coordinates":{"lat":"39.8666667","long":"127.6166667"}},{"country":"kp","city":"Chairi","coordinates":{"lat":"39.3786111","long":"125.6083333"}},{"country":"kp","city":"Chajaegol","coordinates":{"lat":"38.4980556","long":"126.2913889"}},{"country":"kp","city":"Chajak","coordinates":{"lat":"38.2427778","long":"126.0891667"}},{"country":"kp","city":"Chajakkogae","coordinates":{"lat":"38.6441667","long":"126.7375"}},{"country":"kp","city":"Chajakkol","coordinates":{"lat":"38.1088889","long":"125.8580556"}},{"country":"kp","city":"Chajakkol","coordinates":{"lat":"38.2277778","long":"126.3416667"}},{"country":"kp","city":"Chajakkol","coordinates":{"lat":"38.8763889","long":"127.5983333"}},{"country":"kp","city":"Chajakni","coordinates":{"lat":"41.3933333","long":"126.6161111"}},{"country":"kp","city":"Chajakpo","coordinates":{"lat":"41.2872222","long":"127.7194444"}},{"country":"kp","city":"Chajaktong","coordinates":{"lat":"41.3933333","long":"126.6161111"}},{"country":"kp","city":"Chajaktong","coordinates":{"lat":"39.615","long":"126.7841667"}},{"country":"kp","city":"Chajaktong","coordinates":{"lat":"38.0938889","long":"126.7608333"}},{"country":"kp","city":"Chajaktong","coordinates":{"lat":"39.6697222","long":"124.6525"}},{"country":"kp","city":"Chajaktong","coordinates":{"lat":"39.1116667","long":"125.8361111"}},{"country":"kp","city":"Chajaktong","coordinates":{"lat":"39.0333333","long":"125.3166667"}},{"country":"kp","city":"Chajaktong","coordinates":{"lat":"41.82","long":"129.7605556"}},{"country":"kp","city":"Chajangdo","coordinates":{"lat":"41.7716667","long":"129.6413889"}},{"country":"kp","city":"Chajangdong","coordinates":{"lat":"41.7716667","long":"129.6413889"}},{"country":"kp","city":"Chajangni","coordinates":{"lat":"41.3933333","long":"126.6161111"}},{"country":"kp","city":"Chajangni","coordinates":{"lat":"38.5588889","long":"126.2547222"}},{"country":"kp","city":"Chajangni","coordinates":{"lat":"39.85","long":"124.6"}},{"country":"kp","city":"Chajangni","coordinates":{"lat":"39.3566667","long":"125.655"}},{"country":"kp","city":"Chajeri","coordinates":{"lat":"38.8088889","long":"125.5172222"}},{"country":"kp","city":"Chajidong","coordinates":{"lat":"39.1475","long":"125.8322222"}},{"country":"kp","city":"Chajilli","coordinates":{"lat":"40.8147222","long":"127.4902778"}},{"country":"kp","city":"Chajindong","coordinates":{"lat":"38.0355556","long":"125.8977778"}},{"country":"kp","city":"Chajindong","coordinates":{"lat":"42.0472222","long":"130.0794444"}},{"country":"kp","city":"Chajinni","coordinates":{"lat":"40.8147222","long":"127.4902778"}},{"country":"kp","city":"Chajiri","coordinates":{"lat":"38.0","long":"125.3333333"}},{"country":"kp","city":"Chajiri","coordinates":{"lat":"41.35","long":"127.6025"}},{"country":"kp","city":"Chajondong","coordinates":{"lat":"41.7419444","long":"127.0"}},{"country":"kp","city":"Chajongdong","coordinates":{"lat":"39.2672222","long":"125.5655556"}},{"country":"kp","city":"Chajongdong","coordinates":{"lat":"41.7311111","long":"129.5855556"}},{"country":"kp","city":"Chakchiktong","coordinates":{"lat":"39.1772222","long":"127.2233333"}},{"country":"kp","city":"Chakcholli","coordinates":{"lat":"38.0716667","long":"125.7875"}},{"country":"kp","city":"Chakchon","coordinates":{"lat":"37.9166667","long":"125.3666667"}},{"country":"kp","city":"Chakchon","coordinates":{"lat":"39.3833333","long":"126.25"}},{"country":"kp","city":"Chakchonni","coordinates":{"lat":"38.0633333","long":"125.7977778"}},{"country":"kp","city":"Chakchudong","coordinates":{"lat":"39.2658333","long":"125.5144444"}},{"country":"kp","city":"Chakdo","coordinates":{"lat":"37.9788889","long":"125.0769444"}},{"country":"kp","city":"Chakkae","coordinates":{"lat":"38.5183333","long":"124.875"}},{"country":"kp","city":"Chakkol","coordinates":{"lat":"40.1497222","long":"128.2538889"}},{"country":"kp","city":"Chakkol","coordinates":{"lat":"38.8066667","long":"126.7158333"}},{"country":"kp","city":"Chakkol","coordinates":{"lat":"38.9516667","long":"127.3808333"}},{"country":"kp","city":"Chakkol","coordinates":{"lat":"41.1505556","long":"129.6516667"}},{"country":"kp","city":"Chakkto","coordinates":{"lat":"39.105","long":"127.7425"}},{"country":"kp","city":"Chako","coordinates":{"lat":"40.2158333","long":"128.6441667"}},{"country":"kp","city":"Chakol","coordinates":{"lat":"39.3366667","long":"126.7430556"}},{"country":"kp","city":"Chakol","coordinates":{"lat":"41.2880556","long":"127.7358333"}},{"country":"kp","city":"Chakol","coordinates":{"lat":"41.2058333","long":"129.3527778"}},{"country":"kp","city":"Chakpakkol","coordinates":{"lat":"38.8344444","long":"126.2741667"}},{"country":"kp","city":"Chakpyong","coordinates":{"lat":"38.1997222","long":"126.4694444"}},{"country":"kp","city":"Chaksan","coordinates":{"lat":"37.9397222","long":"125.9105556"}},{"country":"kp","city":"Chaksandong","coordinates":{"lat":"37.8666667","long":"125.3333333"}},{"country":"kp","city":"Chaksim","coordinates":{"lat":"39.8897222","long":"125.1372222"}},{"country":"kp","city":"Chaksiri","coordinates":{"lat":"38.4166667","long":"126.0166667"}},{"country":"kp","city":"Chaksodong","coordinates":{"lat":"42.2141667","long":"130.2058333"}},{"country":"kp","city":"Chaksom","coordinates":{"lat":"38.9263889","long":"125.6858333"}},{"country":"kp","city":"Chaksori","coordinates":{"lat":"39.5547222","long":"127.3286111"}},{"country":"kp","city":"Chaktaegol","coordinates":{"lat":"38.6755556","long":"126.8358333"}},{"country":"kp","city":"Chaktaekkol","coordinates":{"lat":"38.66","long":"126.8169444"}},{"country":"kp","city":"Chaktaekol","coordinates":{"lat":"38.6755556","long":"126.8358333"}},{"country":"kp","city":"Chaktalgol","coordinates":{"lat":"40.8188889","long":"129.3622222"}},{"country":"kp","city":"Chaktalgum","coordinates":{"lat":"39.5666667","long":"124.6833333"}},{"country":"kp","city":"Chaktaltong","coordinates":{"lat":"40.8188889","long":"129.3622222"}},{"country":"kp","city":"Chaktarigol","coordinates":{"lat":"39.0972222","long":"125.8733333"}},{"country":"kp","city":"Chakto","coordinates":{"lat":"39.105","long":"127.7425"}},{"country":"kp","city":"Chakto","coordinates":{"lat":"38.9263889","long":"125.6858333"}},{"country":"kp","city":"Chaktodong","coordinates":{"lat":"39.8205556","long":"127.6583333"}},{"country":"kp","city":"Chaktong","coordinates":{"lat":"40.2975","long":"128.2947222"}},{"country":"kp","city":"Chaktong","coordinates":{"lat":"37.98","long":"126.4925"}},{"country":"kp","city":"Chaktongni","coordinates":{"lat":"39.5277778","long":"127.3430556"}},{"country":"kp","city":"Chaktongni","coordinates":{"lat":"39.1233333","long":"127.1661111"}},{"country":"kp","city":"Chaktongnyong","coordinates":{"lat":"39.9730556","long":"125.5316667"}},{"country":"kp","city":"Chaktori","coordinates":{"lat":"39.8205556","long":"127.6583333"}},{"country":"kp","city":"Chalbangdogi","coordinates":{"lat":"40.8833333","long":"129.3791667"}},{"country":"kp","city":"Chalbangdok","coordinates":{"lat":"40.8833333","long":"129.3791667"}},{"country":"kp","city":"Chalpiji","coordinates":{"lat":"38.7919444","long":"125.6269444"}},{"country":"kp","city":"Chamadong","coordinates":{"lat":"39.1097222","long":"126.4369444"}},{"country":"kp","city":"Chambanggol","coordinates":{"lat":"38.0625","long":"126.1636111"}},{"country":"kp","city":"Chambongdong","coordinates":{"lat":"39.8855556","long":"124.7019444"}},{"country":"kp","city":"Chambongni","coordinates":{"lat":"39.8855556","long":"124.7019444"}},{"country":"kp","city":"Chambyedong","coordinates":{"lat":"42.5605556","long":"130.1322222"}},{"country":"kp","city":"Chamchaedo","coordinates":{"lat":"39.4188889","long":"124.7258333"}},{"country":"kp","city":"Chamchon","coordinates":{"lat":"38.2688889","long":"124.9205556"}},{"country":"kp","city":"Chamdolkogae","coordinates":{"lat":"39.2627778","long":"126.8061111"}},{"country":"kp","city":"Chamdong","coordinates":{"lat":"40.6166667","long":"128.9166667"}},{"country":"kp","city":"Chamdong","coordinates":{"lat":"42.7333333","long":"129.8166667"}},{"country":"kp","city":"Chamdongni","coordinates":{"lat":"41.265","long":"128.3316667"}},{"country":"kp","city":"Chamdudong","coordinates":{"lat":"38.2461111","long":"126.5575"}},{"country":"kp","city":"Chamdunni","coordinates":{"lat":"40.9244444","long":"128.3105556"}},{"country":"kp","city":"Chamduri","coordinates":{"lat":"39.8833333","long":"124.6833333"}},{"country":"kp","city":"Chamidong","coordinates":{"lat":"38.4166667","long":"125.4666667"}},{"country":"kp","city":"Chamidong","coordinates":{"lat":"39.1913889","long":"126.3433333"}},{"country":"kp","city":"Chamjilli","coordinates":{"lat":"38.9597222","long":"125.5513889"}},{"country":"kp","city":"Chamjillochon","coordinates":{"lat":"38.95","long":"125.55"}},{"country":"kp","city":"Chamjin","coordinates":{"lat":"38.9597222","long":"125.5513889"}},{"country":"kp","city":"Chamjinhyonam","coordinates":{"lat":"38.9666667","long":"125.55"}},{"country":"kp","city":"Chamjiniltong","coordinates":{"lat":"38.9413889","long":"125.5427778"}},{"country":"kp","city":"Chamjinkundong","coordinates":{"lat":"38.9488889","long":"125.545"}},{"country":"kp","city":"Chamjinni","coordinates":{"lat":"38.9597222","long":"125.5513889"}},{"country":"kp","city":"Chamjinsingi","coordinates":{"lat":"38.9672222","long":"125.5469444"}},{"country":"kp","city":"Chamjungdong","coordinates":{"lat":"39.5394444","long":"125.9319444"}},{"country":"kp","city":"Chamkandoksan","coordinates":{"lat":"38.4908333","long":"127.5144444"}},{"country":"kp","city":"Chamnamubaegi","coordinates":{"lat":"38.05","long":"125.4713889"}},{"country":"kp","city":"Chamnamugol","coordinates":{"lat":"39.9769444","long":"126.9558333"}},{"country":"kp","city":"Chamoe","coordinates":{"lat":"37.9397222","long":"125.9105556"}},{"country":"kp","city":"Chamori","coordinates":{"lat":"39.385","long":"125.8055556"}},{"country":"kp","city":"Champari","coordinates":{"lat":"40.87","long":"127.2347222"}},{"country":"kp","city":"Chamsaem","coordinates":{"lat":"38.9333333","long":"125.9833333"}},{"country":"kp","city":"Chamsangni","coordinates":{"lat":"39.6022222","long":"126.1138889"}},{"country":"kp","city":"Chamsongni","coordinates":{"lat":"38.1819444","long":"126.4752778"}},{"country":"kp","city":"Chamuidong","coordinates":{"lat":"38.3086111","long":"127.0383333"}},{"country":"kp","city":"Chamulli","coordinates":{"lat":"41.4627778","long":"128.4066667"}},{"country":"kp","city":"Chamundong","coordinates":{"lat":"40.8","long":"128.1"}},{"country":"kp","city":"Chanamni","coordinates":{"lat":"38.8111111","long":"125.2577778"}},{"country":"kp","city":"Chanchidong","coordinates":{"lat":"39.0575","long":"126.9786111"}},{"country":"kp","city":"Chandari","coordinates":{"lat":"37.8666667","long":"125.3833333"}},{"country":"kp","city":"Chandibol","coordinates":{"lat":"39.8144444","long":"126.3311111"}},{"country":"kp","city":"Chandiji","coordinates":{"lat":"38.7811111","long":"127.3075"}},{"country":"kp","city":"Chandoyi","coordinates":{"lat":"38.5119444","long":"127.6686111"}},{"country":"kp","city":"Changae","coordinates":{"lat":"38.4613889","long":"125.9383333"}},{"country":"kp","city":"Changaegol","coordinates":{"lat":"38.2491667","long":"126.4633333"}},{"country":"kp","city":"Changalii","coordinates":{"lat":"42.4825","long":"130.2269444"}},{"country":"kp","city":"Changalli","coordinates":{"lat":"38.9194444","long":"127.0733333"}},{"country":"kp","city":"Changalli","coordinates":{"lat":"40.7413889","long":"128.2855556"}},{"country":"kp","city":"Changalli","coordinates":{"lat":"38.9947222","long":"125.265"}},{"country":"kp","city":"Changallodongjagu","coordinates":{"lat":"39.6738889","long":"126.2861111"}},{"country":"kp","city":"Changam","coordinates":{"lat":"38.6333333","long":"125.95"}},{"country":"kp","city":"Changamchon","coordinates":{"lat":"40.6061111","long":"128.7819444"}},{"country":"kp","city":"Changamdong","coordinates":{"lat":"37.8666667","long":"125.3833333"}},{"country":"kp","city":"Changamdong","coordinates":{"lat":"38.5172222","long":"125.8325"}},{"country":"kp","city":"Changamdong","coordinates":{"lat":"39.1297222","long":"125.8286111"}},{"country":"kp","city":"Changamni","coordinates":{"lat":"38.5480556","long":"125.1447222"}},{"country":"kp","city":"Changamni","coordinates":{"lat":"38.6352778","long":"126.0711111"}},{"country":"kp","city":"Changamni","coordinates":{"lat":"40.2666667","long":"125.4833333"}},{"country":"kp","city":"Changamni","coordinates":{"lat":"38.9186111","long":"125.3638889"}},{"country":"kp","city":"Changamni","coordinates":{"lat":"39.2713889","long":"125.9452778"}},{"country":"kp","city":"Changandong","coordinates":{"lat":"42.4825","long":"130.2269444"}},{"country":"kp","city":"Changangol","coordinates":{"lat":"39.9191667","long":"126.2583333"}},{"country":"kp","city":"Changanni","coordinates":{"lat":"38.9194444","long":"127.0733333"}},{"country":"kp","city":"Changanni","coordinates":{"lat":"40.7413889","long":"128.2855556"}},{"country":"kp","city":"Changanni","coordinates":{"lat":"38.9947222","long":"125.265"}},{"country":"kp","city":"Changanni","coordinates":{"lat":"42.4825","long":"130.2269444"}},{"country":"kp","city":"Changbaeknodongjagu","coordinates":{"lat":"41.2466667","long":"126.9216667"}},{"country":"kp","city":"Changbaengni","coordinates":{"lat":"39.5333333","long":"125.6019444"}},{"country":"kp","city":"Changbaengnodongjagu","coordinates":{"lat":"41.2466667","long":"126.9216667"}},{"country":"kp","city":"Changbaji","coordinates":{"lat":"38.62","long":"126.0977778"}},{"country":"kp","city":"Changbal","coordinates":{"lat":"39.85","long":"124.6833333"}},{"country":"kp","city":"Changbang","coordinates":{"lat":"38.3516667","long":"125.5761111"}},{"country":"kp","city":"Changbangdong","coordinates":{"lat":"40.6019444","long":"129.0147222"}},{"country":"kp","city":"Changbangdong","coordinates":{"lat":"38.2102778","long":"125.1241667"}},{"country":"kp","city":"Changbangdong","coordinates":{"lat":"38.9388889","long":"126.8322222"}},{"country":"kp","city":"Changbangni","coordinates":{"lat":"38.0063889","long":"125.8241667"}},{"country":"kp","city":"Changbau","coordinates":{"lat":"38.2180556","long":"126.3111111"}},{"country":"kp","city":"Changbaudong","coordinates":{"lat":"38.1166667","long":"124.7"}},{"country":"kp","city":"Changbaukogae","coordinates":{"lat":"38.9047222","long":"126.3444444"}},{"country":"kp","city":"Changbauri","coordinates":{"lat":"37.75","long":"125.3333333"}},{"country":"kp","city":"Changbawi","coordinates":{"lat":"38.5277778","long":"124.8377778"}},{"country":"kp","city":"Changbawidong","coordinates":{"lat":"37.8666667","long":"125.3833333"}},{"country":"kp","city":"Changboktong","coordinates":{"lat":"38.8366667","long":"126.2819444"}},{"country":"kp","city":"Changbol","coordinates":{"lat":"39.5269444","long":"125.2025"}},{"country":"kp","city":"Changbudong","coordinates":{"lat":"40.76","long":"125.8236111"}},{"country":"kp","city":"Changbudong","coordinates":{"lat":"38.4358333","long":"125.7944444"}},{"country":"kp","city":"Changbuk","coordinates":{"lat":"39.6113889","long":"125.2447222"}},{"country":"kp","city":"Changbul","coordinates":{"lat":"39.3044444","long":"127.5258333"}},{"country":"kp","city":"Changbyoktongni","coordinates":{"lat":"38.7116667","long":"127.6938889"}},{"country":"kp","city":"Changbyonmal","coordinates":{"lat":"39.4527778","long":"126.5836111"}},{"country":"kp","city":"Changchalli","coordinates":{"lat":"38.8669444","long":"125.2197222"}},{"country":"kp","city":"Changcham","coordinates":{"lat":"40.2333333","long":"126.5666667"}},{"country":"kp","city":"Changchangdong","coordinates":{"lat":"40.2166667","long":"125.2833333"}},{"country":"kp","city":"Changchanni","coordinates":{"lat":"38.8669444","long":"125.2197222"}},{"country":"kp","city":"Changchi","coordinates":{"lat":"39.5036111","long":"126.6833333"}},{"country":"kp","city":"Changchidong","coordinates":{"lat":"39.535","long":"126.6952778"}},{"country":"kp","city":"Changchidongni","coordinates":{"lat":"38.6961111","long":"127.9313889"}},{"country":"kp","city":"Changcholli","coordinates":{"lat":"39.7388889","long":"127.3133333"}},{"country":"kp","city":"Changcholli","coordinates":{"lat":"38.4391667","long":"125.0280556"}},{"country":"kp","city":"Changcholli","coordinates":{"lat":"38.5147222","long":"126.0986111"}},{"country":"kp","city":"Changcholli","coordinates":{"lat":"38.5477778","long":"127.0847222"}},{"country":"kp","city":"Changcholli","coordinates":{"lat":"40.7908333","long":"129.37"}},{"country":"kp","city":"Changchollodongjagu","coordinates":{"lat":"38.5477778","long":"127.0847222"}},{"country":"kp","city":"Changchon","coordinates":{"lat":"39.5191667","long":"127.2247222"}},{"country":"kp","city":"Changchon","coordinates":{"lat":"38.2561111","long":"124.9347222"}},{"country":"kp","city":"Changchon","coordinates":{"lat":"38.3633333","long":"125.7113889"}},{"country":"kp","city":"Changchon","coordinates":{"lat":"39.7819444","long":"124.7177778"}},{"country":"kp","city":"Changchon","coordinates":{"lat":"39.1719444","long":"126.0397222"}},{"country":"kp","city":"Changchon","coordinates":{"lat":"39.5033333","long":"126.6258333"}},{"country":"kp","city":"Changchon","coordinates":{"lat":"40.7166667","long":"129.3166667"}},{"country":"kp","city":"Changchondong","coordinates":{"lat":"38.2186111","long":"125.8355556"}},{"country":"kp","city":"Changchondong","coordinates":{"lat":"38.4886111","long":"126.2058333"}},{"country":"kp","city":"Changchondong","coordinates":{"lat":"39.15","long":"127.45"}},{"country":"kp","city":"Changchondong","coordinates":{"lat":"38.8833333","long":"125.8"}},{"country":"kp","city":"Changchondong","coordinates":{"lat":"40.7908333","long":"129.37"}},{"country":"kp","city":"Changchonni","coordinates":{"lat":"39.7388889","long":"127.3133333"}},{"country":"kp","city":"Changchonni","coordinates":{"lat":"38.4391667","long":"125.0280556"}},{"country":"kp","city":"Changchonni","coordinates":{"lat":"38.7166667","long":"125.6833333"}},{"country":"kp","city":"Changchonni","coordinates":{"lat":"38.5477778","long":"127.0847222"}},{"country":"kp","city":"Changchonni","coordinates":{"lat":"38.9833333","long":"125.8333333"}},{"country":"kp","city":"Changchonni","coordinates":{"lat":"39.5627778","long":"125.6833333"}},{"country":"kp","city":"Changchonni","coordinates":{"lat":"40.7908333","long":"129.37"}},{"country":"kp","city":"Changchudong","coordinates":{"lat":"37.8613889","long":"126.4263889"}},{"country":"kp","city":"Changchundong","coordinates":{"lat":"39.0","long":"125.7833333"}},{"country":"kp","city":"Changchungdong","coordinates":{"lat":"39.0","long":"125.7833333"}},{"country":"kp","city":"Changchungni","coordinates":{"lat":"40.3447222","long":"128.6608333"}},{"country":"kp","city":"Changdae","coordinates":{"lat":"37.75","long":"125.3166667"}},{"country":"kp","city":"Changdae","coordinates":{"lat":"38.7333333","long":"125.9666667"}},{"country":"kp","city":"Changdaedong","coordinates":{"lat":"38.27","long":"125.9311111"}},{"country":"kp","city":"Changdaegidong","coordinates":{"lat":"37.8658333","long":"125.9088889"}},{"country":"kp","city":"Changdaegol","coordinates":{"lat":"38.4052778","long":"125.7591667"}},{"country":"kp","city":"Changdaekol","coordinates":{"lat":"38.5805556","long":"126.6908333"}},{"country":"kp","city":"Changdaeri","coordinates":{"lat":"38.5805556","long":"126.6908333"}},{"country":"kp","city":"Changdaeri","coordinates":{"lat":"38.9875","long":"127.8008333"}},{"country":"kp","city":"Changdan","coordinates":{"lat":"37.9702778","long":"125.9375"}},{"country":"kp","city":"Changdo","coordinates":{"lat":"38.5308333","long":"127.7963889"}},{"country":"kp","city":"Changdogi","coordinates":{"lat":"40.9711111","long":"129.3705556"}},{"country":"kp","city":"Changdohyon","coordinates":{"lat":"37.9358333","long":"125.9363889"}},{"country":"kp","city":"Changdok","coordinates":{"lat":"40.8577778","long":"128.4694444"}},{"country":"kp","city":"Changdok","coordinates":{"lat":"39.165","long":"127.4111111"}},{"country":"kp","city":"Changdok","coordinates":{"lat":"40.8727778","long":"129.5755556"}},{"country":"kp","city":"Changdokchon","coordinates":{"lat":"40.5502778","long":"128.8533333"}},{"country":"kp","city":"Changdoktong","coordinates":{"lat":"40.7022222","long":"126.3911111"}},{"country":"kp","city":"Changdoktong","coordinates":{"lat":"37.8658333","long":"125.9088889"}},{"country":"kp","city":"Changdoktong","coordinates":{"lat":"39.165","long":"127.4111111"}},{"country":"kp","city":"Changdoktong","coordinates":{"lat":"40.9130556","long":"129.4269444"}},{"country":"kp","city":"Changdong","coordinates":{"lat":"40.1675","long":"126.1405556"}},{"country":"kp","city":"Changdong","coordinates":{"lat":"39.3847222","long":"126.9286111"}},{"country":"kp","city":"Changdong","coordinates":{"lat":"38.5872222","long":"125.2236111"}},{"country":"kp","city":"Changdong","coordinates":{"lat":"38.2758333","long":"126.8622222"}},{"country":"kp","city":"Changdong","coordinates":{"lat":"38.6388889","long":"127.8788889"}},{"country":"kp","city":"Changdong","coordinates":{"lat":"39.6447222","long":"125.1455556"}},{"country":"kp","city":"Changdong","coordinates":{"lat":"40.7375","long":"128.3322222"}},{"country":"kp","city":"Changdong","coordinates":{"lat":"39.0333333","long":"126.5833333"}},{"country":"kp","city":"Changdong","coordinates":{"lat":"41.8322222","long":"129.7919444"}},{"country":"kp","city":"Changdongdong","coordinates":{"lat":"39.3847222","long":"126.9286111"}},{"country":"kp","city":"Changdongni","coordinates":{"lat":"40.3038889","long":"126.0263889"}},{"country":"kp","city":"Changdongni","coordinates":{"lat":"39.7333333","long":"127.3516667"}},{"country":"kp","city":"Changdongni","coordinates":{"lat":"37.8758333","long":"126.3125"}},{"country":"kp","city":"Changdongni","coordinates":{"lat":"38.2477778","long":"126.2080556"}},{"country":"kp","city":"Changdongni","coordinates":{"lat":"38.3372222","long":"127.0716667"}},{"country":"kp","city":"Changdongni","coordinates":{"lat":"39.7588889","long":"125.6183333"}},{"country":"kp","city":"Changdongni","coordinates":{"lat":"41.0611111","long":"128.4672222"}},{"country":"kp","city":"Changdongni","coordinates":{"lat":"39.43","long":"125.4155556"}},{"country":"kp","city":"Changdongni","coordinates":{"lat":"40.9130556","long":"129.4269444"}},{"country":"kp","city":"Changdongnodongjagu","coordinates":{"lat":"39.3847222","long":"126.9286111"}},{"country":"kp","city":"Changdongri","coordinates":{"lat":"38.5983333","long":"126.8047222"}},{"country":"kp","city":"Changdori","coordinates":{"lat":"38.5119444","long":"127.6686111"}},{"country":"kp","city":"Changdorijae","coordinates":{"lat":"37.9358333","long":"125.9363889"}},{"country":"kp","city":"Changdoup","coordinates":{"lat":"38.5308333","long":"127.7963889"}},{"country":"kp","city":"Changdudong","coordinates":{"lat":"42.2833333","long":"129.7894444"}},{"country":"kp","city":"Changdugok","coordinates":{"lat":"39.3833333","long":"127.1166667"}},{"country":"kp","city":"Changdugubi","coordinates":{"lat":"39.3833333","long":"127.1166667"}},{"country":"kp","city":"Changdul","coordinates":{"lat":"38.3880556","long":"128.1666667"}},{"country":"kp","city":"Changdung","coordinates":{"lat":"38.3033333","long":"126.1527778"}},{"country":"kp","city":"Changdungdang","coordinates":{"lat":"39.7077778","long":"125.68"}},{"country":"kp","city":"Changdungdong","coordinates":{"lat":"38.0152778","long":"125.7633333"}},{"country":"kp","city":"Changdungdong","coordinates":{"lat":"39.7077778","long":"125.68"}},{"country":"kp","city":"Changdunni","coordinates":{"lat":"37.9666667","long":"125.45"}},{"country":"kp","city":"Changdupyong","coordinates":{"lat":"42.4008333","long":"130.1469444"}},{"country":"kp","city":"Changgaedok","coordinates":{"lat":"41.2638889","long":"129.3138889"}},{"country":"kp","city":"Changgaedong","coordinates":{"lat":"39.1788889","long":"125.7783333"}},{"country":"kp","city":"Changgaegol","coordinates":{"lat":"38.0644444","long":"125.8780556"}},{"country":"kp","city":"Changgaeri","coordinates":{"lat":"38.3577778","long":"126.0316667"}},{"country":"kp","city":"Changgakkol","coordinates":{"lat":"39.3125","long":"125.8477778"}},{"country":"kp","city":"Changgaktong","coordinates":{"lat":"38.4241667","long":"125.8072222"}},{"country":"kp","city":"Changgang","coordinates":{"lat":"41.0591667","long":"126.6736111"}},{"country":"kp","city":"Changgangni","coordinates":{"lat":"41.3194444","long":"128.1852778"}},{"country":"kp","city":"Changgangup","coordinates":{"lat":"41.0591667","long":"126.6736111"}},{"country":"kp","city":"Changgari","coordinates":{"lat":"41.2166667","long":"128.1166667"}},{"country":"kp","city":"Changg","coordinates":{"lat":"40.8116667","long":"129.3455556"}},{"country":"kp","city":"Changgi","coordinates":{"lat":"38.3658333","long":"125.2113889"}},{"country":"kp","city":"Changgi","coordinates":{"lat":"40.72","long":"129.2191667"}},{"country":"kp","city":"Changgidong","coordinates":{"lat":"38.4152778","long":"125.7861111"}},{"country":"kp","city":"Changgidong","coordinates":{"lat":"39.8833333","long":"124.5"}},{"country":"kp","city":"Changgil","coordinates":{"lat":"38.2186111","long":"126.2475"}},{"country":"kp","city":"Changgogae","coordinates":{"lat":"40.6833333","long":"128.6666667"}},{"country":"kp","city":"Changgogae","coordinates":{"lat":"38.2166667","long":"126.3430556"}},{"country":"kp","city":"Changgok","coordinates":{"lat":"37.9861111","long":"125.9486111"}},{"country":"kp","city":"Changgok","coordinates":{"lat":"38.6363889","long":"126.0394444"}},{"country":"kp","city":"Changgok","coordinates":{"lat":"38.8588889","long":"125.3783333"}},{"country":"kp","city":"Changgok","coordinates":{"lat":"41.3513889","long":"129.4991667"}},{"country":"kp","city":"Changgokol","coordinates":{"lat":"40.0483333","long":"124.4291667"}},{"country":"kp","city":"Changgoktok","coordinates":{"lat":"41.2861111","long":"129.5236111"}},{"country":"kp","city":"Changgol","coordinates":{"lat":"40.4908333","long":"126.8655556"}},{"country":"kp","city":"Changgol","coordinates":{"lat":"39.3847222","long":"126.9286111"}},{"country":"kp","city":"Changgol","coordinates":{"lat":"37.9283333","long":"125.9541667"}},{"country":"kp","city":"Changgol","coordinates":{"lat":"38.2325","long":"126.0438889"}},{"country":"kp","city":"Changgol","coordinates":{"lat":"38.3847222","long":"127.4744444"}},{"country":"kp","city":"Changgol","coordinates":{"lat":"39.6447222","long":"125.1455556"}},{"country":"kp","city":"Changgol","coordinates":{"lat":"39.6486111","long":"126.4547222"}},{"country":"kp","city":"Changgol","coordinates":{"lat":"41.2088889","long":"129.465"}},{"country":"kp","city":"Changgoldok","coordinates":{"lat":"41.2847222","long":"129.5283333"}},{"country":"kp","city":"Changgolli","coordinates":{"lat":"37.9252778","long":"126.1777778"}},{"country":"kp","city":"Changgong","coordinates":{"lat":"37.9138889","long":"125.03"}},{"country":"kp","city":"Changgongdong","coordinates":{"lat":"39.7572222","long":"124.91"}},{"country":"kp","city":"Changgongdong","coordinates":{"lat":"41.1833333","long":"129.6666667"}},{"country":"kp","city":"ChanggongdongSasori","coordinates":{"lat":"39.75","long":"124.9166667"}},{"country":"kp","city":"Changgonggol","coordinates":{"lat":"41.1833333","long":"129.6666667"}},{"country":"kp","city":"Changgongni","coordinates":{"lat":"37.9252778","long":"126.1777778"}},{"country":"kp","city":"Changgongni","coordinates":{"lat":"39.7572222","long":"124.91"}},{"country":"kp","city":"Changgori","coordinates":{"lat":"38.4958333","long":"126.7677778"}},{"country":"kp","city":"Changgori","coordinates":{"lat":"40.0236111","long":"124.7583333"}},{"country":"kp","city":"Changgot","coordinates":{"lat":"39.3425","long":"127.395"}},{"country":"kp","city":"Changgotchi","coordinates":{"lat":"37.9333333","long":"125.7"}},{"country":"kp","city":"Changguchae","coordinates":{"lat":"39.4783333","long":"126.8163889"}},{"country":"kp","city":"Changgu","coordinates":{"lat":"38.25","long":"125.6"}},{"country":"kp","city":"Changgume","coordinates":{"lat":"38.4125","long":"125.2375"}},{"country":"kp","city":"Changgumni","coordinates":{"lat":"38.2022222","long":"125.8269444"}},