[{"country":"az","city":"26 Baky Komissary","coordinates":{"lat":"39.313757","long":"49.207157"}},{"country":"az","city":"26 Komissar adina Kend","coordinates":{"lat":"40.554568","long":"46.216059"}},{"country":"az","city":"28 Aprel","coordinates":{"lat":"40.624613","long":"46.977597"}},{"country":"az","city":"Â¿Â¿Â¿","coordinates":{"lat":"39.712778","long":"47.009167"}},{"country":"az","city":"Â¿Â¿Â¿Â¿Â¿","coordinates":{"lat":"39.866071","long":"46.918459"}},{"country":"az","city":"Â¿Â¿Â¿Â¿Â¿Â¿","coordinates":{"lat":"39.388178","long":"46.566494"}},{"country":"az","city":"Â¿Â¿Â¿Â¿Â¿Â¿","coordinates":{"lat":"39.8969","long":"46.701182"}},{"country":"az","city":"Â¿Â¿Â¿Â¿Â¿Â¿Â¿","coordinates":{"lat":"39.399173","long":"47.028345"}},{"country":"az","city":"Â¿Â¿Â¿Â¿Â¿Â¿Â¿","coordinates":{"lat":"40.441944","long":"46.646667"}},{"country":"az","city":"Â¿Â¿Â¿Â¿Â¿Â¿Â¿Â¿Â¿","coordinates":{"lat":"39.714173","long":"46.842101"}},{"country":"az","city":"Â¿Â¿Â¿Â¿Â¿Â¿Â¿Â¿Â¿Â¿","coordinates":{"lat":"39.704856","long":"46.831053"}},{"country":"az","city":"Â¿Â¿Â¿Â¿Â¿Â¿Â¿Â¿Â¿Â¿Â¿","coordinates":{"lat":"40.072294","long":"46.94449"}},{"country":"az","city":"Â¿Â¿Â¿Â¿Â¿Â¿Â¿Â¿Â¿Â¿Â¿","coordinates":{"lat":"39.454444","long":"46.626389"}},{"country":"az","city":"Abad","coordinates":{"lat":"40.46645","long":"47.33398"}},{"country":"az","city":"Abadkend","coordinates":{"lat":"39.75","long":"49.016667"}},{"country":"az","city":"Abas-Abad","coordinates":{"lat":"38.868889","long":"48.287778"}},{"country":"az","city":"Abas-Ali","coordinates":{"lat":"39.435333","long":"49.08097"}},{"country":"az","city":"Abasaly","coordinates":{"lat":"39.277768","long":"48.360821"}},{"country":"az","city":"Abasbeyli","coordinates":{"lat":"39.95","long":"48.366667"}},{"country":"az","city":"Abaskand","coordinates":{"lat":"41.314444","long":"46.95"}},{"country":"az","city":"Abaskhanly","coordinates":{"lat":"40.38919","long":"48.400442"}},{"country":"az","city":"Abazally","coordinates":{"lat":"39.277768","long":"48.360821"}},{"country":"az","city":"Abbasabad","coordinates":{"lat":"38.868889","long":"48.287778"}},{"country":"az","city":"Abbasally","coordinates":{"lat":"39.435333","long":"49.08097"}},{"country":"az","city":"Abbasbayli","coordinates":{"lat":"41.081344","long":"45.193526"}},{"country":"az","city":"Abbasbeyli","coordinates":{"lat":"41.081344","long":"45.193526"}},{"country":"az","city":"Abbasbeyli","coordinates":{"lat":"39.95","long":"48.366667"}},{"country":"az","city":"Abbaskullar","coordinates":{"lat":"40.682106","long":"45.575871"}},{"country":"az","city":"Abbasli","coordinates":{"lat":"40.758314","long":"46.143562"}},{"country":"az","city":"Abbasly","coordinates":{"lat":"40.758314","long":"46.143562"}},{"country":"az","city":"Abbasqulular","coordinates":{"lat":"40.682106","long":"45.575871"}},{"country":"az","city":"Abdal","coordinates":{"lat":"39.866071","long":"46.918459"}},{"country":"az","city":"AbdalanlÂ¿","coordinates":{"lat":"39.412099","long":"46.546217"}},{"country":"az","city":"Abdalanly","coordinates":{"lat":"39.412099","long":"46.546217"}},{"country":"az","city":"Abdalinlu","coordinates":{"lat":"39.412099","long":"46.546217"}},{"country":"az","city":"Abdalli","coordinates":{"lat":"41.073808","long":"47.595626"}},{"country":"az","city":"Abdally","coordinates":{"lat":"39.866071","long":"46.918459"}},{"country":"az","city":"Abdally","coordinates":{"lat":"41.073808","long":"47.595626"}},{"country":"az","city":"Abdallyar","coordinates":{"lat":"39.640833","long":"46.546944"}},{"country":"az","city":"Abdalyar","coordinates":{"lat":"39.640833","long":"46.546944"}},{"country":"az","city":"Abdinli","coordinates":{"lat":"38.921944","long":"48.1575"}},{"country":"az","city":"Abdullausagi","coordinates":{"lat":"40.055451","long":"46.202845"}},{"country":"az","city":"Abdulla-Ushagi","coordinates":{"lat":"40.055451","long":"46.202845"}},{"country":"az","city":"Abdullaushagy","coordinates":{"lat":"40.055451","long":"46.202845"}},{"country":"az","city":"Abdulyan","coordinates":{"lat":"40.089459","long":"48.677945"}},{"country":"az","city":"Abdulyany","coordinates":{"lat":"40.089459","long":"48.677945"}},{"country":"az","city":"Abdunly","coordinates":{"lat":"38.921944","long":"48.1575"}},{"country":"az","city":"Abdurakhmanly","coordinates":{"lat":"39.562771","long":"47.205384"}},{"country":"az","city":"Abdynly","coordinates":{"lat":"38.921944","long":"48.1575"}},{"country":"az","city":"Abilca","coordinates":{"lat":"39.219723","long":"46.706738"}},{"country":"az","city":"Abil'dzha","coordinates":{"lat":"39.219723","long":"46.706738"}},{"country":"az","city":"Abilyataq","coordinates":{"lat":"41.540303","long":"48.887974"}},{"country":"az","city":"Abish-Kyand","coordinates":{"lat":"39.433333","long":"48.45"}},{"country":"az","city":"Abjit","coordinates":{"lat":"41.722778","long":"46.235278"}},{"country":"az","city":"Ablakh","coordinates":{"lat":"40.501667","long":"46.429444"}},{"country":"az","city":"Abrakunis","coordinates":{"lat":"39.136324","long":"45.63744"}},{"country":"az","city":"Abraqunis","coordinates":{"lat":"39.136324","long":"45.63744"}},{"country":"az","city":"Abrix","coordinates":{"lat":"41.036973","long":"47.740479"}},{"country":"az","city":"Abushabad","coordinates":{"lat":"39.257323","long":"48.404588"}},{"country":"az","city":"Abush-Abad","coordinates":{"lat":"39.257323","long":"48.404588"}},{"country":"az","city":"Abyshabad","coordinates":{"lat":"39.257323","long":"48.404588"}},{"country":"az","city":"Abyshbeyli","coordinates":{"lat":"40.181111","long":"47.662778"}},{"country":"az","city":"Acami","coordinates":{"lat":"40.700279","long":"47.188954"}},{"country":"az","city":"Acaxur","coordinates":{"lat":"41.456687","long":"48.188889"}},{"country":"az","city":"Acaxuroba","coordinates":{"lat":"41.727583","long":"48.523148"}},{"country":"az","city":"Achakaya","coordinates":{"lat":"40.657778","long":"46.227693"}},{"country":"az","city":"Acidara","coordinates":{"lat":"40.524836","long":"48.743281"}},{"country":"az","city":"Aciliqbina","coordinates":{"lat":"41.680622","long":"46.264132"}},{"country":"az","city":"Adakar","coordinates":{"lat":"41.333056","long":"49.072778"}},{"country":"az","city":"Adigozalbegly","coordinates":{"lat":"40.101111","long":"46.820556"}},{"country":"az","city":"Adnali","coordinates":{"lat":"39.288499","long":"48.399575"}},{"country":"az","city":"Adnali","coordinates":{"lat":"40.571325","long":"48.618626"}},{"country":"az","city":"Adnaly","coordinates":{"lat":"39.288499","long":"48.399575"}},{"country":"az","city":"Adnaly","coordinates":{"lat":"40.571325","long":"48.618626"}},{"country":"az","city":"Adshikabul","coordinates":{"lat":"40.040835","long":"48.944508"}},{"country":"az","city":"Adur","coordinates":{"lat":"41.122838","long":"48.300222"}},{"country":"az","city":"Adynaly","coordinates":{"lat":"39.288499","long":"48.399575"}},{"country":"az","city":"Adzha-Kabul","coordinates":{"lat":"40.040835","long":"48.944508"}},{"country":"az","city":"Adzhakend","coordinates":{"lat":"40.516401","long":"46.322843"}},{"country":"az","city":"Adzhakhur","coordinates":{"lat":"41.456687","long":"48.188889"}},{"country":"az","city":"Adzhakhuroba","coordinates":{"lat":"41.727583","long":"48.523148"}},{"country":"az","city":"Adzhami","coordinates":{"lat":"40.700279","long":"47.188954"}},{"country":"az","city":"Adzhidere","coordinates":{"lat":"40.524836","long":"48.743281"}},{"country":"az","city":"Adzhikabul","coordinates":{"lat":"40.040835","long":"48.944508"}},{"country":"az","city":"Adzhikadiry","coordinates":{"lat":"40.413945","long":"48.564356"}},{"country":"az","city":"Adzhikarakashly","coordinates":{"lat":"41.341779","long":"49.068269"}},{"country":"az","city":"Adzhikend","coordinates":{"lat":"40.516401","long":"46.322843"}},{"country":"az","city":"Adzhily","coordinates":{"lat":"40.083333","long":"47.883333"}},{"country":"az","city":"Adzhished","coordinates":{"lat":"40.486123","long":"46.352558"}},{"country":"az","city":"Adzhiyely","coordinates":{"lat":"40.286628","long":"49.075909"}},{"country":"az","city":"Adzhkhur","coordinates":{"lat":"41.456687","long":"48.188889"}},{"country":"az","city":"Adzhylygbina","coordinates":{"lat":"41.680622","long":"46.264132"}},{"country":"az","city":"Adzhylykhbina","coordinates":{"lat":"41.680622","long":"46.264132"}},{"country":"az","city":"Afandilar","coordinates":{"lat":"39.434723","long":"47.049363"}},{"country":"az","city":"Afandilar","coordinates":{"lat":"39.327778","long":"46.704167"}},{"country":"az","city":"Afatli","coordinates":{"lat":"40.009386","long":"47.085795"}},{"country":"az","city":"Afatlu","coordinates":{"lat":"39.819722","long":"46.778889"}},{"country":"az","city":"Afatly","coordinates":{"lat":"40.009386","long":"47.085795"}},{"country":"az","city":"Afurca","coordinates":{"lat":"41.158822","long":"48.619704"}},{"country":"az","city":"Afurdzha","coordinates":{"lat":"41.158822","long":"48.619704"}},{"country":"az","city":"Agabagi","coordinates":{"lat":"40.110556","long":"47.813056"}},{"country":"az","city":"Agabagy","coordinates":{"lat":"40.110556","long":"47.813056"}},{"country":"az","city":"Agabayli","coordinates":{"lat":"40.058475","long":"47.402227"}},{"country":"az","city":"Agabayli","coordinates":{"lat":"40.430144","long":"48.433059"}},{"country":"az","city":"Agabayyali","coordinates":{"lat":"40.207991","long":"46.792503"}},{"country":"az","city":"Agabekalendzh","coordinates":{"lat":"40.207991","long":"46.792503"}},{"country":"az","city":"Agabeyli","coordinates":{"lat":"40.058475","long":"47.402227"}},{"country":"az","city":"Agabeyli","coordinates":{"lat":"40.5","long":"48.416667"}},{"country":"az","city":"Agacanli","coordinates":{"lat":"39.981948","long":"48.852212"}},{"country":"az","city":"Agachkala","coordinates":{"lat":"40.799745","long":"45.718023"}},{"country":"az","city":"Agacqala","coordinates":{"lat":"40.799745","long":"45.718023"}},{"country":"az","city":"Agadzhaly","coordinates":{"lat":"40.066667","long":"48.15"}},{"country":"az","city":"Agadzhanly","coordinates":{"lat":"39.981948","long":"48.852212"}},{"country":"az","city":"Agakhanly","coordinates":{"lat":"39.746667","long":"47.958889"}},{"country":"az","city":"Agakhmed","coordinates":{"lat":"39.582432","long":"44.919155"}},{"country":"az","city":"Agakishi-Bayli","coordinates":{"lat":"39.066667","long":"48.683333"}},{"country":"az","city":"Agakishibeyli","coordinates":{"lat":"39.066667","long":"48.683333"}},{"country":"az","city":"Agalarbayli","coordinates":{"lat":"40.516885","long":"48.413133"}},{"country":"az","city":"Agalarbeyli","coordinates":{"lat":"40.058056","long":"47.111389"}},{"country":"az","city":"Agalarbeyli","coordinates":{"lat":"40.430144","long":"48.433059"}},{"country":"az","city":"Agali","coordinates":{"lat":"40.652096","long":"47.461747"}},{"country":"az","city":"Agalikand","coordinates":{"lat":"39.374444","long":"48.578333"}},{"country":"az","city":"Agally","coordinates":{"lat":"41.133333","long":"47.2"}},{"country":"az","city":"Agalu","coordinates":{"lat":"40.347926","long":"47.306462"}},{"country":"az","city":"Agaly","coordinates":{"lat":"40.652096","long":"47.461747"}},{"country":"az","city":"Agaly","coordinates":{"lat":"39.185936","long":"46.752538"}},{"country":"az","city":"Agalykend","coordinates":{"lat":"39.374444","long":"48.578333"}},{"country":"az","city":"Agaly Pervyye","coordinates":{"lat":"39.185936","long":"46.752538"}},{"country":"az","city":"Agaly Tret'ye","coordinates":{"lat":"39.175809","long":"46.774891"}},{"country":"az","city":"Agaly Vtoryye","coordinates":{"lat":"39.178475","long":"46.762024"}},{"country":"az","city":"Agamad","coordinates":{"lat":"39.582432","long":"44.919155"}},{"country":"az","city":"Agamali","coordinates":{"lat":"40.686389","long":"45.763056"}},{"country":"az","city":"Agamalioglu","coordinates":{"lat":"40.720444","long":"46.530315"}},{"country":"az","city":"Agamaly","coordinates":{"lat":"40.686389","long":"45.763056"}},{"country":"az","city":"Agamalylar","coordinates":{"lat":"40.095202","long":"47.817353"}},{"country":"az","city":"Agamalyoglu","coordinates":{"lat":"40.720444","long":"46.530315"}},{"country":"az","city":"Agamamedli","coordinates":{"lat":"39.867778","long":"48.908056"}},{"country":"az","city":"Agamamedli","coordinates":{"lat":"40.859444","long":"45.726667"}},{"country":"az","city":"Aga-Mamedly","coordinates":{"lat":"39.867778","long":"48.908056"}},{"country":"az","city":"Agamammadli","coordinates":{"lat":"39.958759","long":"47.989958"}},{"country":"az","city":"Agamammadli","coordinates":{"lat":"40.859444","long":"45.726667"}},{"country":"az","city":"Aga-Mirza-Obasi","coordinates":{"lat":"41.348333","long":"48.984722"}},{"country":"az","city":"Agan","coordinates":{"lat":"40.852564","long":"48.416035"}},{"country":"az","city":"Aganus","coordinates":{"lat":"39.628343","long":"46.587592"}},{"country":"az","city":"Aganz","coordinates":{"lat":"40.3475","long":"46.630278"}},{"country":"az","city":"Agaps","coordinates":{"lat":"40.333333","long":"46.616667"}},{"country":"az","city":"Agaragimli","coordinates":{"lat":"39.933333","long":"48.333333"}},{"country":"az","city":"Agaragimoba","coordinates":{"lat":"41.496245","long":"48.719133"}},{"country":"az","city":"Agarahimoba","coordinates":{"lat":"41.496245","long":"48.719133"}},{"country":"az","city":"Agaraimoba","coordinates":{"lat":"41.496245","long":"48.719133"}},{"country":"az","city":"Agarent","coordinates":{"lat":"39.95276","long":"48.347072"}},{"country":"az","city":"Agarx","coordinates":{"lat":"40.520299","long":"48.375096"}},{"country":"az","city":"Agashirinoba","coordinates":{"lat":"41.519296","long":"48.682832"}},{"country":"az","city":"Agasi-Bek-Obasi","coordinates":{"lat":"41.133333","long":"49.116667"}},{"country":"az","city":"Agasibeyli","coordinates":{"lat":"41.133333","long":"49.116667"}},{"country":"az","city":"Agasirinoba","coordinates":{"lat":"41.519296","long":"48.682832"}},{"country":"az","city":"Agasy-Begly","coordinates":{"lat":"40.769865","long":"46.515638"}},{"country":"az","city":"Agaverdioba","coordinates":{"lat":"41.599949","long":"48.672325"}},{"country":"az","city":"Agayazi","coordinates":{"lat":"41.240051","long":"46.742792"}},{"country":"az","city":"Agayazibuduq","coordinates":{"lat":"41.398496","long":"48.733552"}},{"country":"az","city":"Agayazybudug","coordinates":{"lat":"41.398496","long":"48.733552"}},{"country":"az","city":"Aga-Yazybudukh","coordinates":{"lat":"41.398496","long":"48.733552"}},{"country":"az","city":"Aga-Yazyoudukh","coordinates":{"lat":"41.398496","long":"48.733552"}},{"country":"az","city":"Agayri","coordinates":{"lat":"39.525","long":"48.495278"}},{"country":"az","city":"Agayry","coordinates":{"lat":"39.525","long":"48.495278"}},{"country":"az","city":"Agbash","coordinates":{"lat":"41.113737","long":"49.098335"}},{"country":"az","city":"Agbashlar","coordinates":{"lat":"40.643664","long":"45.662222"}},{"country":"az","city":"Agbaslar","coordinates":{"lat":"40.643664","long":"45.662222"}},{"country":"az","city":"Agbil","coordinates":{"lat":"41.422072","long":"48.560382"}},{"country":"az","city":"Agbis","coordinates":{"lat":"39.20982","long":"46.628026"}},{"country":"az","city":"Agbiz","coordinates":{"lat":"39.20982","long":"46.628026"}},{"country":"az","city":"Ag-Bulag","coordinates":{"lat":"40.710911","long":"48.247549"}},{"country":"az","city":"Agbulag","coordinates":{"lat":"39.778189","long":"46.258271"}},{"country":"az","city":"Agbulag","coordinates":{"lat":"39.877298","long":"46.900168"}},{"country":"az","city":"Agbulag","coordinates":{"lat":"39.554474","long":"47.08467"}},{"country":"az","city":"Agbulak","coordinates":{"lat":"40.710911","long":"48.247549"}},{"country":"az","city":"Agbulak","coordinates":{"lat":"39.778189","long":"46.258271"}},{"country":"az","city":"Agbulak","coordinates":{"lat":"40.841794","long":"45.617792"}},{"country":"az","city":"Agbulak","coordinates":{"lat":"39.877298","long":"46.900168"}},{"country":"az","city":"Agbulak","coordinates":{"lat":"39.554474","long":"47.08467"}},{"country":"az","city":"Agbulak","coordinates":{"lat":"39.083333","long":"48.433333"}},{"country":"az","city":"Agbulaq","coordinates":{"lat":"40.710911","long":"48.247549"}},{"country":"az","city":"Agbulaq","coordinates":{"lat":"39.778189","long":"46.258271"}},{"country":"az","city":"Agbulaq","coordinates":{"lat":"40.841794","long":"45.617792"}},{"country":"az","city":"Agbulaq","coordinates":{"lat":"39.877298","long":"46.900168"}},{"country":"az","city":"Agbulaq","coordinates":{"lat":"39.554474","long":"47.08467"}},{"country":"az","city":"Agcabadi","coordinates":{"lat":"40.052778","long":"47.461389"}},{"country":"az","city":"Agcakand","coordinates":{"lat":"40.021389","long":"46.189167"}},{"country":"az","city":"Agcakand","coordinates":{"lat":"39.780861","long":"46.336769"}},{"country":"az","city":"Agcakand","coordinates":{"lat":"39.498083","long":"46.879629"}},{"country":"az","city":"Agcaqovaq","coordinates":{"lat":"40.583131","long":"47.232023"}},{"country":"az","city":"Agcay","coordinates":{"lat":"41.458056","long":"47.001389"}},{"country":"az","city":"Agcay","coordinates":{"lat":"41.486944","long":"48.940833"}},{"country":"az","city":"Agcayazi","coordinates":{"lat":"39.78808","long":"46.456243"}},{"country":"az","city":"Agchay","coordinates":{"lat":"41.458056","long":"47.001389"}},{"country":"az","city":"Agdaban","coordinates":{"lat":"40.193056","long":"46.353056"}},{"country":"az","city":"Agdam","coordinates":{"lat":"39.99096","long":"46.927356"}},{"country":"az","city":"Agdam","coordinates":{"lat":"40.905278","long":"45.556389"}},{"country":"az","city":"Agdam","coordinates":{"lat":"39.551389","long":"46.952222"}},{"country":"az","city":"Agdamkand","coordinates":{"lat":"40.003316","long":"46.981334"}},{"country":"az","city":"Agdamkelal","coordinates":{"lat":"41.64648","long":"46.889722"}},{"country":"az","city":"Agdamkelyal","coordinates":{"lat":"41.64648","long":"46.889722"}},{"country":"az","city":"Agdamkend","coordinates":{"lat":"40.003316","long":"46.981334"}},{"country":"az","city":"Agdamkent","coordinates":{"lat":"40.003316","long":"46.981334"}},{"country":"az","city":"Agdam Qalal","coordinates":{"lat":"41.64648","long":"46.889722"}},{"country":"az","city":"Agdara","coordinates":{"lat":"39.110278","long":"45.913889"}},{"country":"az","city":"Agdara","coordinates":{"lat":"40.210402","long":"46.820974"}},{"country":"az","city":"Agdara","coordinates":{"lat":"40.72781","long":"45.655932"}},{"country":"az","city":"Agdara","coordinates":{"lat":"40.691649","long":"49.016424"}},{"country":"az","city":"Agdas","coordinates":{"lat":"40.65","long":"47.476111"}},{"country":"az","city":"Agdas","coordinates":{"lat":"39.084722","long":"48.501111"}},{"country":"az","city":"Agdas","coordinates":{"lat":"40.176944","long":"46.097222"}},{"country":"az","city":"Agdasch","coordinates":{"lat":"40.65","long":"47.476111"}},{"country":"az","city":"Agdash","coordinates":{"lat":"40.65","long":"47.476111"}},{"country":"az","city":"Agdash","coordinates":{"lat":"39.084722","long":"48.501111"}},{"country":"az","city":"Agdash","coordinates":{"lat":"40.176944","long":"46.097222"}},{"country":"az","city":"Agdere","coordinates":{"lat":"39.110278","long":"45.913889"}},{"country":"az","city":"Agdere","coordinates":{"lat":"40.72781","long":"45.655932"}},{"country":"az","city":"Agdere","coordinates":{"lat":"40.691649","long":"49.016424"}},{"country":"az","city":"Agdzhabedi","coordinates":{"lat":"40.052778","long":"47.461389"}},{"country":"az","city":"Agdzhabedy","coordinates":{"lat":"40.052778","long":"47.461389"}},{"country":"az","city":"Agdzhakend","coordinates":{"lat":"40.021389","long":"46.189167"}},{"country":"az","city":"Agdzhakend","coordinates":{"lat":"39.780861","long":"46.336769"}},{"country":"az","city":"Agdzhakend","coordinates":{"lat":"39.498083","long":"46.879629"}},{"country":"az","city":"Agdzhakovag","coordinates":{"lat":"40.583131","long":"47.232023"}},{"country":"az","city":"Agdzhakovakh","coordinates":{"lat":"40.583131","long":"47.232023"}},{"country":"az","city":"Agdzhayazy","coordinates":{"lat":"39.78808","long":"46.456243"}},{"country":"az","city":"Agdzhiyazy","coordinates":{"lat":"39.78808","long":"46.456243"}},{"country":"az","city":"Agdzhuvur","coordinates":{"lat":"39.914525","long":"48.192869"}},{"country":"az","city":"Agebeyli","coordinates":{"lat":"40.058475","long":"47.402227"}},{"country":"az","city":"Agëkhush","coordinates":{"lat":"40.63467","long":"46.160789"}},{"country":"az","city":"Aggadik","coordinates":{"lat":"39.903615","long":"46.847378"}},{"country":"az","city":"Aghabekalanj","coordinates":{"lat":"40.207991","long":"46.792503"}},{"country":"az","city":"Aghabekalendg","coordinates":{"lat":"40.207991","long":"46.792503"}},{"country":"az","city":"Aghabekalenj","coordinates":{"lat":"40.207991","long":"46.792503"}},{"country":"az","city":"Aghabekalinj","coordinates":{"lat":"40.266667","long":"46.783333"}},{"country":"az","city":"Aghanus","coordinates":{"lat":"39.628343","long":"46.587592"}},{"country":"az","city":"Aghavni","coordinates":{"lat":"39.589303","long":"46.544031"}},{"country":"az","city":"Aghboulagh","coordinates":{"lat":"39.877298","long":"46.900168"}},{"country":"az","city":"Aghboulagh","coordinates":{"lat":"39.554474","long":"47.08467"}},{"country":"az","city":"Aghbulagh","coordinates":{"lat":"39.778189","long":"46.258271"}},{"country":"az","city":"Aghbulagh","coordinates":{"lat":"39.877298","long":"46.900168"}},{"country":"az","city":"Aghbulagh","coordinates":{"lat":"39.554474","long":"47.08467"}},{"country":"az","city":"Aghdaban","coordinates":{"lat":"40.193056","long":"46.353056"}},{"country":"az","city":"Aghdam","coordinates":{"lat":"39.99096","long":"46.927356"}},{"country":"az","city":"Aghdamk'end","coordinates":{"lat":"40.003316","long":"46.981334"}},{"country":"az","city":"Aghdash","coordinates":{"lat":"40.65","long":"47.476111"}},{"country":"az","city":"Aghjabädi","coordinates":{"lat":"40.052778","long":"47.461389"}},{"country":"az","city":"Aghjak'end","coordinates":{"lat":"39.780861","long":"46.336769"}},{"country":"az","city":"Aghjayazy","coordinates":{"lat":"39.78808","long":"46.456243"}},{"country":"az","city":"Aghsu","coordinates":{"lat":"40.569167","long":"48.396476"}},{"country":"az","city":"Aghtep'e","coordinates":{"lat":"39.357321","long":"47.027542"}},{"country":"az","city":"Agirdzha","coordinates":{"lat":"40.675605","long":"49.461457"}},{"country":"az","city":"Agkand","coordinates":{"lat":"39.820975","long":"47.019454"}},{"country":"az","city":"Agkend","coordinates":{"lat":"39.190656","long":"46.454679"}},{"country":"az","city":"Agkeynak","coordinates":{"lat":"41.066944","long":"45.295556"}},{"country":"az","city":"Agkilisa","coordinates":{"lat":"41.685286","long":"46.316862"}},{"country":"az","city":"Agkilsa","coordinates":{"lat":"41.685286","long":"46.316862"}},{"country":"az","city":"Ag-Kishlag","coordinates":{"lat":"38.907314","long":"48.388935"}},{"country":"az","city":"Agkoynak","coordinates":{"lat":"41.066944","long":"45.295556"}},{"country":"az","city":"Agkyshlak","coordinates":{"lat":"38.907314","long":"48.388935"}},{"country":"az","city":"Aglykh","coordinates":{"lat":"41.141389","long":"47.539167"}},{"country":"az","city":"Agmamedly","coordinates":{"lat":"40.859444","long":"45.726667"}},{"country":"az","city":"Agoshapeshta","coordinates":{"lat":"38.666667","long":"48.616667"}},{"country":"az","city":"Agpilyakyan","coordinates":{"lat":"40.976389","long":"47.304444"}},{"country":"az","city":"Agqiraqli","coordinates":{"lat":"40.662573","long":"47.063861"}},{"country":"az","city":"Agry","coordinates":{"lat":"38.92579","long":"45.926572"}},{"country":"az","city":"Agsiazan'","coordinates":{"lat":"40.965186","long":"49.161117"}},{"country":"az","city":"Agsiyazan'","coordinates":{"lat":"40.965186","long":"49.161117"}},{"country":"az","city":"Agstafa","coordinates":{"lat":"41.118889","long":"45.453889"}},{"country":"az","city":"Agsu","coordinates":{"lat":"40.569167","long":"48.396476"}},{"country":"az","city":"Agtala","coordinates":{"lat":"41.538429","long":"48.764748"}},{"country":"az","city":"Agtapa","coordinates":{"lat":"39.357321","long":"47.027542"}},{"country":"az","city":"Agtepe","coordinates":{"lat":"39.357321","long":"47.027542"}},{"country":"az","city":"Agusam","coordinates":{"lat":"39.198911","long":"48.323047"}},{"country":"az","city":"Agyazi","coordinates":{"lat":"41.240051","long":"46.742792"}},{"country":"az","city":"Agyazi","coordinates":{"lat":"41.176944","long":"47.006944"}},{"country":"az","city":"Agyoxus","coordinates":{"lat":"40.63467","long":"46.160789"}},{"country":"az","city":"Agzhur","coordinates":{"lat":"39.914525","long":"48.192869"}},{"country":"az","city":"Agzibir","coordinates":{"lat":"40.409444","long":"47.388889"}},{"country":"az","city":"Agzibir","coordinates":{"lat":"39.995","long":"46.266111"}},{"country":"az","city":"Agzybir","coordinates":{"lat":"40.409444","long":"47.388889"}},{"country":"az","city":"Ahan","coordinates":{"lat":"40.852564","long":"48.416035"}},{"country":"az","city":"Ahmadabad","coordinates":{"lat":"40.7113","long":"46.653521"}},{"country":"az","city":"Ahmadabad","coordinates":{"lat":"39.996274","long":"48.617951"}},{"country":"az","city":"Ahmadabad","coordinates":{"lat":"40.773437","long":"45.664649"}},{"country":"az","city":"Ahmadagali","coordinates":{"lat":"40.110222","long":"47.037542"}},{"country":"az","city":"Ahmadalilar","coordinates":{"lat":"39.43885","long":"47.338628"}},{"country":"az","city":"Â¿hmÂ¿davar","coordinates":{"lat":"39.978444","long":"46.886273"}},{"country":"az","city":"Ahmadbayli","coordinates":{"lat":"39.565596","long":"47.551556"}},{"country":"az","city":"Ahmadli","coordinates":{"lat":"40.378056","long":"49.961944"}},{"country":"az","city":"Ahmadli","coordinates":{"lat":"39.715465","long":"47.837222"}},{"country":"az","city":"Ahmadli","coordinates":{"lat":"40.471072","long":"46.150737"}},{"country":"az","city":"Ahmadli","coordinates":{"lat":"39.686585","long":"46.285785"}},{"country":"az","city":"Ahmadli","coordinates":{"lat":"39.106938","long":"48.638068"}},{"country":"az","city":"Ahmadli","coordinates":{"lat":"40.736047","long":"48.700059"}},{"country":"az","city":"Ahmadoba","coordinates":{"lat":"41.516944","long":"48.8125"}},{"country":"az","city":"Ahmedavar","coordinates":{"lat":"39.978444","long":"46.886273"}},{"country":"az","city":"Ahmedli","coordinates":{"lat":"39.686585","long":"46.285785"}},{"country":"az","city":"Aja Kabul","coordinates":{"lat":"40.040835","long":"48.944508"}},{"country":"az","city":"Akaku","coordinates":{"lat":"39.551389","long":"46.952222"}},{"country":"az","city":"Akdash","coordinates":{"lat":"40.65","long":"47.476111"}},{"country":"az","city":"Akdere","coordinates":{"lat":"40.691649","long":"49.016424"}},{"country":"az","city":"Akeri","coordinates":{"lat":"39.466667","long":"46.616667"}},{"country":"az","city":"Akerly","coordinates":{"lat":"39.466667","long":"46.616667"}},{"country":"az","city":"Akhan","coordinates":{"lat":"40.852564","long":"48.416035"}},{"country":"az","city":"Akhardzha","coordinates":{"lat":"40.671944","long":"46.195278"}},{"country":"az","city":"Akh-Bulakh","coordinates":{"lat":"39.083333","long":"48.433333"}},{"country":"az","city":"Akhit'arishen","coordinates":{"lat":"39.762547","long":"46.774444"}},{"country":"az","city":"Akhmazkend","coordinates":{"lat":"40.00623","long":"48.804154"}},{"country":"az","city":"Akhmedabad","coordinates":{"lat":"40.7113","long":"46.653521"}},{"country":"az","city":"Akhmedabad","coordinates":{"lat":"39.996274","long":"48.617951"}},{"country":"az","city":"Akhmedabad","coordinates":{"lat":"40.773437","long":"45.664649"}},{"country":"az","city":"Akhmedagaly","coordinates":{"lat":"40.110222","long":"47.037542"}},{"country":"az","city":"Akhmed","coordinates":{"lat":"39.582432","long":"44.919155"}},{"country":"az","city":"Akhmedalar","coordinates":{"lat":"40.462222","long":"47.086667"}},{"country":"az","city":"Akhmedallar","coordinates":{"lat":"39.43885","long":"47.338628"}},{"country":"az","city":"Akhmedalylar","coordinates":{"lat":"39.43885","long":"47.338628"}},{"country":"az","city":"Akhmedavar","coordinates":{"lat":"39.978444","long":"46.886273"}},{"country":"az","city":"Akhmedbeyli","coordinates":{"lat":"39.565596","long":"47.551556"}},{"country":"az","city":"Akhmedh","coordinates":{"lat":"39.686585","long":"46.285785"}},{"country":"az","city":"Akhmedlar","coordinates":{"lat":"40.95","long":"45.783333"}},{"country":"az","city":"Akhmedli","coordinates":{"lat":"40.378056","long":"49.961944"}},{"country":"az","city":"Akhmedli","coordinates":{"lat":"39.715465","long":"47.837222"}},{"country":"az","city":"Akhmedli","coordinates":{"lat":"40.471072","long":"46.150737"}},{"country":"az","city":"Akhmedli","coordinates":{"lat":"39.686585","long":"46.285785"}},{"country":"az","city":"Akhmedli","coordinates":{"lat":"39.106938","long":"48.638068"}},{"country":"az","city":"Akhmedly","coordinates":{"lat":"40.378056","long":"49.961944"}},{"country":"az","city":"Akhmedly","coordinates":{"lat":"39.715465","long":"47.837222"}},{"country":"az","city":"Akhmedly","coordinates":{"lat":"40.471072","long":"46.150737"}},{"country":"az","city":"Akhmedoba","coordinates":{"lat":"41.516944","long":"48.8125"}},{"country":"az","city":"Akhnazar","coordinates":{"lat":"39.775561","long":"46.508666"}},{"country":"az","city":"Akhsham","coordinates":{"lat":"40.742368","long":"47.154221"}},{"country":"az","city":"Akhsu","coordinates":{"lat":"40.569167","long":"48.396476"}},{"country":"az","city":"Akhtachi","coordinates":{"lat":"40.054821","long":"48.296498"}},{"country":"az","city":"Akhtachi","coordinates":{"lat":"40.005642","long":"48.71035"}},{"country":"az","city":"Akhtachi-Shaumyan","coordinates":{"lat":"39.965836","long":"48.713344"}},{"country":"az","city":"Akhtachi-Sovet","coordinates":{"lat":"40.054821","long":"48.296498"}},{"country":"az","city":"Akhtachy","coordinates":{"lat":"40.57313","long":"48.451032"}},{"country":"az","city":"Akhtachy","coordinates":{"lat":"40.054821","long":"48.296498"}},{"country":"az","city":"Akhtachy","coordinates":{"lat":"40.039203","long":"48.314661"}},{"country":"az","city":"Akhtachy-Karabudzhak","coordinates":{"lat":"40.054821","long":"48.296498"}},{"country":"az","city":"Akhtachy Mugan","coordinates":{"lat":"40.01637","long":"48.716511"}},{"country":"az","city":"Akhtachy Shaumyan","coordinates":{"lat":"39.965836","long":"48.713344"}},{"country":"az","city":"Akhtachy Shirvan","coordinates":{"lat":"40.005642","long":"48.71035"}},{"country":"az","city":"Akhtakhana","coordinates":{"lat":"39.105144","long":"48.385402"}},{"country":"az","city":"Akhundly","coordinates":{"lat":"40.534107","long":"48.245964"}},{"country":"az","city":"Akhunly","coordinates":{"lat":"40.534107","long":"48.245964"}},{"country":"az","city":"Akhura","coordinates":{"lat":"39.562222","long":"45.161389"}},{"country":"az","city":"Akhverdi","coordinates":{"lat":"39.274894","long":"49.144944"}},{"country":"az","city":"Akhverdili","coordinates":{"lat":"39.274894","long":"49.144944"}},{"country":"az","city":"Akhzhidara","coordinates":{"lat":"40.524836","long":"48.743281"}},{"country":"az","city":"Akkana","coordinates":{"lat":"40.191587","long":"46.59003"}},{"country":"az","city":"Aknaghbyur","coordinates":{"lat":"39.707361","long":"46.865893"}},{"country":"az","city":"Akstafa","coordinates":{"lat":"41.118889","long":"45.453889"}},{"country":"az","city":"Akstafal","coordinates":{"lat":"41.118889","long":"45.453889"}},{"country":"az","city":"Aksu","coordinates":{"lat":"40.569167","long":"48.396476"}},{"country":"az","city":"Akulis","coordinates":{"lat":"38.953142","long":"45.981917"}},{"country":"az","city":"Akulisy","coordinates":{"lat":"38.930791","long":"45.989593"}},{"country":"az","city":"Akusapesta","coordinates":{"lat":"38.666667","long":"48.616667"}},{"country":"az","city":"Akxullu","coordinates":{"lat":"39.566946","long":"47.09306"}},{"country":"az","city":"Alabashly","coordinates":{"lat":"40.814444","long":"46.263611"}},{"country":"az","city":"Alabasli","coordinates":{"lat":"40.783333","long":"46.283333"}},{"country":"az","city":"Ala-Bekly","coordinates":{"lat":"39.779444","long":"47.880278"}},{"country":"az","city":"Alacardirli","coordinates":{"lat":"40.359183","long":"47.105067"}},{"country":"az","city":"Alachadyrly","coordinates":{"lat":"40.359183","long":"47.105067"}},{"country":"az","city":"Aladin","coordinates":{"lat":"39.15","long":"46.616667"}},{"country":"az","city":"Alagel'","coordinates":{"lat":"40.906389","long":"45.770278"}},{"country":"az","city":"Alagel-Myulkyulyu","coordinates":{"lat":"41.054868","long":"45.616464"}},{"country":"az","city":"Alagëzmazra","coordinates":{"lat":"39.308989","long":"45.460346"}},{"country":"az","city":"Alagi","coordinates":{"lat":"39.174326","long":"45.892098"}},{"country":"az","city":"Alagozmazra","coordinates":{"lat":"39.308989","long":"45.460346"}},{"country":"az","city":"Alahi","coordinates":{"lat":"39.174326","long":"45.892098"}},{"country":"az","city":"Alakchi","coordinates":{"lat":"39.898898","long":"46.404067"}},{"country":"az","city":"Alakci","coordinates":{"lat":"39.898898","long":"46.404067"}},{"country":"az","city":"Alakël","coordinates":{"lat":"40.906389","long":"45.770278"}},{"country":"az","city":"Alakël Kyrykly","coordinates":{"lat":"40.916667","long":"45.85"}},{"country":"az","city":"Alakhanchally","coordinates":{"lat":"40.383333","long":"46.116667"}},{"country":"az","city":"Alakhmadatli","coordinates":{"lat":"40.084831","long":"48.11137"}},{"country":"az","city":"Alakhyarly","coordinates":{"lat":"40.951634","long":"48.978054"}},{"country":"az","city":"Alakli","coordinates":{"lat":"39.505178","long":"45.012716"}},{"country":"az","city":"Alakol","coordinates":{"lat":"40.906389","long":"45.770278"}},{"country":"az","city":"Alakurshak","coordinates":{"lat":"39.249392","long":"46.728168"}},{"country":"az","city":"Alar","coordinates":{"lat":"38.7965","long":"48.234022"}},{"country":"az","city":"Alasa","coordinates":{"lat":"38.453227","long":"48.800403"}},{"country":"az","city":"Alasar","coordinates":{"lat":"39.029028","long":"48.50431"}},{"country":"az","city":"Alasgar","coordinates":{"lat":"41.573889","long":"46.778611"}},{"country":"az","city":"Â¿lÂ¿sgÂ¿rli","coordinates":{"lat":"39.595467","long":"47.208985"}},{"country":"az","city":"Alasgarli","coordinates":{"lat":"40.818333","long":"45.771111"}},{"country":"az","city":"Alasha","coordinates":{"lat":"38.453227","long":"48.800403"}},{"country":"az","city":"Alashakend","coordinates":{"lat":"38.453227","long":"48.800403"}},{"country":"az","city":"Alashar","coordinates":{"lat":"39.029028","long":"48.50431"}},{"country":"az","city":"Alat","coordinates":{"lat":"39.947734","long":"49.407846"}},{"country":"az","city":"Alatemur-Bala","coordinates":{"lat":"41.4","long":"46.833333"}},{"country":"az","city":"Alatemur-Beyuk","coordinates":{"lat":"41.411667","long":"46.816111"}},{"country":"az","city":"Alatli","coordinates":{"lat":"40.011535","long":"48.817335"}},{"country":"az","city":"Alatly","coordinates":{"lat":"40.524444","long":"47.008333"}},{"country":"az","city":"Alayer","coordinates":{"lat":"41.242778","long":"48.973889"}},{"country":"az","city":"Alazapin","coordinates":{"lat":"38.619747","long":"48.648534"}},{"country":"az","city":"Albalan","coordinates":{"lat":"39.126947","long":"48.402229"}},{"country":"az","city":"Alçabulaq","coordinates":{"lat":"38.951005","long":"48.294013"}},{"country":"az","city":"Alcali","coordinates":{"lat":"39.519167","long":"48.92"}},{"country":"az","city":"Alchaby","coordinates":{"lat":"40.185","long":"46.12"}},{"country":"az","city":"Alchaly","coordinates":{"lat":"40.185","long":"46.12"}},{"country":"az","city":"Alchaly","coordinates":{"lat":"39.519167","long":"48.92"}},{"country":"az","city":"Aleksandrovka","coordinates":{"lat":"39.94445","long":"48.713754"}},{"country":"az","city":"Aleksandrovka","coordinates":{"lat":"41.520153","long":"48.700645"}},{"country":"az","city":"Aleksandrovskoe","coordinates":{"lat":"39.94445","long":"48.713754"}},{"country":"az","city":"Alekseyevka","coordinates":{"lat":"41.066667","long":"45.516667"}},{"country":"az","city":"Alekseyevka","coordinates":{"lat":"41.374411","long":"48.576194"}},{"country":"az","city":"Alekseyevka","coordinates":{"lat":"41.49345","long":"48.667046"}},{"country":"az","city":"Alesker","coordinates":{"lat":"41.573889","long":"46.778611"}},{"country":"az","city":"Aleskerli","coordinates":{"lat":"39.595467","long":"47.208985"}},{"country":"az","city":"Aleskerly","coordinates":{"lat":"39.595467","long":"47.208985"}},{"country":"az","city":"Alexeevka Selo","coordinates":{"lat":"41.066667","long":"45.516667"}},{"country":"az","city":"Aliabad","coordinates":{"lat":"39.85","long":"47.483333"}},{"country":"az","city":"Aliabad","coordinates":{"lat":"39.475275","long":"48.581153"}},{"country":"az","city":"Aliabad","coordinates":{"lat":"39.216667","long":"48.416667"}},{"country":"az","city":"Aliabad","coordinates":{"lat":"38.678333","long":"48.557222"}},{"country":"az","city":"Aliabad","coordinates":{"lat":"39.226481","long":"45.401871"}},{"country":"az","city":"Aliabad","coordinates":{"lat":"39.865007","long":"48.46563"}},{"country":"az","city":"Aliabad","coordinates":{"lat":"38.973333","long":"48.283333"}},{"country":"az","city":"Aliabad","coordinates":{"lat":"41.48224","long":"46.635276"}},{"country":"az","city":"Aliagali","coordinates":{"lat":"40.038147","long":"46.776732"}},{"country":"az","city":"Aliahaly","coordinates":{"lat":"40.038147","long":"46.776732"}},{"country":"az","city":"Aliakhkulular","coordinates":{"lat":"39.748053","long":"46.631468"}},{"country":"az","city":"Aliat","coordinates":{"lat":"39.947734","long":"49.407846"}},{"country":"az","city":"Aliaty","coordinates":{"lat":"39.947734","long":"49.407846"}},{"country":"az","city":"Ali-Bairamli","coordinates":{"lat":"39.937877","long":"48.928554"}},{"country":"az","city":"Ali Bairamly","coordinates":{"lat":"39.937877","long":"48.928554"}},{"country":"az","city":"Alibayli","coordinates":{"lat":"40.091832","long":"47.156738"}},{"country":"az","city":"Alibayli","coordinates":{"lat":"41.381377","long":"46.826242"}},{"country":"az","city":"Alibayli","coordinates":{"lat":"40.930562","long":"45.496287"}},{"country":"az","city":"Alibayli","coordinates":{"lat":"39.163298","long":"46.741407"}},{"country":"az","city":"Alibayli","coordinates":{"lat":"40.198611","long":"47.682222"}},{"country":"az","city":"Alibayqislaq","coordinates":{"lat":"41.413896","long":"48.539543"}},{"country":"az","city":"Ali-Bayramli","coordinates":{"lat":"39.937877","long":"48.928554"}},{"country":"az","city":"Ali Bayramli","coordinates":{"lat":"39.985794","long":"45.944413"}},{"country":"az","city":"Ali Bayramli","coordinates":{"lat":"41.326944","long":"46.868056"}},{"country":"az","city":"Ali Bayramli","coordinates":{"lat":"41.23","long":"45.168056"}},{"country":"az","city":"Ali Bayramli","coordinates":{"lat":"40.74352","long":"46.471111"}},{"country":"az","city":"Ali Bayramli","coordinates":{"lat":"41.523056","long":"46.531944"}},{"country":"az","city":"Ali-Bayramly","coordinates":{"lat":"39.937877","long":"48.928554"}},{"country":"az","city":"Ali-Bayramly","coordinates":{"lat":"39.985794","long":"45.944413"}},{"country":"az","city":"Ali-Bayramly","coordinates":{"lat":"41.23","long":"45.168056"}},{"country":"az","city":"Äli Bayramly","coordinates":{"lat":"41.23","long":"45.168056"}},{"country":"az","city":"Ali-Bayramly","coordinates":{"lat":"40.74352","long":"46.471111"}},{"country":"az","city":"Ali-Bayramly","coordinates":{"lat":"40.59115","long":"46.369167"}},{"country":"az","city":"Ali-Bayramly","coordinates":{"lat":"41.523056","long":"46.531944"}},{"country":"az","city":"Alibeili","coordinates":{"lat":"40.091832","long":"47.156738"}},{"country":"az","city":"Alibekkyshlakh","coordinates":{"lat":"41.413896","long":"48.539543"}},{"country":"az","city":"Alibeykyshlak","coordinates":{"lat":"41.413896","long":"48.539543"}},{"country":"az","city":"Alibeyli","coordinates":{"lat":"41.381377","long":"46.826242"}},{"country":"az","city":"Alibeyli","coordinates":{"lat":"40.930562","long":"45.496287"}},{"country":"az","city":"Alibeyli","coordinates":{"lat":"40.198611","long":"47.682222"}},{"country":"az","city":"Alibeyli Pervyye","coordinates":{"lat":"39.163298","long":"46.741407"}},{"country":"az","city":"Alic","coordinates":{"lat":"41.252222","long":"48.470833"}},{"country":"az","city":"Alican","coordinates":{"lat":"39.61084","long":"46.786733"}},{"country":"az","city":"Alicanli","coordinates":{"lat":"40.035179","long":"48.437881"}},{"country":"az","city":"Alich","coordinates":{"lat":"41.252222","long":"48.470833"}},{"country":"az","city":"Alicqislaq","coordinates":{"lat":"41.382076","long":"48.730065"}},{"country":"az","city":"Alidzhamli","coordinates":{"lat":"40.035179","long":"48.437881"}},{"country":"az","city":"Alidzhanli","coordinates":{"lat":"40.035179","long":"48.437881"}},{"country":"az","city":"Alidzhanly","coordinates":{"lat":"40.035179","long":"48.437881"}},{"country":"az","city":"Alidzhanly Pervyye","coordinates":{"lat":"40.333667","long":"47.591289"}},{"country":"az","city":"Alidzhanly Vtoryye","coordinates":{"lat":"40.329731","long":"47.629347"}},{"country":"az","city":"Aliismailly","coordinates":{"lat":"40.554167","long":"45.666667"}},{"country":"az","city":"Aliismayilli","coordinates":{"lat":"40.554167","long":"45.666667"}},{"country":"az","city":"Alik","coordinates":{"lat":"41.172659","long":"48.235033"}},{"country":"az","city":"Alikand","coordinates":{"lat":"40.495833","long":"47.508889"}},{"country":"az","city":"Alikasumly","coordinates":{"lat":"39.285833","long":"48.455556"}},{"country":"az","city":"Alikasymly","coordinates":{"lat":"39.285833","long":"48.455556"}},{"country":"az","city":"Alikend","coordinates":{"lat":"40.550442","long":"47.874537"}},{"country":"az","city":"Alikend","coordinates":{"lat":"40.495833","long":"47.508889"}},{"country":"az","city":"Alikeykhaly","coordinates":{"lat":"39.236171","long":"47.038877"}},{"country":"az","city":"Alikeyxali","coordinates":{"lat":"39.236171","long":"47.038877"}},{"country":"az","city":"Alikhanly","coordinates":{"lat":"39.60204","long":"47.384625"}},{"country":"az","city":"Alikhanly","coordinates":{"lat":"40.985556","long":"47.230556"}},{"country":"az","city":"Alikhanly","coordinates":{"lat":"41.142222","long":"49.043631"}},{"country":"az","city":"Alikhanly-Shirin-Bulag","coordinates":{"lat":"40.965833","long":"47.231277"}},{"country":"az","city":"Alikular","coordinates":{"lat":"39.906302","long":"47.929143"}},{"country":"az","city":"Alikulihushaghy","coordinates":{"lat":"39.452106","long":"46.47498"}},{"country":"az","city":"Alikulikend","coordinates":{"lat":"39.748584","long":"46.409979"}},{"country":"az","city":"Alikulikyand","coordinates":{"lat":"39.452106","long":"46.47498"}},{"country":"az","city":"Alikuliushagy","coordinates":{"lat":"39.452106","long":"46.47498"}},{"country":"az","city":"Alik'ulu","coordinates":{"lat":"39.748584","long":"46.409979"}},{"country":"az","city":"Alikulu","coordinates":{"lat":"39.748584","long":"46.409979"}},{"country":"az","city":"Alikulular","coordinates":{"lat":"40.207222","long":"47.4925"}},{"country":"az","city":"Alikulular","coordinates":{"lat":"39.906302","long":"47.929143"}},{"country":"az","city":"Alikuluushagly","coordinates":{"lat":"39.452106","long":"46.47498"}},{"country":"az","city":"Alilambayli","coordinates":{"lat":"39.829859","long":"48.827077"}},{"country":"az","city":"Alilambeyli","coordinates":{"lat":"39.829859","long":"48.827077"}},{"country":"az","city":"Alimadadli","coordinates":{"lat":"40.057081","long":"46.817036"}},{"country":"az","city":"Alimadadli","coordinates":{"lat":"40.762778","long":"46.308333"}},{"country":"az","city":"Alimadat'li","coordinates":{"lat":"40.057081","long":"46.817036"}},{"country":"az","city":"Alimadatly","coordinates":{"lat":"40.057081","long":"46.817036"}},{"country":"az","city":"Ali-Madatly","coordinates":{"lat":"40.762778","long":"46.308333"}},{"country":"az","city":"Alimadtli","coordinates":{"lat":"40.762778","long":"46.308333"}},{"country":"az","city":"Alimamed-Kishlagi","coordinates":{"lat":"39.468203","long":"45.700206"}},{"country":"az","city":"Ali-Mammet-Arab","coordinates":{"lat":"41.073056","long":"49.148889"}},{"country":"az","city":"Alimardanli","coordinates":{"lat":"41.039609","long":"45.673498"}},{"country":"az","city":"Alimardanly","coordinates":{"lat":"41.039609","long":"45.673498"}},{"country":"az","city":"Ali-Muratly","coordinates":{"lat":"39.693611","long":"48.825833"}},{"country":"az","city":"Alinagilar","coordinates":{"lat":"40.483333","long":"45.75"}},{"country":"az","city":"Alinagylar","coordinates":{"lat":"40.483333","long":"45.75"}},{"country":"az","city":"Alinazarli","coordinates":{"lat":"39.787261","long":"47.697074"}},{"country":"az","city":"Alincali","coordinates":{"lat":"40.766667","long":"46.4"}},{"country":"az","city":"Aliqasimli","coordinates":{"lat":"39.285833","long":"48.455556"}},{"country":"az","city":"Aliqulu","coordinates":{"lat":"39.748584","long":"46.409979"}},{"country":"az","city":"Aliqulular","coordinates":{"lat":"39.906302","long":"47.929143"}},{"country":"az","city":"Aliquluusagi","coordinates":{"lat":"39.452106","long":"46.47498"}},{"country":"az","city":"Alirvalar","coordinates":{"lat":"39.978766","long":"46.203123"}},{"country":"az","city":"Alirzalar","coordinates":{"lat":"39.978766","long":"46.203123"}},{"country":"az","city":"Alishanly","coordinates":{"lat":"39.066667","long":"48.733333"}},{"country":"az","city":"Alishar","coordinates":{"lat":"39.536491","long":"44.926142"}},{"country":"az","city":"Alisher","coordinates":{"lat":"39.536491","long":"44.926142"}},{"country":"az","city":"Alisoltanli","coordinates":{"lat":"39.900554","long":"48.32306"}},{"country":"az","city":"Alisoltanly","coordinates":{"lat":"39.900554","long":"48.32306"}},{"country":"az","city":"Aliusagi","coordinates":{"lat":"40.694504","long":"46.47585"}},{"country":"az","city":"Aliushagy","coordinates":{"lat":"40.694504","long":"46.47585"}},{"country":"az","city":"Aliyanli","coordinates":{"lat":"40.341241","long":"47.131678"}},{"country":"az","city":"Aliyanly","coordinates":{"lat":"40.341241","long":"47.131678"}},{"country":"az","city":"Aliyar","coordinates":{"lat":"41.004733","long":"47.253144"}},{"country":"az","city":"Aliyetmazli","coordinates":{"lat":"40.126909","long":"48.032178"}},{"country":"az","city":"Alkhanly","coordinates":{"lat":"39.60204","long":"47.384625"}},{"country":"az","city":"Alkhasava Pervoye","coordinates":{"lat":"40.577914","long":"47.949113"}},{"country":"az","city":"Alkhasava Vtoroye","coordinates":{"lat":"40.563476","long":"47.975773"}},{"country":"az","city":"Alkhasly","coordinates":{"lat":"39.741785","long":"46.348203"}},{"country":"az","city":"Allahk'uchular","coordinates":{"lat":"39.748053","long":"46.631468"}},{"country":"az","city":"Allahmadadli","coordinates":{"lat":"40.084831","long":"48.11137"}},{"country":"az","city":"Allahqulular","coordinates":{"lat":"39.748053","long":"46.631468"}},{"country":"az","city":"Allahyarli","coordinates":{"lat":"41.242778","long":"48.973889"}},{"country":"az","city":"Allahyarli","coordinates":{"lat":"40.951634","long":"48.978054"}},{"country":"az","city":"Allakhyarly","coordinates":{"lat":"40.951634","long":"48.978054"}},{"country":"az","city":"Allar","coordinates":{"lat":"39.316022","long":"48.537374"}},{"country":"az","city":"Allar","coordinates":{"lat":"38.7965","long":"48.234022"}},{"country":"az","city":"Allary","coordinates":{"lat":"39.316022","long":"48.537374"}},{"country":"az","city":"Alli-Mammed-'Arab'","coordinates":{"lat":"41.073056","long":"49.148889"}},{"country":"az","city":"Allyagi","coordinates":{"lat":"39.174326","long":"45.892098"}},{"country":"az","city":"Allykend","coordinates":{"lat":"40.130447","long":"46.039291"}},{"country":"az","city":"Almagovlu","coordinates":{"lat":"40.980568","long":"48.945601"}},{"country":"az","city":"Almakolu","coordinates":{"lat":"40.980568","long":"48.945601"}},{"country":"az","city":"Almakuyuly","coordinates":{"lat":"40.980568","long":"48.945601"}},{"country":"az","city":"Almali","coordinates":{"lat":"40.416008","long":"46.188889"}},{"country":"az","city":"Almali","coordinates":{"lat":"41.341389","long":"46.759167"}},{"country":"az","city":"Almali","coordinates":{"lat":"39.970489","long":"46.686905"}},{"country":"az","city":"Almaliq","coordinates":{"lat":"40.093889","long":"46.242222"}},{"country":"az","city":"Almalitala","coordinates":{"lat":"40.659985","long":"45.684936"}},{"country":"az","city":"Almalo","coordinates":{"lat":"41.341389","long":"46.759167"}},{"country":"az","city":"Almaly","coordinates":{"lat":"40.416008","long":"46.188889"}},{"country":"az","city":"Almaly","coordinates":{"lat":"41.341389","long":"46.759167"}},{"country":"az","city":"Almalytala","coordinates":{"lat":"40.659985","long":"45.684936"}},{"country":"az","city":"Almu","coordinates":{"lat":"38.756849","long":"48.540075"}},{"country":"az","city":"Alolar","coordinates":{"lat":"40.095","long":"46.00956"}},{"country":"az","city":"Alpan","coordinates":{"lat":"41.386623","long":"48.430099"}},{"country":"az","city":"Alpaut","coordinates":{"lat":"40.556704","long":"48.558677"}},{"country":"az","city":"Alpaut","coordinates":{"lat":"40.326389","long":"47.205"}},{"country":"az","city":"Alpaut","coordinates":{"lat":"40.474927","long":"47.932692"}},{"country":"az","city":"Alpaut","coordinates":{"lat":"39.756333","long":"46.369716"}},{"country":"az","city":"Alpaut","coordinates":{"lat":"40.446508","long":"47.607676"}},{"country":"az","city":"Alpi","coordinates":{"lat":"40.486361","long":"47.739676"}},{"country":"az","city":"Alpout","coordinates":{"lat":"40.326389","long":"47.205"}},{"country":"az","city":"Alpout","coordinates":{"lat":"39.560129","long":"48.188815"}},{"country":"az","city":"Alpout","coordinates":{"lat":"40.74699","long":"46.537709"}},{"country":"az","city":"Alpout","coordinates":{"lat":"40.474927","long":"47.932692"}},{"country":"az","city":"Alpout","coordinates":{"lat":"39.756333","long":"46.369716"}},{"country":"az","city":"Alpout","coordinates":{"lat":"41.0889","long":"45.210179"}},{"country":"az","city":"Alpout","coordinates":{"lat":"40.446508","long":"47.607676"}},{"country":"az","city":"Alpout Pervyy","coordinates":{"lat":"40.556704","long":"48.558677"}},{"country":"az","city":"Alpout-Udzhar","coordinates":{"lat":"40.506793","long":"47.637531"}},{"country":"az","city":"Alpy","coordinates":{"lat":"40.486361","long":"47.739676"}},{"country":"az","city":"Altanskiy","coordinates":{"lat":"39.65","long":"47.783333"}},{"country":"az","city":"Altiagac","coordinates":{"lat":"40.859266","long":"48.934766"}},{"country":"az","city":"Altiagach","coordinates":{"lat":"40.859266","long":"48.934766"}},{"country":"az","city":"Altyagach","coordinates":{"lat":"40.859266","long":"48.934766"}},{"country":"az","city":"Alty-Agatsch","coordinates":{"lat":"40.859266","long":"48.934766"}},{"country":"az","city":"Altynchy","coordinates":{"lat":"39.216667","long":"46.666667"}},{"country":"az","city":"Alukend","coordinates":{"lat":"40.115278","long":"46.051944"}},{"country":"az","city":"Alunitdag","coordinates":{"lat":"40.521667","long":"46.080556"}},{"country":"az","city":"Alvand","coordinates":{"lat":"40.10468","long":"47.875611"}},{"country":"az","city":"Al'vend","coordinates":{"lat":"40.10468","long":"47.875611"}},{"country":"az","city":"Alxanli","coordinates":{"lat":"39.60204","long":"47.384625"}},{"country":"az","city":"Alxasli","coordinates":{"lat":"39.741785","long":"46.348203"}},{"country":"az","city":"Alxasoba","coordinates":{"lat":"40.577914","long":"47.949113"}},{"country":"az","city":"Alyagach","coordinates":{"lat":"40.859266","long":"48.934766"}},{"country":"az","city":"Alyagi","coordinates":{"lat":"39.174326","long":"45.892098"}},{"country":"az","city":"Alyak'chi","coordinates":{"lat":"39.898898","long":"46.404067"}},{"country":"az","city":"Alyakchi","coordinates":{"lat":"39.898898","long":"46.404067"}},{"country":"az","city":"Alyaklu","coordinates":{"lat":"39.505178","long":"45.012716"}},{"country":"az","city":"Alyam-Beyly","coordinates":{"lat":"39.829859","long":"48.827077"}},{"country":"az","city":"Alyar","coordinates":{"lat":"41.004733","long":"47.253144"}},{"country":"az","city":"Alyat","coordinates":{"lat":"39.947734","long":"49.407846"}},{"country":"az","city":"Alyat-Pristan'","coordinates":{"lat":"39.947734","long":"49.407846"}},{"country":"az","city":"Alyaty","coordinates":{"lat":"39.947734","long":"49.407846"}},{"country":"az","city":"Alyaty-Pristan'","coordinates":{"lat":"39.947734","long":"49.407846"}},{"country":"az","city":"Aly-Bayramly","coordinates":{"lat":"39.937877","long":"48.928554"}},{"country":"az","city":"Aly-Bayramly","coordinates":{"lat":"41.326944","long":"46.868056"}},{"country":"az","city":"Alybeyli","coordinates":{"lat":"40.091832","long":"47.156738"}},{"country":"az","city":"Alybeyli","coordinates":{"lat":"39.163298","long":"46.741407"}},{"country":"az","city":"Alybeyli Pervyye","coordinates":{"lat":"39.163298","long":"46.741407"}},{"country":"az","city":"Alybeyli Vtoryye","coordinates":{"lat":"39.155437","long":"46.749444"}},{"country":"az","city":"Alych","coordinates":{"lat":"41.252222","long":"48.470833"}},{"country":"az","city":"Alychkyshlak","coordinates":{"lat":"41.382076","long":"48.730065"}},{"country":"az","city":"Alydzhan","coordinates":{"lat":"39.61084","long":"46.786733"}},{"country":"az","city":"Alydzhanly","coordinates":{"lat":"40.329731","long":"47.629347"}},{"country":"az","city":"Alydzhanly Pervoye","coordinates":{"lat":"40.333667","long":"47.591289"}},{"country":"az","city":"Alydzhanly Pervyy","coordinates":{"lat":"40.333667","long":"47.591289"}},{"country":"az","city":"Alydzhanly Vtoroy","coordinates":{"lat":"40.329731","long":"47.629347"}},{"country":"az","city":"Alydzhanly Vtoroye","coordinates":{"lat":"40.329731","long":"47.629347"}},{"country":"az","city":"Alydzhkyshlakh","coordinates":{"lat":"41.382076","long":"48.730065"}},{"country":"az","city":"Alyjan","coordinates":{"lat":"39.61084","long":"46.786733"}},{"country":"az","city":"Alykend","coordinates":{"lat":"40.550442","long":"47.874537"}},{"country":"az","city":"Alykend","coordinates":{"lat":"40.495833","long":"47.508889"}},{"country":"az","city":"Alykeykhaly","coordinates":{"lat":"39.236171","long":"47.038877"}},{"country":"az","city":"Alykhanly","coordinates":{"lat":"41.142222","long":"49.043631"}},{"country":"az","city":"Alyndzhaly","coordinates":{"lat":"40.766667","long":"46.4"}},{"country":"az","city":"Alyshanly","coordinates":{"lat":"39.066667","long":"48.733333"}},{"country":"az","city":"Alyshar","coordinates":{"lat":"39.536491","long":"44.926142"}},{"country":"az","city":"Alyushagy","coordinates":{"lat":"40.694504","long":"46.47585"}},{"country":"az","city":"Amankand","coordinates":{"lat":"39.391069","long":"48.579802"}},{"country":"az","city":"Amankend","coordinates":{"lat":"39.391069","long":"48.579802"}},{"country":"az","city":"Amanli","coordinates":{"lat":"41.287904","long":"46.847171"}},{"country":"az","city":"Amanly","coordinates":{"lat":"41.287904","long":"46.847171"}},{"country":"az","city":"Amaras","coordinates":{"lat":"39.686111","long":"47.075"}},{"country":"az","city":"Amarkend","coordinates":{"lat":"38.860845","long":"48.262321"}},{"country":"az","city":"Ambabu","coordinates":{"lat":"38.60353","long":"48.668008"}},{"country":"az","city":"Ambarcay","coordinates":{"lat":"41.379384","long":"46.938064"}},{"country":"az","city":"Ambizlyar","coordinates":{"lat":"40.790543","long":"49.055494"}},{"country":"az","city":"Ambu","coordinates":{"lat":"38.747921","long":"48.450275"}},{"country":"az","city":"Amburdara","coordinates":{"lat":"38.660474","long":"48.330067"}},{"country":"az","city":"Ameni-Kend","coordinates":{"lat":"39.391069","long":"48.579802"}},{"country":"az","city":"Aminli","coordinates":{"lat":"39.102577","long":"48.765774"}},{"country":"az","city":"Amirabdzhan","coordinates":{"lat":"40.426389","long":"49.983611"}},{"country":"az","city":"Amiradzhan","coordinates":{"lat":"40.426389","long":"49.983611"}},{"country":"az","city":"Amiradzhany","coordinates":{"lat":"40.426389","long":"49.983611"}},{"country":"az","city":"Amiralar","coordinates":{"lat":"39.800001","long":"47.13408"}},{"country":"az","city":"Amirallar","coordinates":{"lat":"40.066667","long":"45.983333"}},{"country":"az","city":"Amir","coordinates":{"lat":"40.584775","long":"45.674519"}},{"country":"az","city":"Amiranlar","coordinates":{"lat":"39.800001","long":"47.13408"}},{"country":"az","city":"Amirarkh","coordinates":{"lat":"40.552244","long":"47.375272"}},{"country":"az","city":"Amirarx","coordinates":{"lat":"40.552244","long":"47.375272"}},{"country":"az","city":"Amircan","coordinates":{"lat":"40.426389","long":"49.983611"}},{"country":"az","city":"Amircan","coordinates":{"lat":"41.428611","long":"46.859444"}},{"country":"az","city":"Amirdzhan","coordinates":{"lat":"40.426389","long":"49.983611"}},{"country":"az","city":"Amirdzhan","coordinates":{"lat":"41.428611","long":"46.859444"}},{"country":"az","city":"Amirkhanly","coordinates":{"lat":"38.9375","long":"46.591667"}},{"country":"az","city":"Amirli","coordinates":{"lat":"40.219895","long":"47.146842"}},{"country":"az","city":"Amirmahmud","coordinates":{"lat":"40.603784","long":"47.554846"}},{"country":"az","city":"Amirturba","coordinates":{"lat":"39.05","long":"48.566667"}},{"country":"az","city":"Amirvan","coordinates":{"lat":"40.828902","long":"47.896085"}},{"country":"az","city":"Amirvar","coordinates":{"lat":"40.518248","long":"45.9303"}},{"country":"az","city":"Amirvarli","coordinates":{"lat":"39.281325","long":"47.081066"}},{"country":"az","city":"Amirvarly","coordinates":{"lat":"39.281325","long":"47.081066"}},{"country":"az","city":"Amirxanli","coordinates":{"lat":"38.9375","long":"46.591667"}},{"country":"az","city":"Amirzeitli","coordinates":{"lat":"39.585927","long":"47.657557"}},{"country":"az","city":"Amirzeydli","coordinates":{"lat":"39.585927","long":"47.657557"}},{"country":"az","city":"Amonly","coordinates":{"lat":"41.287904","long":"46.847171"}},{"country":"az","city":"Amsar","coordinates":{"lat":"41.328995","long":"48.539216"}},{"country":"az","city":"Anbabo","coordinates":{"lat":"38.60353","long":"48.668008"}},{"country":"az","city":"Anbabu","coordinates":{"lat":"38.60353","long":"48.668008"}},{"country":"az","city":"Ancaqov","coordinates":{"lat":"38.672778","long":"48.675472"}},{"country":"az","city":"Andreyevka","coordinates":{"lat":"39.260556","long":"48.523333"}},{"country":"az","city":"Andurma","coordinates":{"lat":"38.71215","long":"48.47029"}},{"country":"az","city":"Angalan","coordinates":{"lat":"40.826954","long":"49.027602"}},{"country":"az","city":"Angaxaran","coordinates":{"lat":"40.671953","long":"48.652561"}},{"country":"az","city":"Angekharan","coordinates":{"lat":"40.671953","long":"48.652561"}},{"country":"az","city":"Angelan","coordinates":{"lat":"40.826954","long":"49.027602"}},{"country":"az","city":"Angevul","coordinates":{"lat":"38.89018","long":"48.34253"}},{"country":"az","city":"Angyavul'","coordinates":{"lat":"38.89018","long":"48.34253"}},{"country":"az","city":"Anino","coordinates":{"lat":"40.829722","long":"46.018889"}},{"country":"az","city":"Aniq","coordinates":{"lat":"41.334434","long":"48.224678"}},{"country":"az","city":"Aniqoba","coordinates":{"lat":"41.64551","long":"48.499105"}},{"country":"az","city":"Aniqqislaq","coordinates":{"lat":"41.658703","long":"48.579156"}},{"country":"az","city":"Annenfel'd","coordinates":{"lat":"40.829722","long":"46.018889"}},{"country":"az","city":"Annino","coordinates":{"lat":"40.829722","long":"46.018889"}},{"country":"az","city":"Anygyran","coordinates":{"lat":"40.555","long":"45.6175"}},{"country":"az","city":"Anykh","coordinates":{"lat":"41.334434","long":"48.224678"}},{"country":"az","city":"Anykh-Kishlag","coordinates":{"lat":"41.658703","long":"48.579156"}},{"country":"az","city":"Anykhoba","coordinates":{"lat":"41.64551","long":"48.499105"}},{"country":"az","city":"Anykhoba Pervaya","coordinates":{"lat":"41.64551","long":"48.499105"}},{"country":"az","city":"Anzo","coordinates":{"lat":"38.868444","long":"48.267577"}},{"country":"az","city":"Anzoli","coordinates":{"lat":"38.693489","long":"48.483333"}},{"country":"az","city":"Anzolu","coordinates":{"lat":"38.693489","long":"48.483333"}},{"country":"az","city":"Anzov","coordinates":{"lat":"38.868444","long":"48.267577"}},{"country":"az","city":"Aprelya","coordinates":{"lat":"40.624613","long":"46.977597"}},{"country":"az","city":"Apsheronskiy Port","coordinates":{"lat":"40.443611","long":"50.277778"}},{"country":"az","city":"Aqbis","coordinates":{"lat":"39.20982","long":"46.628026"}},{"country":"az","city":"Araabazary","coordinates":{"lat":"39.984023","long":"47.142302"}},{"country":"az","city":"Arabachy","coordinates":{"lat":"40.546154","long":"45.569552"}},{"country":"az","city":"Arabachylar","coordinates":{"lat":"40.316667","long":"47.266667"}},{"country":"az","city":"Arabaci","coordinates":{"lat":"40.546154","long":"45.569552"}},{"country":"az","city":"Arabacilar","coordinates":{"lat":"40.316667","long":"47.266667"}},{"country":"az","city":"Arab'-Alli-Mamed'","coordinates":{"lat":"41.073056","long":"49.148889"}},{"country":"az","city":"Arab","coordinates":{"lat":"40.67014","long":"47.588857"}},{"country":"az","city":"Arab","coordinates":{"lat":"39.142276","long":"48.733951"}},{"country":"az","city":"Arab","coordinates":{"lat":"41.41955","long":"48.950777"}},{"country":"az","city":"Arab-Babaly","coordinates":{"lat":"41.41955","long":"48.950777"}},{"country":"az","city":"Arabbabirkhanly","coordinates":{"lat":"39.5","long":"49"}},{"country":"az","city":"Arabbasra","coordinates":{"lat":"40.778467","long":"47.209934"}},{"country":"az","city":"Arabbazarly","coordinates":{"lat":"40.1","long":"48.383333"}},{"country":"az","city":"Arabdzhabirli Pervoye","coordinates":{"lat":"40.652423","long":"47.728437"}},{"country":"az","city":"Arabdzhabirli Vtoroye","coordinates":{"lat":"40.648617","long":"47.697016"}},{"country":"az","city":"Arab-Dzhabirly Pervoye","coordinates":{"lat":"40.652423","long":"47.728437"}},{"country":"az","city":"Arab Gam'ya","coordinates":{"lat":"41.107758","long":"49.145833"}},{"country":"az","city":"Arabkadim","coordinates":{"lat":"40.426236","long":"48.966287"}},{"country":"az","city":"Arabkadym","coordinates":{"lat":"40.426236","long":"48.966287"}},{"country":"az","city":"Arabkaradagly","coordinates":{"lat":"40.4014","long":"48.39907"}},{"country":"az","city":"Arab-Kardashbeyli","coordinates":{"lat":"39.520841","long":"49.003339"}},{"country":"az","city":"Arabkardashbeyli","coordinates":{"lat":"39.531112","long":"49.015547"}},{"country":"az","city":"Arabkhana","coordinates":{"lat":"40.159107","long":"48.060401"}},{"country":"az","city":"Arab-Kubali","coordinates":{"lat":"40.161014","long":"48.423333"}},{"country":"az","city":"Arabkubaly","coordinates":{"lat":"40.161014","long":"48.423333"}},{"country":"az","city":"Arab-Kyukel'","coordinates":{"lat":"40.67014","long":"47.588857"}},{"country":"az","city":"Arabkyyasly","coordinates":{"lat":"40.492373","long":"48.444317"}},{"country":"az","city":"Arablar","coordinates":{"lat":"40.43373","long":"47.170999"}},{"country":"az","city":"Arablar","coordinates":{"lat":"41.274437","long":"48.851971"}},{"country":"az","city":"Arablyar","coordinates":{"lat":"40.43373","long":"47.170999"}},{"country":"az","city":"Arablyar","coordinates":{"lat":"41.274437","long":"48.851971"}},{"country":"az","city":"Arabmehdibay","coordinates":{"lat":"40.542887","long":"48.185301"}},{"country":"az","city":"Arabmekhdibey","coordinates":{"lat":"40.542887","long":"48.185301"}},{"country":"az","city":"Arabmekhdybey","coordinates":{"lat":"40.542887","long":"48.185301"}},{"country":"az","city":"Arabmekhtibek","coordinates":{"lat":"40.542887","long":"48.185301"}},{"country":"az","city":"Arabmekhtibeyli","coordinates":{"lat":"40.542887","long":"48.185301"}},{"country":"az","city":"Arabocagi","coordinates":{"lat":"40.735833","long":"47.398611"}},{"country":"az","city":"Arabodzhagy","coordinates":{"lat":"40.735833","long":"47.398611"}},{"country":"az","city":"Arabqadim","coordinates":{"lat":"40.426236","long":"48.966287"}},{"country":"az","city":"Arab Qubali","coordinates":{"lat":"40.161014","long":"48.423333"}},{"country":"az","city":"Arabsahverdi","coordinates":{"lat":"40.604444","long":"47.648509"}},{"country":"az","city":"Arabsahverdi","coordinates":{"lat":"40.559424","long":"48.974053"}},{"country":"az","city":"Arabsaki","coordinates":{"lat":"40.566383","long":"47.239614"}},{"country":"az","city":"Arabsalbas","coordinates":{"lat":"40.618252","long":"48.761316"}},{"country":"az","city":"Arabsarvan","coordinates":{"lat":"40.537488","long":"48.221295"}},{"country":"az","city":"Arab-Shakhberdy","coordinates":{"lat":"39.937877","long":"48.928554"}},{"country":"az","city":"Arab Shakhverdi","coordinates":{"lat":"39.937877","long":"48.928554"}},{"country":"az","city":"Arabshakhverdi","coordinates":{"lat":"40.604444","long":"47.648509"}},{"country":"az","city":"Arabshakhverdi","coordinates":{"lat":"40.559424","long":"48.974053"}},{"country":"az","city":"Arab-Shakhverdy","coordinates":{"lat":"39.937877","long":"48.928554"}},{"country":"az","city":"Arabshalbash","coordinates":{"lat":"40.618252","long":"48.761316"}},{"country":"az","city":"Arabsheki","coordinates":{"lat":"40.566383","long":"47.239614"}},{"country":"az","city":"Arabusagi","coordinates":{"lat":"40.528066","long":"48.416885"}},{"country":"az","city":"Arabushagy","coordinates":{"lat":"40.528066","long":"48.416885"}},{"country":"az","city":"Arabxana","coordinates":{"lat":"40.159107","long":"48.060401"}},{"country":"az","city":"Arab Yengica","coordinates":{"lat":"39.474019","long":"44.965634"}},{"country":"az","city":"Arab Yengidzha","coordinates":{"lat":"39.474019","long":"44.965634"}},{"country":"az","city":"Araçadzor","coordinates":{"lat":"40.055148","long":"46.609539"}},{"country":"az","city":"Arachadzor","coordinates":{"lat":"40.055148","long":"46.609539"}},{"country":"az","city":"Arafsa","coordinates":{"lat":"39.293829","long":"45.788108"}},{"country":"az","city":"Arakit","coordinates":{"lat":"40.851011","long":"48.389459"}},{"country":"az","city":"Arakül","coordinates":{"lat":"39.43953","long":"46.995976"}},{"country":"az","city":"Arakyul'","coordinates":{"lat":"39.43953","long":"46.995976"}},{"country":"az","city":"Aral Pervoye","coordinates":{"lat":"40.604296","long":"47.587511"}},{"country":"az","city":"Aral Pervyy","coordinates":{"lat":"40.604296","long":"47.587511"}},{"country":"az","city":"Aral Vtoroye","coordinates":{"lat":"40.6","long":"47.583333"}},{"country":"az","city":"Aran","coordinates":{"lat":"38.886667","long":"48.423056"}},{"country":"az","city":"Aran","coordinates":{"lat":"40.625278","long":"46.975556"}},{"country":"az","city":"Aranli","coordinates":{"lat":"39.511389","long":"48.565"}},{"country":"az","city":"Aranzami","coordinates":{"lat":"39.894444","long":"46.892222"}},{"country":"az","city":"Aranzamin","coordinates":{"lat":"39.894444","long":"46.892222"}},{"country":"az","city":"Arap","coordinates":{"lat":"39.142276","long":"48.733951"}},{"country":"az","city":"ArÂ¿s","coordinates":{"lat":"39.532586","long":"47.102896"}},{"country":"az","city":"Aras","coordinates":{"lat":"40.738056","long":"47.228333"}},{"country":"az","city":"Araspar","coordinates":{"lat":"39.984023","long":"47.142302"}},{"country":"az","city":"Arasparlu","coordinates":{"lat":"39.984023","long":"47.142302"}},{"country":"az","city":"Aratchadzor","coordinates":{"lat":"40.055148","long":"46.609539"}},{"country":"az","city":"Aratkend","coordinates":{"lat":"40.497718","long":"48.408367"}},{"country":"az","city":"Aratkend Pervyy","coordinates":{"lat":"40.518714","long":"48.381452"}},{"country":"az","city":"Aratkend Vtoroy","coordinates":{"lat":"40.497718","long":"48.408367"}},{"country":"az","city":"Aravsa","coordinates":{"lat":"39.293829","long":"45.788108"}},{"country":"az","city":"Arayatli","coordinates":{"lat":"39.481428","long":"47.376715"}},{"country":"az","city":"Arayatly","coordinates":{"lat":"39.481428","long":"47.376715"}},{"country":"az","city":"Arazbari","coordinates":{"lat":"39.984023","long":"47.142302"}},{"country":"az","city":"Arazbary","coordinates":{"lat":"39.984023","long":"47.142302"}},{"country":"az","city":"Araz Dilagarda","coordinates":{"lat":"39.559104","long":"47.603502"}},{"country":"az","city":"Arazin","coordinates":{"lat":"39.111446","long":"45.580912"}},{"country":"az","city":"Araz Zargyar","coordinates":{"lat":"39.568611","long":"47.621667"}},{"country":"az","city":"Arbatan","coordinates":{"lat":"39.523047","long":"44.970641"}},{"country":"az","city":"Arbatan","coordinates":{"lat":"39.57819","long":"48.948759"}},{"country":"az","city":"Arbat","coordinates":{"lat":"39.523047","long":"44.970641"}},{"country":"az","city":"Archadzor","coordinates":{"lat":"40.055148","long":"46.609539"}},{"country":"az","city":"Archevan'","coordinates":{"lat":"38.504257","long":"48.831603"}},{"country":"az","city":"Archiman","coordinates":{"lat":"40.817347","long":"48.618061"}},{"country":"az","city":"Archivan","coordinates":{"lat":"38.504257","long":"48.831603"}},{"country":"az","city":"Arciman","coordinates":{"lat":"40.817347","long":"48.618061"}},{"country":"az","city":"Arcivan","coordinates":{"lat":"38.504257","long":"48.831603"}},{"country":"az","city":"Ardabila","coordinates":{"lat":"38.859579","long":"48.461392"}},{"country":"az","city":"Ardabilya","coordinates":{"lat":"38.859579","long":"48.461392"}},{"country":"az","city":"Ardamova","coordinates":{"lat":"39.765833","long":"46.481944"}},{"country":"az","city":"Ardasavi","coordinates":{"lat":"39.766685","long":"46.482713"}},{"country":"az","city":"Ardashevi","coordinates":{"lat":"39.766685","long":"46.482713"}},{"country":"az","city":"Ardicli","coordinates":{"lat":"39.738889","long":"46.348611"}},{"country":"az","city":"Ardupa","coordinates":{"lat":"38.469156","long":"48.831493"}},{"country":"az","city":"Ardushlu","coordinates":{"lat":"39.804362","long":"46.480775"}},{"country":"az","city":"Ardyshly","coordinates":{"lat":"39.738889","long":"46.348611"}},{"country":"az","city":"Arevshat","coordinates":{"lat":"39.446933","long":"46.830366"}},{"country":"az","city":"Argyunash","coordinates":{"lat":"39.45","long":"46.816667"}},{"country":"az","city":"Arik'li","coordinates":{"lat":"39.854114","long":"46.404917"}},{"country":"az","city":"Arikli","coordinates":{"lat":"39.854114","long":"46.404917"}},{"country":"az","city":"Arinc","coordinates":{"lat":"39.433777","long":"45.585677"}},{"country":"az","city":"Arindzh","coordinates":{"lat":"39.433777","long":"45.585677"}},{"country":"az","city":"Ariqdam","coordinates":{"lat":"40.592222","long":"45.801111"}},{"country":"az","city":"Ariqiran","coordinates":{"lat":"40.555","long":"45.6175"}},{"country":"az","city":"Arisu","coordinates":{"lat":"40.490833","long":"45.728429"}},{"country":"az","city":"Arkavan","coordinates":{"lat":"39.017084","long":"48.643059"}},{"country":"az","city":"Arkesai","coordinates":{"lat":"39.017084","long":"48.643059"}},{"country":"az","city":"Arkevak","coordinates":{"lat":"39.017084","long":"48.643059"}},{"country":"az","city":"Arkevan","coordinates":{"lat":"39.017084","long":"48.643059"}},{"country":"az","city":"Arkewan","coordinates":{"lat":"39.017084","long":"48.643059"}},{"country":"az","city":"Arkhangelovka","coordinates":{"lat":"39.484361","long":"48.568295"}},{"country":"az","city":"Arkivan","coordinates":{"lat":"39.017084","long":"48.643059"}},{"country":"az","city":"Armaki","coordinates":{"lat":"41.277982","long":"48.505675"}},{"country":"az","city":"Armanat","coordinates":{"lat":"41.064047","long":"47.570358"}},{"country":"az","city":"Armenabad","coordinates":{"lat":"39.876111","long":"46.781667"}},{"country":"az","city":"Armenat","coordinates":{"lat":"41.064047","long":"47.570358"}},{"country":"az","city":"Armenatkyshlak","coordinates":{"lat":"41.020833","long":"47.484167"}},{"country":"az","city":"Armenavan","coordinates":{"lat":"40.363056","long":"46.896944"}},{"country":"az","city":"Armenavan","coordinates":{"lat":"39.876111","long":"46.781667"}},{"country":"az","city":"Armen-Keno","coordinates":{"lat":"39.409722","long":"48.427222"}},{"country":"az","city":"Armudlu","coordinates":{"lat":"40.083333","long":"46.016667"}},{"country":"az","city":"Armudlu","coordinates":{"lat":"41.379444","long":"47.037222"}},{"country":"az","city":"Armudly","coordinates":{"lat":"40.073333","long":"46.1375"}},{"country":"az","city":"Armudpadar","coordinates":{"lat":"41.440048","long":"48.768443"}},{"country":"az","city":"Armutlu","coordinates":{"lat":"41.379444","long":"47.037222"}},{"country":"az","city":"Armyanskiye Borisy","coordinates":{"lat":"40.449626","long":"46.55542"}},{"country":"az","city":"Arnshat","coordinates":{"lat":"39.446933","long":"46.830366"}},{"country":"az","city":"Aronovka","coordinates":{"lat":"41.505054","long":"48.820167"}},{"country":"az","city":"Arpadüzü","coordinates":{"lat":"39.752503","long":"46.950863"}},{"country":"az","city":"Arpagadik","coordinates":{"lat":"39.555556","long":"46.706667"}},{"country":"az","city":"Arp'agetik","coordinates":{"lat":"39.555556","long":"46.706667"}},{"country":"az","city":"Arpaguetik","coordinates":{"lat":"39.555556","long":"46.706667"}},{"country":"az","city":"Arpagyadik","coordinates":{"lat":"39.555556","long":"46.706667"}},{"country":"az","city":"Arpagyadyuk","coordinates":{"lat":"39.555556","long":"46.706667"}},{"country":"az","city":"Arrach'adzor","coordinates":{"lat":"40.055148","long":"46.609539"}},{"country":"az","city":"Arrajadzor","coordinates":{"lat":"40.055148","long":"46.609539"}},{"country":"az","city":"Arrak'ul","coordinates":{"lat":"39.43953","long":"46.995976"}},{"country":"az","city":"Arrak'yal","coordinates":{"lat":"39.43953","long":"46.995976"}},{"country":"az","city":"Arsali","coordinates":{"lat":"40.179385","long":"48.308723"}},{"country":"az","city":"Arsila","coordinates":{"lat":"38.974045","long":"48.346833"}},{"country":"az","city":"Arsilya","coordinates":{"lat":"38.974045","long":"48.346833"}},{"country":"az","city":"Arta","coordinates":{"lat":"38.878058","long":"48.35403"}},{"country":"az","city":"Artapa","coordinates":{"lat":"40.643889","long":"45.898611"}},{"country":"az","city":"Artëm-Ostrov","coordinates":{"lat":"40.472255","long":"50.333041"}},{"country":"az","city":"Arts'akhashen","coordinates":{"lat":"39.928268","long":"46.706708"}},{"country":"az","city":"Artsakhashen","coordinates":{"lat":"39.928268","long":"46.706708"}},{"country":"az","city":"Artsvashen","coordinates":{"lat":"40.246811","long":"46.985562"}},{"country":"az","city":"Artupa","coordinates":{"lat":"38.469156","long":"48.831493"}},{"country":"az","city":"Artyom","coordinates":{"lat":"40.472255","long":"50.333041"}},{"country":"az","city":"Arus","coordinates":{"lat":"38.951045","long":"48.321999"}},{"country":"az","city":"Arutunagomer","coordinates":{"lat":"40.125556","long":"46.516111"}},{"country":"az","city":"Arutyunagamer","coordinates":{"lat":"40.125556","long":"46.516111"}},{"country":"az","city":"Arutyunagomer","coordinates":{"lat":"40.125556","long":"46.516111"}},{"country":"az","city":"Arvana","coordinates":{"lat":"38.826466","long":"48.118722"}},{"country":"az","city":"Aryadzha","coordinates":{"lat":"40.403889","long":"47.215278"}},{"country":"az","city":"Arygdam","coordinates":{"lat":"40.592222","long":"45.801111"}},{"country":"az","city":"Arygyran","coordinates":{"lat":"40.555","long":"45.6175"}},{"country":"az","city":"Arykhdam","coordinates":{"lat":"40.592222","long":"45.801111"}},{"country":"az","city":"Aryndzh","coordinates":{"lat":"39.433777","long":"45.585677"}},{"country":"az","city":"Aryndzhkend","coordinates":{"lat":"39.433777","long":"45.585677"}},{"country":"az","city":"Arysh","coordinates":{"lat":"39.532586","long":"47.102896"}},{"country":"az","city":"Arysu","coordinates":{"lat":"40.490833","long":"45.728429"}},{"country":"az","city":"Arzikus","coordinates":{"lat":"40.94486","long":"48.9121"}},{"country":"az","city":"AsaÂ¿Â¿ KuzlÂ¿k","coordinates":{"lat":"39.484202","long":"47.13445"}},{"country":"az","city":"Asadabad","coordinates":{"lat":"39.068889","long":"48.569169"}},{"country":"az","city":"Asad-Abad","coordinates":{"lat":"39.068889","long":"48.569169"}},{"country":"az","city":"Asadabad","coordinates":{"lat":"38.885045","long":"48.233333"}},{"country":"az","city":"Asadli","coordinates":{"lat":"39.110455","long":"48.320423"}},{"country":"az","city":"Asadli","coordinates":{"lat":"40.011396","long":"48.521252"}},{"country":"az","city":"Asadly","coordinates":{"lat":"39.110455","long":"48.320423"}},{"country":"az","city":"Asadly","coordinates":{"lat":"40.011396","long":"48.521252"}},{"country":"az","city":"Asagi Abdurrahmanli","coordinates":{"lat":"39.527157","long":"47.266909"}},{"country":"az","city":"Asagi Agasibayli","coordinates":{"lat":"40.769865","long":"46.515638"}},{"country":"az","city":"Asagi Agcakand","coordinates":{"lat":"40.418502","long":"46.557907"}},{"country":"az","city":"Asagi Agcayazi","coordinates":{"lat":"40.695156","long":"47.507236"}},{"country":"az","city":"Asagi Amburdara","coordinates":{"lat":"38.668056","long":"48.3775"}},{"country":"az","city":"Asagi Apu","coordinates":{"lat":"38.678245","long":"48.741266"}},{"country":"az","city":"Asagi Askipara","coordinates":{"lat":"41.075556","long":"45.082778"}},{"country":"az","city":"Asagi Astanli","coordinates":{"lat":"39.044167","long":"48.38"}},{"country":"az","city":"Asagi Aybasanli","coordinates":{"lat":"39.55","long":"47.25"}},{"country":"az","city":"Asagi Ayibli","coordinates":{"lat":"40.934722","long":"45.826111"}},{"country":"az","city":"Asagi Aylis","coordinates":{"lat":"38.930791","long":"45.989593"}},{"country":"az","city":"Asagi Ayrim","coordinates":{"lat":"40.128611","long":"46.032222"}},{"country":"az","city":"Asagi Aza","coordinates":{"lat":"38.919718","long":"45.821045"}},{"country":"az","city":"Asagi Bilna","coordinates":{"lat":"38.814681","long":"48.440525"}},{"country":"az","city":"Asagi Bradi","coordinates":{"lat":"38.648262","long":"48.589743"}},{"country":"az","city":"Asagi Bucaq","coordinates":{"lat":"40.722516","long":"47.200554"}},{"country":"az","city":"Asagi Buzqov","coordinates":{"lat":"39.512299","long":"45.40036"}},{"country":"az","city":"Asagi Camanli","coordinates":{"lat":"39.684767","long":"47.815265"}},{"country":"az","city":"Asagi Cardaqlar","coordinates":{"lat":"41.549945","long":"46.350162"}},{"country":"az","city":"Asagi Cibikli","coordinates":{"lat":"39.354722","long":"46.461944"}},{"country":"az","city":"Asagi Curali","coordinates":{"lat":"39.41912","long":"48.56996"}},{"country":"az","city":"Asagi Dasagil","coordinates":{"lat":"41.012134","long":"47.32164"}},{"country":"az","city":"Asagi Dasarx","coordinates":{"lat":"39.523611","long":"45.035556"}},{"country":"az","city":"Asagi Faracan","coordinates":{"lat":"39.528611","long":"46.661111"}},{"country":"az","city":"Asagi Filfili","coordinates":{"lat":"41.108056","long":"47.563056"}},{"country":"az","city":"Asagi Galanxur","coordinates":{"lat":"41.498652","long":"48.15252"}},{"country":"az","city":"Asagi Goynuk","coordinates":{"lat":"41.284778","long":"47.022716"}},{"country":"az","city":"Asagi Gultapa","coordinates":{"lat":"39.271457","long":"45.453992"}},{"country":"az","city":"Asagi Guzdak","coordinates":{"lat":"40.480958","long":"49.665581"}},{"country":"az","city":"Asagi Kaldak","coordinates":{"lat":"41.047705","long":"47.2814"}},{"country":"az","city":"Asagi Kasaman","coordinates":{"lat":"41.151667","long":"45.490833"}},{"country":"az","city":"Asagi Koynuk","coordinates":{"lat":"41.284778","long":"47.022716"}},{"country":"az","city":"Asagi Kungut","coordinates":{"lat":"41.064378","long":"47.256464"}},{"country":"az","city":"Asagi Lagar","coordinates":{"lat":"41.496963","long":"48.452098"}},{"country":"az","city":"Asagi Laki","coordinates":{"lat":"40.508974","long":"47.416344"}},{"country":"az","city":"Asagi Layski","coordinates":{"lat":"41.289811","long":"46.978106"}},{"country":"az","city":"Asagi Malax","coordinates":{"lat":"41.369988","long":"46.987631"}},{"country":"az","city":"Asagi Maralyan","coordinates":{"lat":"39.347181","long":"47.220952"}},{"country":"az","city":"Asagi Mulkulu","coordinates":{"lat":"41.054868","long":"45.616464"}},{"country":"az","city":"Asagi Ne'matabad","coordinates":{"lat":"40.683729","long":"47.301685"}},{"country":"az","city":"Asagi Noxudlu","coordinates":{"lat":"39.652347","long":"48.96843"}},{"country":"az","city":"Asagi Nuvadi","coordinates":{"lat":"38.715564","long":"48.859033"}},{"country":"az","city":"Asagioba","coordinates":{"lat":"41.720919","long":"48.731904"}},{"country":"az","city":"Asagi Oksuzlu","coordinates":{"lat":"40.973043","long":"45.587941"}},{"country":"az","city":"Asagi Oratag","coordinates":{"lat":"40.186465","long":"46.780461"}},{"country":"az","city":"Asagi Oysuzlu","coordinates":{"lat":"40.973043","long":"45.587941"}},{"country":"az","city":"Asagi Qaraguvandli","coordinates":{"lat":"39.719167","long":"47.916944"}},{"country":"az","city":"Asagi Qaramanli","coordinates":{"lat":"39.42985","long":"49.040912"}},{"country":"az","city":"Asagi Qaramaryam","coordinates":{"lat":"40.577665","long":"47.984582"}},{"country":"az","city":"Asagi Qarxun","coordinates":{"lat":"40.582839","long":"47.213333"}},{"country":"az","city":"Asagi Qasil","coordinates":{"lat":"40.61993","long":"47.503169"}},{"country":"az","city":"Asagi Qislaq","coordinates":{"lat":"39.468203","long":"45.700206"}},{"country":"az","city":"Asagi Qolqati","coordinates":{"lat":"40.66644","long":"47.469258"}},{"country":"az","city":"Asagi Quscu","coordinates":{"lat":"40.953333","long":"45.679167"}},{"country":"az","city":"Asagi Quscular","coordinates":{"lat":"39.839364","long":"46.808052"}},{"country":"az","city":"Asagi Rafadinli","coordinates":{"lat":"39.479938","long":"47.133883"}},{"country":"az","city":"Asagi Remesin","coordinates":{"lat":"39.494264","long":"45.607967"}},{"country":"az","city":"Asagi Sabalid","coordinates":{"lat":"41.287609","long":"47.087265"}},{"country":"az","city":"Asagi Salahli","coordinates":{"lat":"41.209529","long":"45.338876"}},{"country":"az","city":"Asagi Salamabad","coordinates":{"lat":"40.704291","long":"47.207623"}},{"country":"az","city":"Asagi Seyfali","coordinates":{"lat":"40.757913","long":"46.113732"}},{"country":"az","city":"Asagi Seyidahmadli","coordinates":{"lat":"39.574821","long":"47.307766"}},{"country":"az","city":"Asagi Surra","coordinates":{"lat":"39.480819","long":"49.008171"}},{"country":"az","city":"Asagi Surtan","coordinates":{"lat":"39.991944","long":"46.002222"}},{"country":"az","city":"Asagi Tala","coordinates":{"lat":"41.602356","long":"46.652727"}},{"country":"az","city":"Asagi Tulakaran","coordinates":{"lat":"41.275092","long":"48.439752"}},{"country":"az","city":"Asagi Veysalli","coordinates":{"lat":"39.706856","long":"47.228655"}},{"country":"az","city":"Asagi Xocamusaxli","coordinates":{"lat":"39.313333","long":"46.553333"}},{"country":"az","city":"Asagi Yaglavand","coordinates":{"lat":"39.50965","long":"47.460097"}},{"country":"az","city":"Asagi Yayci","coordinates":{"lat":"39.620556","long":"45.080278"}},{"country":"az","city":"Asagi Yemiscan","coordinates":{"lat":"39.737222","long":"46.840278"}},{"country":"az","city":"Asagi Zeyd","coordinates":{"lat":"41.380938","long":"48.787405"}},{"country":"az","city":"Asagi Zeynaddin","coordinates":{"lat":"40.656923","long":"47.435952"}},{"country":"az","city":"Asakyudzha","coordinates":{"lat":"38.761389","long":"48.6725"}},{"country":"az","city":"Asalty","coordinates":{"lat":"40.011396","long":"48.521252"}},{"country":"az","city":"Asan","coordinates":{"lat":"39.84658","long":"46.995149"}},{"country":"az","city":"Asaqi Xuc","coordinates":{"lat":"41.440808","long":"48.521518"}},{"country":"az","city":"Asatly","coordinates":{"lat":"40.011396","long":"48.521252"}},{"country":"az","city":"Aschurly","coordinates":{"lat":"41.141389","long":"45.266111"}},{"country":"az","city":"Asgarabad","coordinates":{"lat":"39.429233","long":"48.571051"}},{"country":"az","city":"Asgaran","coordinates":{"lat":"39.936667","long":"46.832778"}},{"country":"az","city":"Asgarbayli","coordinates":{"lat":"40.031667","long":"48.393068"}},{"country":"az","city":"Ashaga-Abdurakhmanly","coordinates":{"lat":"39.527157","long":"47.266909"}},{"country":"az","city":"Ashaga Agaly","coordinates":{"lat":"39.175809","long":"46.774891"}},{"country":"az","city":"Ashaga Agdzhayazy","coordinates":{"lat":"40.695156","long":"47.507236"}},{"country":"az","city":"Ashaga Alibeyli","coordinates":{"lat":"39.155437","long":"46.749444"}},{"country":"az","city":"Ashaga Alkhanly","coordinates":{"lat":"39.60204","long":"47.384625"}},{"country":"az","city":"Ashaga Alpout","coordinates":{"lat":"40.446508","long":"47.607676"}},{"country":"az","city":"Ashaga Alyaz","coordinates":{"lat":"40.955886","long":"48.983597"}},{"country":"az","city":"Ashaga Andamish","coordinates":{"lat":"38.925218","long":"46.030012"}},{"country":"az","city":"Ashaga Angelan","coordinates":{"lat":"40.816667","long":"49.033333"}},{"country":"az","city":"Ashaga-Aylis","coordinates":{"lat":"38.930791","long":"45.989593"}},{"country":"az","city":"Ashaga-Ayply","coordinates":{"lat":"40.934722","long":"45.826111"}},{"country":"az","city":"Ashaga-Buzgov","coordinates":{"lat":"39.512299","long":"45.40036"}},{"country":"az","city":"Ashaga Chardakhly","coordinates":{"lat":"41.549945","long":"46.350162"}},{"country":"az","city":"Ashaga-Danzik","coordinates":{"lat":"39.701161","long":"45.115908"}},{"country":"az","city":"Ashaga Dashagi","coordinates":{"lat":"41.012134","long":"47.32164"}},{"country":"az","city":"Ashaga Dasharkh","coordinates":{"lat":"39.523611","long":"45.035556"}},{"country":"az","city":"Ashaga Dzhalgan","coordinates":{"lat":"41.1","long":"48.95"}},{"country":"az","city":"Ashaga Fyndygan","coordinates":{"lat":"40.953056","long":"49.038056"}},{"country":"az","city":"Ashaga Geali","coordinates":{"lat":"39.143333","long":"46.506111"}},{"country":"az","city":"Ashaga-Geynyuk","coordinates":{"lat":"41.284778","long":"47.022716"}},{"country":"az","city":"Ashaga Karadzhanly","coordinates":{"lat":"40.0418","long":"46.050352"}},{"country":"az","city":"Ashaga Karakyuvendikly","coordinates":{"lat":"39.719167","long":"47.916944"}},{"country":"az","city":"Ashaga Karkhun","coordinates":{"lat":"40.582839","long":"47.213333"}},{"country":"az","city":"Ashaga Kel'dek","coordinates":{"lat":"41.047705","long":"47.2814"}},{"country":"az","city":"Ashaga Khodzham Sagly","coordinates":{"lat":"39.313333","long":"46.553333"}},{"country":"az","city":"Ashaga Khuch","coordinates":{"lat":"41.440808","long":"48.521518"}},{"country":"az","city":"Ashaga-Klishbag","coordinates":{"lat":"39.9459","long":"46.830124"}},{"country":"az","city":"Ashaga-Klishbog","coordinates":{"lat":"39.9459","long":"46.830124"}},{"country":"az","city":"Ashaga Kolgaty","coordinates":{"lat":"40.66644","long":"47.469258"}},{"country":"az","city":"Ashaga Kyrakhkesaman","coordinates":{"lat":"41.212615","long":"45.461693"}},{"country":"az","city":"Ashaga-Kyungyut","coordinates":{"lat":"41.064378","long":"47.256464"}},{"country":"az","city":"Ashaga-Laiski","coordinates":{"lat":"41.289811","long":"46.978106"}},{"country":"az","city":"Ashaga-Layski","coordinates":{"lat":"41.289811","long":"46.978106"}},{"country":"az","city":"Ashaga-Leger","coordinates":{"lat":"41.496963","long":"48.452098"}},{"country":"az","city":"Ashaga Malakh","coordinates":{"lat":"41.369988","long":"46.987631"}},{"country":"az","city":"Ashaga Maral'yan","coordinates":{"lat":"39.347181","long":"47.220952"}},{"country":"az","city":"Ashaga Molly","coordinates":{"lat":"39.304406","long":"46.697216"}},{"country":"az","city":"Ashaga-Myul'kyuli","coordinates":{"lat":"41.054868","long":"45.616464"}},{"country":"az","city":"Ashaga Neymetabad","coordinates":{"lat":"40.683729","long":"47.301685"}},{"country":"az","city":"Ashaga Rafadely","coordinates":{"lat":"39.479938","long":"47.133883"}},{"country":"az","city":"Ashaga-Rameshin","coordinates":{"lat":"39.494264","long":"45.607967"}},{"country":"az","city":"Ashaga-Salakhly","coordinates":{"lat":"41.209529","long":"45.338876"}},{"country":"az","city":"Ashaga-Seidimly","coordinates":{"lat":"40.488056","long":"46.927222"}},{"country":"az","city":"Ashaga Seyd-Akhmedly","coordinates":{"lat":"39.574821","long":"47.307766"}},{"country":"az","city":"Ashaga Shabalyt","coordinates":{"lat":"41.287609","long":"47.087265"}},{"country":"az","city":"Ashaga-Shil'yan","coordinates":{"lat":"40.327519","long":"48.01087"}},{"country":"az","city":"Ashaga-Sura","coordinates":{"lat":"39.480819","long":"49.008171"}},{"country":"az","city":"Ashaga-Veysanli","coordinates":{"lat":"39.706856","long":"47.228655"}},{"country":"az","city":"Ashaga Yakublu","coordinates":{"lat":"40.922634","long":"47.461354"}},{"country":"az","city":"Ashaga Yemazlu","coordinates":{"lat":"39.20311","long":"46.607626"}},{"country":"az","city":"Ashaga Zeid","coordinates":{"lat":"41.380938","long":"48.787405"}},{"country":"az","city":"Ashaga-Zeyd","coordinates":{"lat":"41.380938","long":"48.787405"}},{"country":"az","city":"Ashaga-Zeyzit","coordinates":{"lat":"41.093056","long":"47.211621"}},{"country":"az","city":"Ashaghli","coordinates":{"lat":"40.53542","long":"46.336505"}},{"country":"az","city":"Ashaghy Abdurahmanly","coordinates":{"lat":"39.527157","long":"47.266909"}},{"country":"az","city":"Ashaghy-Jibik'li","coordinates":{"lat":"39.354722","long":"46.461944"}},{"country":"az","city":"Ashaghy Veysali","coordinates":{"lat":"39.706856","long":"47.228655"}},{"country":"az","city":"Ashagi-Dashagyl","coordinates":{"lat":"41.012134","long":"47.32164"}},{"country":"az","city":"Ashagy Abdurakhmanly","coordinates":{"lat":"39.527157","long":"47.266909"}},{"country":"az","city":"Ashagy Agasibeyli","coordinates":{"lat":"40.769865","long":"46.515638"}},{"country":"az","city":"Ashagy Agdzhakend","coordinates":{"lat":"40.418502","long":"46.557907"}},{"country":"az","city":"Ashagy Agdzhayazy","coordinates":{"lat":"40.695156","long":"47.507236"}},{"country":"az","city":"Ashagy Aksinara","coordinates":{"lat":"41.075556","long":"45.082778"}},{"country":"az","city":"Ashagy Amburdarya","coordinates":{"lat":"38.668056","long":"48.3775"}},{"country":"az","city":"Ashagy Amburdere","coordinates":{"lat":"38.668056","long":"48.3775"}},{"country":"az","city":"Ashagy Andamich","coordinates":{"lat":"38.925218","long":"46.030012"}},{"country":"az","city":"Ashagy Apu","coordinates":{"lat":"38.678245","long":"48.741266"}},{"country":"az","city":"Ashagy Askipara","coordinates":{"lat":"41.075556","long":"45.082778"}},{"country":"az","city":"Ashagy Astanly","coordinates":{"lat":"39.044167","long":"48.38"}},{"country":"az","city":"Ashagy Aybasanly","coordinates":{"lat":"39.55","long":"47.25"}},{"country":"az","city":"Ashagy-Ayipli","coordinates":{"lat":"40.934722","long":"45.826111"}},{"country":"az","city":"Ashagy Aylis","coordinates":{"lat":"38.930791","long":"45.989593"}},{"country":"az","city":"Ashagy Ayrum","coordinates":{"lat":"40.128611","long":"46.032222"}},{"country":"az","city":"Ashagy-Ayyply","coordinates":{"lat":"40.934722","long":"45.826111"}},{"country":"az","city":"Ashagy Aza","coordinates":{"lat":"38.919718","long":"45.821045"}},{"country":"az","city":"Ashagy-Begly","coordinates":{"lat":"40.769865","long":"46.515638"}},{"country":"az","city":"Ashagy Bil'nya","coordinates":{"lat":"38.814681","long":"48.440525"}},{"country":"az","city":"Ashagy-Bizgov","coordinates":{"lat":"39.512299","long":"45.40036"}},{"country":"az","city":"Ashagy-Budzhak","coordinates":{"lat":"40.722516","long":"47.200554"}},{"country":"az","city":"Ashagy-Budzhal","coordinates":{"lat":"40.722516","long":"47.200554"}},{"country":"az","city":"Ashagy Burady","coordinates":{"lat":"38.648262","long":"48.589743"}},{"country":"az","city":"Ashagy Buzgov","coordinates":{"lat":"39.512299","long":"45.40036"}},{"country":"az","city":"Ashagy-Byzgov","coordinates":{"lat":"39.512299","long":"45.40036"}},{"country":"az","city":"Ashagy-Chardakhar","coordinates":{"lat":"41.549945","long":"46.350162"}},{"country":"az","city":"Ashagy Chardakhlar","coordinates":{"lat":"41.549945","long":"46.350162"}},{"country":"az","city":"Ashagy Chemenli","coordinates":{"lat":"39.684767","long":"47.815265"}},{"country":"az","city":"Ashagy-Dashagyl","coordinates":{"lat":"41.012134","long":"47.32164"}},{"country":"az","city":"Ashagy Dasharkh","coordinates":{"lat":"39.523611","long":"45.035556"}},{"country":"az","city":"Ashagy Dzhibikli","coordinates":{"lat":"39.354722","long":"46.461944"}},{"country":"az","city":"Ashagy Dzhurali","coordinates":{"lat":"39.41912","long":"48.56996"}},{"country":"az","city":"Ashagy Emirkhanly","coordinates":{"lat":"41.15","long":"48.916667"}},{"country":"az","city":"Ashagy Eskipara","coordinates":{"lat":"41.075556","long":"45.082778"}},{"country":"az","city":"Ashagy-Faradzhan","coordinates":{"lat":"39.528611","long":"46.661111"}},{"country":"az","city":"Ashagy Fil'fili","coordinates":{"lat":"41.108056","long":"47.563056"}},{"country":"az","city":"Ashagy Fil'filli","coordinates":{"lat":"41.108056","long":"47.563056"}},{"country":"az","city":"Ashagy Gelenkhur","coordinates":{"lat":"41.498652","long":"48.15252"}},{"country":"az","city":"Ashagy-Gendob","coordinates":{"lat":"41.24106","long":"48.842863"}},{"country":"az","city":"Ashagy Gëynyuk","coordinates":{"lat":"41.284778","long":"47.022716"}},{"country":"az","city":"Ashagy-Guch","coordinates":{"lat":"41.440808","long":"48.521518"}},{"country":"az","city":"Ashagy Gyuzdek","coordinates":{"lat":"40.480958","long":"49.665581"}},{"country":"az","city":"Ashagy Gyuzlyak","coordinates":{"lat":"39.484202","long":"47.13445"}},{"country":"az","city":"Ashagy Karagyuvyandli","coordinates":{"lat":"39.719167","long":"47.916944"}},{"country":"az","city":"Ashagy Karakhun","coordinates":{"lat":"40.582839","long":"47.213333"}},{"country":"az","city":"Ashagy Karamar'yam","coordinates":{"lat":"40.577665","long":"47.984582"}},{"country":"az","city":"Ashagy Karashanly","coordinates":{"lat":"40.0418","long":"46.050352"}},{"country":"az","city":"Ashagy Karaymanly","coordinates":{"lat":"39.42985","long":"49.040912"}},{"country":"az","city":"Ashagy-Karkhun","coordinates":{"lat":"40.582839","long":"47.213333"}},{"country":"az","city":"Ashagy Kasil'","coordinates":{"lat":"40.61993","long":"47.503169"}},{"country":"az","city":"Ashagy Kel'dek","coordinates":{"lat":"41.047705","long":"47.2814"}},{"country":"az","city":"Ashagy Khalilbeyli","coordinates":{"lat":"40.866667","long":"46.133333"}},{"country":"az","city":"Ashagy Kharasha","coordinates":{"lat":"41.288989","long":"48.695525"}},{"country":"az","city":"Ashagy Khodzhamusakhly","coordinates":{"lat":"39.313333","long":"46.553333"}},{"country":"az","city":"Ashagy-Khuch","coordinates":{"lat":"41.440808","long":"48.521518"}},{"country":"az","city":"Ashagy Kolgaty","coordinates":{"lat":"40.66644","long":"47.469258"}},{"country":"az","city":"Ashagy Kushchu","coordinates":{"lat":"40.953333","long":"45.679167"}},{"country":"az","city":"Ashagy-Kushchu-Kyrykly","coordinates":{"lat":"40.953333","long":"45.679167"}},{"country":"az","city":"Ashagy Kushchular","coordinates":{"lat":"39.839364","long":"46.808052"}},{"country":"az","city":"Ashagy Kyshlak","coordinates":{"lat":"39.468203","long":"45.700206"}},{"country":"az","city":"Ashagy-Kyungyut","coordinates":{"lat":"41.064378","long":"47.256464"}},{"country":"az","city":"Ashagy Kyurdmakhmudlu","coordinates":{"lat":"39.589444","long":"47.475556"}},{"country":"az","city":"Ashagy-Layski","coordinates":{"lat":"41.289811","long":"46.978106"}},{"country":"az","city":"Ashagy-Leger","coordinates":{"lat":"41.496963","long":"48.452098"}},{"country":"az","city":"Ashagy Leninabad","coordinates":{"lat":"39.254102","long":"45.454965"}},{"country":"az","city":"Ashagy-Lyagyar","coordinates":{"lat":"41.496963","long":"48.452098"}},{"country":"az","city":"Ashagy Lyaki","coordinates":{"lat":"40.508974","long":"47.416344"}},{"country":"az","city":"Ashagy-Maral'yan","coordinates":{"lat":"39.347181","long":"47.220952"}},{"country":"az","city":"Ashagy-Mollu","coordinates":{"lat":"39.304406","long":"46.697216"}},{"country":"az","city":"Ashagy Myul'kyulyu","coordinates":{"lat":"41.054868","long":"45.616464"}},{"country":"az","city":"Ashagy-Neymatabad","coordinates":{"lat":"40.683729","long":"47.301685"}},{"country":"az","city":"Ashagy Neymetabad","coordinates":{"lat":"40.683729","long":"47.301685"}},{"country":"az","city":"Ashagy Nokhudlu","coordinates":{"lat":"39.652347","long":"48.96843"}},{"country":"az","city":"Ashagy Nyuvedi","coordinates":{"lat":"38.715564","long":"48.859033"}},{"country":"az","city":"Ashagyoba","coordinates":{"lat":"41.720919","long":"48.731904"}},{"country":"az","city":"Ashagy Oksyuzlyu","coordinates":{"lat":"40.973043","long":"45.587941"}},{"country":"az","city":"Ashagy Rafadinli","coordinates":{"lat":"39.479938","long":"47.133883"}},{"country":"az","city":"Ashagy Remeshin","coordinates":{"lat":"39.494264","long":"45.607967"}},{"country":"az","city":"Ashagy Salakhly","coordinates":{"lat":"41.209529","long":"45.338876"}},{"country":"az","city":"Ashagy Salamabad","coordinates":{"lat":"40.704291","long":"47.207623"}},{"country":"az","city":"Ashagy Seidahmedli","coordinates":{"lat":"39.574821","long":"47.307766"}},{"country":"az","city":"Ashagy Seidakhmedli","coordinates":{"lat":"39.574821","long":"47.307766"}},{"country":"az","city":"Ashagy Seyfali","coordinates":{"lat":"40.757913","long":"46.113732"}},{"country":"az","city":"Ashagy-Shabalut","coordinates":{"lat":"41.287609","long":"47.087265"}},{"country":"az","city":"Ashagy Shabalyt","coordinates":{"lat":"41.287609","long":"47.087265"}},{"country":"az","city":"Ashagy-Shikhly","coordinates":{"lat":"40.757913","long":"46.113732"}},{"country":"az","city":"Ashagy Shilyan","coordinates":{"lat":"40.327519","long":"48.01087"}},{"country":"az","city":"Ashagy Shurtan","coordinates":{"lat":"39.991944","long":"46.002222"}},{"country":"az","city":"Ashagy Surra","coordinates":{"lat":"39.480819","long":"49.008171"}},{"country":"az","city":"Ashagy-Tala","coordinates":{"lat":"41.602356","long":"46.652727"}},{"country":"az","city":"Ashagy Tyulekiran","coordinates":{"lat":"41.275092","long":"48.439752"}},{"country":"az","city":"Ashagy-Tyulyakeran","coordinates":{"lat":"41.275092","long":"48.439752"}},{"country":"az","city":"Ashagy-Uchkovash","coordinates":{"lat":"40.640278","long":"47.485833"}},{"country":"az","city":"Ashagy Uzunoba","coordinates":{"lat":"39.277189","long":"45.442189"}},{"country":"az","city":"Ashagy-Veysalli","coordinates":{"lat":"39.706856","long":"47.228655"}},{"country":"az","city":"Ashagy-Veysally","coordinates":{"lat":"39.706856","long":"47.228655"}},{"country":"az","city":"Ashagy Yaglevend","coordinates":{"lat":"39.50965","long":"47.460097"}},{"country":"az","city":"Ashagy Yaydzhi","coordinates":{"lat":"39.620556","long":"45.080278"}},{"country":"az","city":"Ashagy-Yaydzhy","coordinates":{"lat":"39.620556","long":"45.080278"}},{"country":"az","city":"Ashagy Yemezli","coordinates":{"lat":"39.20311","long":"46.607626"}},{"country":"az","city":"Ashagyy-Gendob","coordinates":{"lat":"41.2625","long":"48.905278"}},{"country":"az","city":"Ashagy Zeid","coordinates":{"lat":"41.380938","long":"48.787405"}},{"country":"az","city":"Ashagy Zeynaddin","coordinates":{"lat":"40.656923","long":"47.435952"}},{"country":"az","city":"Ashan","coordinates":{"lat":"39.84658","long":"46.995149"}},{"country":"az","city":"Ashgalar","coordinates":{"lat":"39.698392","long":"47.832597"}},{"country":"az","city":"Ashim","coordinates":{"lat":"39.383333","long":"48.583333"}},{"country":"az","city":"Ashkallar","coordinates":{"lat":"39.698392","long":"47.832597"}},