[{"country":"sn","city":"Abattoirs","coordinates":{"lat":"14.6794444","long":"-17.4497222"}},{"country":"sn","city":"Abdalla","coordinates":{"lat":"16.25","long":"-13.9666667"}},{"country":"sn","city":"Abdallah","coordinates":{"lat":"16.25","long":"-13.9666667"}},{"country":"sn","city":"Abdou","coordinates":{"lat":"14.95","long":"-16.3333333"}},{"country":"sn","city":"Abdou Dao","coordinates":{"lat":"14.9166667","long":"-15.7333333"}},{"country":"sn","city":"Abdou Dia","coordinates":{"lat":"15.55","long":"-16.35"}},{"country":"sn","city":"Abékouta","coordinates":{"lat":"13.3333333","long":"-14.6166667"}},{"country":"sn","city":"Abémé","coordinates":{"lat":"13.0","long":"-16.7333333"}},{"country":"sn","city":"Abirane Gaye","coordinates":{"lat":"15.8833333","long":"-16.2333333"}},{"country":"sn","city":"Adabéré","coordinates":{"lat":"15.1333333","long":"-12.7833333"}},{"country":"sn","city":"Adéane","coordinates":{"lat":"12.63","long":"-16.0169444"}},{"country":"sn","city":"Adébéré","coordinates":{"lat":"15.1333333","long":"-12.7833333"}},{"country":"sn","city":"Adiana","coordinates":{"lat":"12.45","long":"-15.8166667"}},{"country":"sn","city":"Adioufa","coordinates":{"lat":"12.5433333","long":"-15.7541667"}},{"country":"sn","city":"Adjing","coordinates":{"lat":"12.4575","long":"-15.6719444"}},{"country":"sn","city":"Adoun Bram","coordinates":{"lat":"12.4683333","long":"-15.9158333"}},{"country":"sn","city":"Adoune Bram","coordinates":{"lat":"12.4683333","long":"-15.9158333"}},{"country":"sn","city":"Afé","coordinates":{"lat":"14.7833333","long":"-15.9333333"}},{"country":"sn","city":"Afé Niang","coordinates":{"lat":"15.775","long":"-16.2591667"}},{"country":"sn","city":"Affé","coordinates":{"lat":"15.75","long":"-16.3"}},{"country":"sn","city":"Affiniam","coordinates":{"lat":"12.6544444","long":"-16.3627778"}},{"country":"sn","city":"Affinian","coordinates":{"lat":"12.6544444","long":"-16.3627778"}},{"country":"sn","city":"Afia","coordinates":{"lat":"13.2333333","long":"-13.7"}},{"country":"sn","city":"Afiniam","coordinates":{"lat":"12.6544444","long":"-16.3627778"}},{"country":"sn","city":"Aga","coordinates":{"lat":"14.3666667","long":"-16.7666667"}},{"country":"sn","city":"Aga Babou","coordinates":{"lat":"14.3333333","long":"-16.75"}},{"country":"sn","city":"Agnak","coordinates":{"lat":"12.5719444","long":"-16.1219444"}},{"country":"sn","city":"Agnak Grand","coordinates":{"lat":"12.5719444","long":"-16.1047222"}},{"country":"sn","city":"Agnak Petit","coordinates":{"lat":"12.5719444","long":"-16.1219444"}},{"country":"sn","city":"Agoun","coordinates":{"lat":"12.4538889","long":"-16.5344444"}},{"country":"sn","city":"Aguior","coordinates":{"lat":"12.9333333","long":"-16.1333333"}},{"country":"sn","city":"Ahabétou Talap","coordinates":{"lat":"14.8666667","long":"-15.6166667"}},{"country":"sn","city":"Ahèr","coordinates":{"lat":"12.6733333","long":"-16.7"}},{"country":"sn","city":"Ahère","coordinates":{"lat":"12.6733333","long":"-16.7"}},{"country":"sn","city":"Ahibdia","coordinates":{"lat":"15.5166667","long":"-15.85"}},{"country":"sn","city":"Ahinga","coordinates":{"lat":"12.4125","long":"-16.3641667"}},{"country":"sn","city":"Aï","coordinates":{"lat":"14.7361111","long":"-17.1211111"}},{"country":"sn","city":"Aïdara","coordinates":{"lat":"13.6833333","long":"-16.4166667"}},{"country":"sn","city":"Aïdra","coordinates":{"lat":"13.6833333","long":"-16.4166667"}},{"country":"sn","city":"Aïné Bala","coordinates":{"lat":"16.0166667","long":"-13.7166667"}},{"country":"sn","city":"Aïné Madi","coordinates":{"lat":"12.7166667","long":"-14.9833333"}},{"country":"sn","city":"Aïnoumal","coordinates":{"lat":"15.85","long":"-16.0166667"}},{"country":"sn","city":"Aïnoumal","coordinates":{"lat":"13.6166667","long":"-15.6666667"}},{"country":"sn","city":"Aï Noumale","coordinates":{"lat":"15.0166667","long":"-16.3"}},{"country":"sn","city":"Aïnoumane","coordinates":{"lat":"15.0166667","long":"-16.3"}},{"country":"sn","city":"Aïnoumane","coordinates":{"lat":"13.0691667","long":"-16.5780556"}},{"country":"sn","city":"Aïtia","coordinates":{"lat":"14.7127778","long":"-17.1602778"}},{"country":"sn","city":"Akal","coordinates":{"lat":"12.8","long":"-13.6666667"}},{"country":"sn","city":"Akinntou Mankagne Numéro 1","coordinates":{"lat":"12.5319444","long":"-15.88"}},{"country":"sn","city":"Akintou","coordinates":{"lat":"12.5319444","long":"-15.88"}},{"country":"sn","city":"Akoundé","coordinates":{"lat":"13.1333333","long":"-14.3333333"}},{"country":"sn","city":"Aladji Ali","coordinates":{"lat":"15.2833333","long":"-15.9"}},{"country":"sn","city":"Aladji Omar","coordinates":{"lat":"15.0333333","long":"-15.8833333"}},{"country":"sn","city":"Alahina","coordinates":{"lat":"14.4333333","long":"-12.2"}},{"country":"sn","city":"Alakounda","coordinates":{"lat":"13.1666667","long":"-15.9666667"}},{"country":"sn","city":"Alaléri","coordinates":{"lat":"14.85","long":"-12.55"}},{"country":"sn","city":"Alalévi","coordinates":{"lat":"14.85","long":"-12.55"}},{"country":"sn","city":"Alalévy","coordinates":{"lat":"14.85","long":"-12.55"}},{"country":"sn","city":"Alali","coordinates":{"lat":"13.9333333","long":"-13.4833333"}},{"country":"sn","city":"Alalima","coordinates":{"lat":"14.4333333","long":"-12.2"}},{"country":"sn","city":"Alalon","coordinates":{"lat":"12.9833333","long":"-14.5666667"}},{"country":"sn","city":"Alana","coordinates":{"lat":"14.9166667","long":"-12.6"}},{"country":"sn","city":"Alanbato","coordinates":{"lat":"12.8958333","long":"-15.5644444"}},{"country":"sn","city":"Alarba","coordinates":{"lat":"16.4333333","long":"-15.7"}},{"country":"sn","city":"Albadar","coordinates":{"lat":"13.0","long":"-16.7"}},{"country":"sn","city":"Alfa Sadou","coordinates":{"lat":"12.7","long":"-15.0166667"}},{"country":"sn","city":"Alié","coordinates":{"lat":"14.9166667","long":"-15.9"}},{"country":"sn","city":"Ali Gane","coordinates":{"lat":"14.0666667","long":"-15.6166667"}},{"country":"sn","city":"Alika","coordinates":{"lat":"14.6833333","long":"-15.6333333"}},{"country":"sn","city":"Alikali","coordinates":{"lat":"12.9166667","long":"-13.7"}},{"country":"sn","city":"Ali Ndènè","coordinates":{"lat":"15.5166667","long":"-15.8"}},{"country":"sn","city":"Alïné Madi","coordinates":{"lat":"12.7166667","long":"-14.9833333"}},{"country":"sn","city":"Alinnguel","coordinates":{"lat":"13.8","long":"-12.1833333"}},{"country":"sn","city":"Alinnkané","coordinates":{"lat":"14.2166667","long":"-12.2"}},{"country":"sn","city":"Ali Ouri","coordinates":{"lat":"15.9666667","long":"-13.3666667"}},{"country":"sn","city":"Ali Yoro Ndéro","coordinates":{"lat":"15.6833333","long":"-15.7333333"}},{"country":"sn","city":"Alkalikounda","coordinates":{"lat":"12.8688889","long":"-15.9438889"}},{"country":"sn","city":"Alla Gaouri","coordinates":{"lat":"13.9166667","long":"-15.6"}},{"country":"sn","city":"Allagué","coordinates":{"lat":"14.1333333","long":"-13.0333333"}},{"country":"sn","city":"Allouki","coordinates":{"lat":"14.1833333","long":"-15.3833333"}},{"country":"sn","city":"Alo","coordinates":{"lat":"16.6","long":"-14.4666667"}},{"country":"sn","city":"Alouki","coordinates":{"lat":"14.2833333","long":"-15.6666667"}},{"country":"sn","city":"Aloulaye","coordinates":{"lat":"15.7666667","long":"-16.1666667"}},{"country":"sn","city":"Alouniang","coordinates":{"lat":"15.3166667","long":"-15.8166667"}},{"country":"sn","city":"Alout","coordinates":{"lat":"12.8955556","long":"-15.9738889"}},{"country":"sn","city":"Aloute","coordinates":{"lat":"12.8955556","long":"-15.9738889"}},{"country":"sn","city":"Amadi Ounaré","coordinates":{"lat":"15.35","long":"-13.0166667"}},{"country":"sn","city":"Amadji","coordinates":{"lat":"14.6166667","long":"-12.2333333"}},{"country":"sn","city":"Amadou Ndiaye","coordinates":{"lat":"15.9330556","long":"-16.3327778"}},{"country":"sn","city":"Amadra","coordinates":{"lat":"13.25","long":"-14.0833333"}},{"country":"sn","city":"Amali","coordinates":{"lat":"15.7333333","long":"-15.25"}},{"country":"sn","city":"Amama","coordinates":{"lat":"14.9333333","long":"-15.85"}},{"country":"sn","city":"Amanatoulaye","coordinates":{"lat":"13.0333333","long":"-13.8666667"}},{"country":"sn","city":"Amarabé","coordinates":{"lat":"15.5","long":"-13.3333333"}},{"country":"sn","city":"Amat Ba","coordinates":{"lat":"15.8291667","long":"-16.39"}},{"country":"sn","city":"Amat Ouwarou","coordinates":{"lat":"14.5833333","long":"-15.8833333"}},{"country":"sn","city":"Amdalaye","coordinates":{"lat":"12.7166667","long":"-13.0333333"}},{"country":"sn","city":"Amèt Niavel","coordinates":{"lat":"14.75","long":"-15.8833333"}},{"country":"sn","city":"Amitié","coordinates":{"lat":"14.7013889","long":"-17.4580556"}},{"country":"sn","city":"Amoura","coordinates":{"lat":"16.1911111","long":"-16.3638889"}},{"country":"sn","city":"Anabiko","coordinates":{"lat":"12.85","long":"-12.4666667"}},{"country":"sn","city":"Anambé","coordinates":{"lat":"12.95","long":"-14.15"}},{"country":"sn","city":"Anamiko","coordinates":{"lat":"12.85","long":"-12.4666667"}},{"country":"sn","city":"Andal","coordinates":{"lat":"15.2","long":"-16.8"}},{"country":"sn","city":"Andioumé","coordinates":{"lat":"12.8922222","long":"-15.7483333"}},{"country":"sn","city":"Anène","coordinates":{"lat":"14.7333333","long":"-16.8333333"}},{"country":"sn","city":"Angoussaka","coordinates":{"lat":"12.55","long":"-12.4333333"}},{"country":"sn","city":"Anguéniapissa","coordinates":{"lat":"12.45","long":"-12.2666667"}},{"country":"sn","city":"Aniak Grand","coordinates":{"lat":"12.5719444","long":"-16.1047222"}},{"country":"sn","city":"Aniak Petit","coordinates":{"lat":"12.5719444","long":"-16.1219444"}},{"country":"sn","city":"Aniam","coordinates":{"lat":"16.5333333","long":"-14.8"}},{"country":"sn","city":"Aniam Lrlabe","coordinates":{"lat":"15.9666667","long":"-13.6333333"}},{"country":"sn","city":"Aniam Touguel","coordinates":{"lat":"16.5333333","long":"-14.8"}},{"country":"sn","city":"Anisse","coordinates":{"lat":"12.5663889","long":"-15.7319444"}},{"country":"sn","city":"Ankobiri","coordinates":{"lat":"12.4472222","long":"-15.7783333"}},{"country":"sn","city":"Ankohiri","coordinates":{"lat":"12.4472222","long":"-15.7783333"}},{"country":"sn","city":"Anndiaré","coordinates":{"lat":"15.3","long":"-13.1833333"}},{"country":"sn","city":"Anpountoum","coordinates":{"lat":"12.9258333","long":"-15.805"}},{"country":"sn","city":"Antorbé","coordinates":{"lat":"14.3666667","long":"-13.3333333"}},{"country":"sn","city":"Antou Mane","coordinates":{"lat":"14.7666667","long":"-16.0833333"}},{"country":"sn","city":"Aorane","coordinates":{"lat":"15.25","long":"-14.4666667"}},{"country":"sn","city":"Aouataba","coordinates":{"lat":"12.9833333","long":"-14.2"}},{"country":"sn","city":"Aouré","coordinates":{"lat":"15.15","long":"-12.95"}},{"country":"sn","city":"Aourou","coordinates":{"lat":"14.7","long":"-12.25"}},{"country":"sn","city":"Apé Dembagourou","coordinates":{"lat":"15.0166667","long":"-12.7333333"}},{"country":"sn","city":"Apé Dialoubé","coordinates":{"lat":"15.0166667","long":"-12.75"}},{"country":"sn","city":"Apé Sakobé","coordinates":{"lat":"15.0","long":"-12.7333333"}},{"country":"sn","city":"Apeul","coordinates":{"lat":"15.1666667","long":"-16.1666667"}},{"country":"sn","city":"Apol Peul","coordinates":{"lat":"15.1666667","long":"-16.1666667"}},{"country":"sn","city":"Arafa","coordinates":{"lat":"14.0666667","long":"-15.1"}},{"country":"sn","city":"Arafat","coordinates":{"lat":"14.7180556","long":"-17.2597222"}},{"country":"sn","city":"Araldé","coordinates":{"lat":"14.6","long":"-15.5833333"}},{"country":"sn","city":"Aram","coordinates":{"lat":"16.3333333","long":"-14.1666667"}},{"country":"sn","city":"Aramine","coordinates":{"lat":"14.75","long":"-16.8166667"}},{"country":"sn","city":"Ardo Mademba","coordinates":{"lat":"15.45","long":"-15.1"}},{"country":"sn","city":"Ardoulaye","coordinates":{"lat":"13.4833333","long":"-13.4666667"}},{"country":"sn","city":"Arigabo","coordinates":{"lat":"14.4","long":"-12.4666667"}},{"country":"sn","city":"Arnali","coordinates":{"lat":"15.75","long":"-15.25"}},{"country":"sn","city":"Aroundou","coordinates":{"lat":"14.7666667","long":"-12.25"}},{"country":"sn","city":"As","coordinates":{"lat":"16.6","long":"-14.9666667"}},{"country":"sn","city":"Assane","coordinates":{"lat":"14.95","long":"-16.7666667"}},{"country":"sn","city":"Assoumoune","coordinates":{"lat":"12.4719444","long":"-15.7463889"}},{"country":"sn","city":"Atadialama","coordinates":{"lat":"12.5858333","long":"-16.7544444"}},{"country":"sn","city":"Atak","coordinates":{"lat":"12.6666667","long":"-12.4666667"}},{"country":"sn","city":"Até Ndiaye","coordinates":{"lat":"14.35","long":"-15.85"}},{"country":"sn","city":"Atiou","coordinates":{"lat":"14.3","long":"-15.95"}},{"country":"sn","city":"Atioum","coordinates":{"lat":"12.6747222","long":"-16.0727778"}},{"country":"sn","city":"Atouré","coordinates":{"lat":"12.4927778","long":"-16.3158333"}},{"country":"sn","city":"Awataba","coordinates":{"lat":"12.9833333","long":"-14.2"}},{"country":"sn","city":"Ayénémadi","coordinates":{"lat":"13.1333333","long":"-13.6666667"}},{"country":"sn","city":"Aye Noumad","coordinates":{"lat":"14.4","long":"-15.75"}},{"country":"sn","city":"Aye Noumane","coordinates":{"lat":"14.4666667","long":"-15.7333333"}},{"country":"sn","city":"Ayméroua","coordinates":{"lat":"15.4666667","long":"-15.6333333"}},{"country":"sn","city":"Aynoumal","coordinates":{"lat":"15.85","long":"-16.0"}},{"country":"sn","city":"Ayoum","coordinates":{"lat":"12.4538889","long":"-16.5344444"}},{"country":"sn","city":"Ayoume","coordinates":{"lat":"12.4538889","long":"-16.5344444"}},{"country":"sn","city":"Ayoun","coordinates":{"lat":"12.4538889","long":"-16.5344444"}},{"country":"sn","city":"Ayoune","coordinates":{"lat":"12.4538889","long":"-16.5344444"}},{"country":"sn","city":"Baandofari","coordinates":{"lat":"12.8","long":"-12.2666667"}},{"country":"sn","city":"Bababé","coordinates":{"lat":"14.2166667","long":"-12.3833333"}},{"country":"sn","city":"Babadi","coordinates":{"lat":"12.8563889","long":"-15.5"}},{"country":"sn","city":"Baba Galé","coordinates":{"lat":"13.6833333","long":"-13.65"}},{"country":"sn","city":"Baba-Garage","coordinates":{"lat":"14.95","long":"-16.4833333"}},{"country":"sn","city":"Baba Gaye","coordinates":{"lat":"14.9833333","long":"-16.0833333"}},{"country":"sn","city":"Babak","coordinates":{"lat":"14.6666667","long":"-16.5333333"}},{"country":"sn","city":"Babak","coordinates":{"lat":"14.7166667","long":"-16.9"}},{"country":"sn","city":"Babali","coordinates":{"lat":"13.8","long":"-16.55"}},{"country":"sn","city":"Babane","coordinates":{"lat":"14.4833333","long":"-15.2666667"}},{"country":"sn","city":"Babanèm","coordinates":{"lat":"14.2166667","long":"-15.3833333"}},{"country":"sn","city":"Babane Ouolof","coordinates":{"lat":"14.4833333","long":"-15.2666667"}},{"country":"sn","city":"Babar","coordinates":{"lat":"14.7166667","long":"-15.9333333"}},{"country":"sn","city":"Babate","coordinates":{"lat":"14.6666667","long":"-16.5333333"}},{"country":"sn","city":"Babate","coordinates":{"lat":"12.7005556","long":"-16.0586111"}},{"country":"sn","city":"Bab","coordinates":{"lat":"12.6666667","long":"-12.4833333"}},{"country":"sn","city":"Babel","coordinates":{"lat":"12.6666667","long":"-12.4833333"}},{"country":"sn","city":"Babèl Féra","coordinates":{"lat":"14.6833333","long":"-15.9333333"}},{"country":"sn","city":"Babine Tiakré","coordinates":{"lat":"14.7","long":"-16.7666667"}},{"country":"sn","city":"Babinguél","coordinates":{"lat":"14.65","long":"-13.3166667"}},{"country":"sn","city":"Babinnguel","coordinates":{"lat":"14.65","long":"-13.3166667"}},{"country":"sn","city":"Babira","coordinates":{"lat":"12.8808333","long":"-15.715"}},{"country":"sn","city":"Ba Bleul","coordinates":{"lat":"14.7666667","long":"-16.3333333"}},{"country":"sn","city":"Bablol","coordinates":{"lat":"14.7666667","long":"-16.3333333"}},{"country":"sn","city":"Babonda","coordinates":{"lat":"12.4327778","long":"-16.2708333"}},{"country":"sn","city":"Babongoulou","coordinates":{"lat":"14.9666667","long":"-12.7333333"}},{"country":"sn","city":"Babou","coordinates":{"lat":"14.8","long":"-16.75"}},{"country":"sn","city":"Babou","coordinates":{"lat":"13.6833333","long":"-15.7"}},{"country":"sn","city":"Baboue","coordinates":{"lat":"15.4833333","long":"-16.2833333"}},{"country":"sn","city":"Babou Naïm","coordinates":{"lat":"14.5333333","long":"-15.8333333"}},{"country":"sn","city":"Babouni","coordinates":{"lat":"14.2333333","long":"-16.0"}},{"country":"sn","city":"Bab Sar","coordinates":{"lat":"14.4166667","long":"-15.7166667"}},{"country":"sn","city":"Back","coordinates":{"lat":"14.2","long":"-16.0166667"}},{"country":"sn","city":"Badagar","coordinates":{"lat":"12.85","long":"-16.2833333"}},{"country":"sn","city":"Badam","coordinates":{"lat":"14.65","long":"-16.7"}},{"country":"sn","city":"Badar","coordinates":{"lat":"15.0166667","long":"-16.4666667"}},{"country":"sn","city":"Badar","coordinates":{"lat":"15.4333333","long":"-16.45"}},{"country":"sn","city":"Badar Diaye","coordinates":{"lat":"15.5166667","long":"-16.3333333"}},{"country":"sn","city":"Badar Ndaye","coordinates":{"lat":"15.5833333","long":"-16.3666667"}},{"country":"sn","city":"Badate","coordinates":{"lat":"14.5333333","long":"-16.35"}},{"country":"sn","city":"Baddar","coordinates":{"lat":"15.0166667","long":"-16.4666667"}},{"country":"sn","city":"Baddéme","coordinates":{"lat":"15.5833333","long":"-16.25"}},{"country":"sn","city":"Badèm","coordinates":{"lat":"15.5833333","long":"-16.25"}},{"country":"sn","city":"Badem","coordinates":{"lat":"12.4541667","long":"-16.3122222"}},{"country":"sn","city":"Badèm Ouolof","coordinates":{"lat":"15.8147222","long":"-16.36"}},{"country":"sn","city":"Badène","coordinates":{"lat":"12.4541667","long":"-16.3122222"}},{"country":"sn","city":"Badiama","coordinates":{"lat":"12.9161111","long":"-16.4380556"}},{"country":"sn","city":"Badiana","coordinates":{"lat":"12.9161111","long":"-16.4380556"}},{"country":"sn","city":"Badiandian","coordinates":{"lat":"12.7083333","long":"-15.5883333"}},{"country":"sn","city":"Badiandoum","coordinates":{"lat":"13.3","long":"-15.4666667"}},{"country":"sn","city":"Badiane","coordinates":{"lat":"14.8333333","long":"-15.8333333"}},{"country":"sn","city":"Badiane","coordinates":{"lat":"15.1","long":"-15.8666667"}},{"country":"sn","city":"Badiane Nèm","coordinates":{"lat":"14.6166667","long":"-15.75"}},{"country":"sn","city":"Badiaol","coordinates":{"lat":"12.7344444","long":"-16.3308333"}},{"country":"sn","city":"Badiara","coordinates":{"lat":"13.2166667","long":"-14.2"}},{"country":"sn","city":"Badiari","coordinates":{"lat":"12.6252778","long":"-15.5647222"}},{"country":"sn","city":"Badiat","coordinates":{"lat":"12.5180556","long":"-16.3852778"}},{"country":"sn","city":"Badi","coordinates":{"lat":"13.15","long":"-13.2333333"}},{"country":"sn","city":"Badié","coordinates":{"lat":"12.45","long":"-11.55"}},{"country":"sn","city":"Badié Kad","coordinates":{"lat":"14.75","long":"-16.4"}},{"country":"sn","city":"Badiéléli","coordinates":{"lat":"12.9394444","long":"-16.5186111"}},{"country":"sn","city":"Badiene","coordinates":{"lat":"13.7","long":"-16.1166667"}},{"country":"sn","city":"Badimbou","coordinates":{"lat":"13.1","long":"-15.7"}},{"country":"sn","city":"Badimbour","coordinates":{"lat":"13.1","long":"-15.7"}},{"country":"sn","city":"Badindin","coordinates":{"lat":"13.1166667","long":"-15.3833333"}},{"country":"sn","city":"Badinnding","coordinates":{"lat":"12.6305556","long":"-15.4452778"}},{"country":"sn","city":"Badioal","coordinates":{"lat":"12.7344444","long":"-16.3308333"}},{"country":"sn","city":"Badio","coordinates":{"lat":"13.9666667","long":"-16.0833333"}},{"country":"sn","city":"Badion","coordinates":{"lat":"13.0833333","long":"-14.35"}},{"country":"sn","city":"Badiongo","coordinates":{"lat":"12.4525","long":"-15.9530556"}},{"country":"sn","city":"Badionkoto","coordinates":{"lat":"12.49","long":"-16.2455556"}},{"country":"sn","city":"Badionkoton","coordinates":{"lat":"12.4997222","long":"-16.3836111"}},{"country":"sn","city":"Badiou Batan","coordinates":{"lat":"12.75","long":"-13.85"}},{"country":"sn","city":"Badiouré","coordinates":{"lat":"12.8772222","long":"-16.1388889"}},{"country":"sn","city":"Badji","coordinates":{"lat":"14.8333333","long":"-15.5666667"}},{"country":"sn","city":"Badji Boko Roko","coordinates":{"lat":"14.8666667","long":"-15.5666667"}},{"country":"sn","city":"Badjicounda","coordinates":{"lat":"13.25","long":"-15.7666667"}},{"country":"sn","city":"Badjikounda","coordinates":{"lat":"12.6822222","long":"-15.86"}},{"country":"sn","city":"Badjikounda Baïnouk","coordinates":{"lat":"12.6822222","long":"-15.86"}},{"country":"sn","city":"Badjimor","coordinates":{"lat":"12.6830556","long":"-15.5666667"}},{"country":"sn","city":"Badobar","coordinates":{"lat":"12.5911111","long":"-15.5108333"}},{"country":"sn","city":"Badogor Boki","coordinates":{"lat":"15.7833333","long":"-14.4166667"}},{"country":"sn","city":"Badogor Doun","coordinates":{"lat":"15.7833333","long":"-14.5166667"}},{"country":"sn","city":"Badogor Doune","coordinates":{"lat":"15.7833333","long":"-14.5166667"}},{"country":"sn","city":"Badon","coordinates":{"lat":"12.9166667","long":"-12.3833333"}},{"country":"sn","city":"Badou","coordinates":{"lat":"12.9166667","long":"-12.3833333"}},{"country":"sn","city":"Badouga","coordinates":{"lat":"12.8247222","long":"-15.4994444"}},{"country":"sn","city":"Badoumba Diaé","coordinates":{"lat":"13.2","long":"-15.7333333"}},{"country":"sn","city":"Badoumba Kéréouane","coordinates":{"lat":"13.2166667","long":"-15.7333333"}},{"country":"sn","city":"Badoumba Mamadou","coordinates":{"lat":"13.1833333","long":"-15.7166667"}},{"country":"sn","city":"Badtionkoto Komboli","coordinates":{"lat":"13.1166667","long":"-16.2833333"}},{"country":"sn","city":"Bady","coordinates":{"lat":"13.15","long":"-13.2333333"}},{"country":"sn","city":"Bae","coordinates":{"lat":"14.0166667","long":"-16.4166667"}},{"country":"sn","city":"Bafabantan","coordinates":{"lat":"12.9761111","long":"-15.6958333"}},{"country":"sn","city":"Bafaï Labok","coordinates":{"lat":"14.4333333","long":"-16.4166667"}},{"country":"sn","city":"Bafara Diala","coordinates":{"lat":"14.0166667","long":"-16.1"}},{"country":"sn","city":"Bafata","coordinates":{"lat":"12.4644444","long":"-15.8313889"}},{"country":"sn","city":"Bafata Balant","coordinates":{"lat":"12.4644444","long":"-15.8313889"}},{"country":"sn","city":"Bafaye","coordinates":{"lat":"14.7","long":"-16.5833333"}},{"country":"sn","city":"Bafaye","coordinates":{"lat":"14.1833333","long":"-15.9333333"}},{"country":"sn","city":"Bafèl","coordinates":{"lat":"14.1833333","long":"-15.9"}},{"country":"sn","city":"Bafikane","coordinates":{"lat":"12.4705556","long":"-16.4041667"}},{"country":"sn","city":"Bafoundou","coordinates":{"lat":"12.8333333","long":"-12.35"}},{"country":"sn","city":"Bagadadji","coordinates":{"lat":"13.2333333","long":"-13.4833333"}},{"country":"sn","city":"Bagadadji","coordinates":{"lat":"13.6502778","long":"-16.4927778"}},{"country":"sn","city":"Bagadadji","coordinates":{"lat":"12.6447222","long":"-15.6641667"}},{"country":"sn","city":"Bagaga","coordinates":{"lat":"12.6869444","long":"-16.2958333"}},{"country":"sn","city":"Bagam","coordinates":{"lat":"16.4833333","long":"-15.7833333"}},{"country":"sn","city":"Bagam","coordinates":{"lat":"12.4102778","long":"-16.3161111"}},{"country":"sn","city":"Bagame","coordinates":{"lat":"12.4102778","long":"-16.3161111"}},{"country":"sn","city":"Bagana","coordinates":{"lat":"14.1833333","long":"-16.75"}},{"country":"sn","city":"Bagana","coordinates":{"lat":"14.1166667","long":"-15.6333333"}},{"country":"sn","city":"Baganga","coordinates":{"lat":"12.7333333","long":"-15.9833333"}},{"country":"sn","city":"Baganga","coordinates":{"lat":"12.6","long":"-16.05"}},{"country":"sn","city":"Baganha","coordinates":{"lat":"12.6063889","long":"-16.0558333"}},{"country":"sn","city":"Bagata","coordinates":{"lat":"12.45","long":"-11.5"}},{"country":"sn","city":"Bagaya","coordinates":{"lat":"12.7305556","long":"-16.4"}},{"country":"sn","city":"Bagayogo","coordinates":{"lat":"13.9","long":"-13.4333333"}},{"country":"sn","city":"Bag Dobé","coordinates":{"lat":"15.9666667","long":"-14.65"}},{"country":"sn","city":"Baghanga","coordinates":{"lat":"12.7333333","long":"-15.9833333"}},{"country":"sn","city":"Bagni Bagni","coordinates":{"lat":"12.9333333","long":"-11.65"}},{"country":"sn","city":"Bagnonba","coordinates":{"lat":"12.7166667","long":"-12.3666667"}},{"country":"sn","city":"Bagnou-Bagnou","coordinates":{"lat":"12.9333333","long":"-11.65"}},{"country":"sn","city":"Bagny-Bagny","coordinates":{"lat":"12.9333333","long":"-11.65"}},{"country":"sn","city":"Bagone","coordinates":{"lat":"15.9333333","long":"-13.7166667"}},{"country":"sn","city":"Bahanga","coordinates":{"lat":"12.8833333","long":"-16.0833333"}},{"country":"sn","city":"Baharé","coordinates":{"lat":"12.7666667","long":"-12.8833333"}},{"country":"sn","city":"Bahiré Foula","coordinates":{"lat":"12.5666667","long":"-12.65"}},{"country":"sn","city":"Bahis Sek","coordinates":{"lat":"15.5666667","long":"-16.35"}},{"country":"sn","city":"Baï Dialo","coordinates":{"lat":"15.2","long":"-16.6833333"}},{"country":"sn","city":"Baieti","coordinates":{"lat":"14.0166667","long":"-15.65"}},{"country":"sn","city":"Baïla","coordinates":{"lat":"14.7833333","long":"-15.7333333"}},{"country":"sn","city":"Baïla","coordinates":{"lat":"12.8941667","long":"-16.3522222"}},{"country":"sn","city":"Baïlar","coordinates":{"lat":"13.9666667","long":"-16.0333333"}},{"country":"sn","city":"Baili Ouamédaka","coordinates":{"lat":"13.3666667","long":"-12.5833333"}},{"country":"sn","city":"Baïnack","coordinates":{"lat":"15.7166667","long":"-16.25"}},{"country":"sn","city":"Baïnak","coordinates":{"lat":"15.7166667","long":"-16.25"}},{"country":"sn","city":"Bainouk","coordinates":{"lat":"12.55","long":"-16.3"}},{"country":"sn","city":"Baipoum","coordinates":{"lat":"13.165","long":"-16.1169444"}},{"country":"sn","city":"Baïrat","coordinates":{"lat":"15.75","long":"-16.1666667"}},{"country":"sn","city":"Baïsso","coordinates":{"lat":"12.7333333","long":"-12.35"}},{"country":"sn","city":"Baïti","coordinates":{"lat":"14.5833333","long":"-16.2333333"}},{"country":"sn","city":"Baïti","coordinates":{"lat":"15.2166667","long":"-16.7333333"}},{"country":"sn","city":"Baïti","coordinates":{"lat":"15.3833333","long":"-16.5666667"}},{"country":"sn","city":"Baïti","coordinates":{"lat":"13.5833333","long":"-16.2333333"}},{"country":"sn","city":"Baïti","coordinates":{"lat":"13.8333333","long":"-15.1333333"}},{"country":"sn","city":"Baïti Bakar","coordinates":{"lat":"14.9666667","long":"-16.95"}},{"country":"sn","city":"Baïti Dia","coordinates":{"lat":"14.6333333","long":"-15.95"}},{"country":"sn","city":"Baïti Dièye","coordinates":{"lat":"15.8833333","long":"-16.3833333"}},{"country":"sn","city":"Baïti Diouf","coordinates":{"lat":"15.2166667","long":"-16.7333333"}},{"country":"sn","city":"Baïti Gaye","coordinates":{"lat":"15.1166667","long":"-16.5666667"}},{"country":"sn","city":"Baïti Gueye","coordinates":{"lat":"15.0","long":"-16.9166667"}},{"country":"sn","city":"Baïtilaye","coordinates":{"lat":"12.7","long":"-11.6833333"}},{"country":"sn","city":"Baïti Ndiaye","coordinates":{"lat":"15.3833333","long":"-16.5666667"}},{"country":"sn","city":"Baïti Sali","coordinates":{"lat":"14.9666667","long":"-16.7"}},{"country":"sn","city":"Baïtit","coordinates":{"lat":"14.0166667","long":"-15.65"}},{"country":"sn","city":"Baïti Tiokène","coordinates":{"lat":"15.1833333","long":"-16.1833333"}},{"country":"sn","city":"Baïty","coordinates":{"lat":"15.8833333","long":"-16.3833333"}},{"country":"sn","city":"Bajiran","coordinates":{"lat":"13.1627778","long":"-16.6113889"}},{"country":"sn","city":"Bakadadji","coordinates":{"lat":"13.2333333","long":"-13.4833333"}},{"country":"sn","city":"Bakadadji","coordinates":{"lat":"13.6502778","long":"-16.4927778"}},{"country":"sn","city":"Bakadaji","coordinates":{"lat":"13.0333333","long":"-15.6"}},{"country":"sn","city":"Bakakak","coordinates":{"lat":"14.6","long":"-16.4833333"}},{"country":"sn","city":"Bakalou","coordinates":{"lat":"13.8705556","long":"-16.5811111"}},{"country":"sn","city":"Bakao","coordinates":{"lat":"16.5833333","long":"-15.1"}},{"country":"sn","city":"Bakaouka","coordinates":{"lat":"12.5166667","long":"-12.7833333"}},{"country":"sn","city":"Bakapoum","coordinates":{"lat":"14.6333333","long":"-16.55"}},{"country":"sn","city":"Bakari Sal","coordinates":{"lat":"15.5","long":"-16.3833333"}},{"country":"sn","city":"Bakayoko","coordinates":{"lat":"13.2166667","long":"-14.15"}},{"country":"sn","city":"Bak","coordinates":{"lat":"14.2","long":"-16.0166667"}},{"country":"sn","city":"Bakbous","coordinates":{"lat":"14.6666667","long":"-16.4"}},{"country":"sn","city":"Bak Dior","coordinates":{"lat":"14.2833333","long":"-16.05"}},{"country":"sn","city":"Baké","coordinates":{"lat":"15.1666667","long":"-15.6166667"}},{"country":"sn","city":"Bakel","coordinates":{"lat":"14.9","long":"-12.45"}},{"country":"sn","city":"Bakem","coordinates":{"lat":"14.4166667","long":"-16.6166667"}},{"country":"sn","city":"Bakésaloum","coordinates":{"lat":"13.7166667","long":"-15.8333333"}},{"country":"sn","city":"Bakhalou","coordinates":{"lat":"13.8705556","long":"-16.5811111"}},{"country":"sn","city":"Bakhane","coordinates":{"lat":"14.5666667","long":"-16.4"}},{"country":"sn","city":"Bakhao","coordinates":{"lat":"16.5833333","long":"-15.1"}},{"country":"sn","city":"Bakhda","coordinates":{"lat":"15.85","long":"-16.15"}},{"country":"sn","city":"Bakhère","coordinates":{"lat":"15.4666667","long":"-16.3166667"}},{"country":"sn","city":"Bakhès","coordinates":{"lat":"15.3","long":"-16.35"}},{"country":"sn","city":"Bakhès","coordinates":{"lat":"15.2833333","long":"-16.2333333"}},{"country":"sn","city":"Bakhis","coordinates":{"lat":"15.3","long":"-16.35"}},{"country":"sn","city":"Baki","coordinates":{"lat":"14.7833333","long":"-15.9833333"}},{"country":"sn","city":"Baki Baki","coordinates":{"lat":"12.6833333","long":"-13.1"}},{"country":"sn","city":"Bakindik","coordinates":{"lat":"13.5963889","long":"-16.4841667"}},{"country":"sn","city":"Bakmbousse","coordinates":{"lat":"14.6666667","long":"-16.4"}},{"country":"sn","city":"Bako","coordinates":{"lat":"14.0","long":"-15.2666667"}},{"country":"sn","city":"Bakonou","coordinates":{"lat":"12.45","long":"-16.4166667"}},{"country":"sn","city":"Bakopone","coordinates":{"lat":"14.6333333","long":"-16.55"}},{"country":"sn","city":"Bakor","coordinates":{"lat":"12.9666667","long":"-14.7333333"}},{"country":"sn","city":"Bakoudièm","coordinates":{"lat":"14.55","long":"-16.2833333"}},{"country":"sn","city":"Bakoum","coordinates":{"lat":"12.7211111","long":"-15.5627778"}},{"country":"sn","city":"Bakoundi","coordinates":{"lat":"12.5666667","long":"-15.85"}},{"country":"sn","city":"Bakoundième","coordinates":{"lat":"14.55","long":"-16.2833333"}},{"country":"sn","city":"Bakounou","coordinates":{"lat":"12.45","long":"-16.4166667"}},{"country":"sn","city":"Bakouré","coordinates":{"lat":"14.8166667","long":"-15.7833333"}},{"country":"sn","city":"Bakous","coordinates":{"lat":"13.7363889","long":"-16.6080556"}},{"country":"sn","city":"Bakrère","coordinates":{"lat":"15.4666667","long":"-16.3166667"}},{"country":"sn","city":"Bala","coordinates":{"lat":"16.5","long":"-14.9333333"}},{"country":"sn","city":"Bala","coordinates":{"lat":"13.6333333","long":"-13.1"}},{"country":"sn","city":"Bala","coordinates":{"lat":"13.1","long":"-16.1666667"}},{"country":"sn","city":"Bala Bassène","coordinates":{"lat":"13.0666667","long":"-16.2"}},{"country":"sn","city":"Balabou","coordinates":{"lat":"14.35","long":"-16.8166667"}},{"country":"sn","city":"Balabougou","coordinates":{"lat":"14.35","long":"-16.8166667"}},{"country":"sn","city":"Bala Diaye","coordinates":{"lat":"14.95","long":"-15.8"}},{"country":"sn","city":"Bala Diobène","coordinates":{"lat":"14.9666667","long":"-15.8"}},{"country":"sn","city":"Bala Foulbé","coordinates":{"lat":"13.6333333","long":"-13.1"}},{"country":"sn","city":"Bala Guirène","coordinates":{"lat":"13.0666667","long":"-16.1833333"}},{"country":"sn","city":"Balakhat","coordinates":{"lat":"14.5333333","long":"-16.7"}},{"country":"sn","city":"Balakonko","coordinates":{"lat":"13.1333333","long":"-11.7"}},{"country":"sn","city":"Balakounda","coordinates":{"lat":"12.7333333","long":"-14.1666667"}},{"country":"sn","city":"Balala","coordinates":{"lat":"12.95","long":"-15.9333333"}},{"country":"sn","city":"Balal","coordinates":{"lat":"15.55","long":"-15.2833333"}},{"country":"sn","city":"Balam Boulou","coordinates":{"lat":"13.5833333","long":"-13.15"}},{"country":"sn","city":"Bala Mérétaol","coordinates":{"lat":"14.1","long":"-13.6833333"}},{"country":"sn","city":"Balandé","coordinates":{"lat":"15.7666667","long":"-15.9166667"}},{"country":"sn","city":"Bala Ndiaye","coordinates":{"lat":"15.1","long":"-15.9333333"}},{"country":"sn","city":"Balandin","coordinates":{"lat":"13.0166667","long":"-16.3"}},{"country":"sn","city":"Balandine","coordinates":{"lat":"13.0166667","long":"-16.3"}},{"country":"sn","city":"Balandor","coordinates":{"lat":"12.7452778","long":"-16.0480556"}},{"country":"sn","city":"Balankine","coordinates":{"lat":"12.7166667","long":"-16.05"}},{"country":"sn","city":"Balankine Sud","coordinates":{"lat":"12.8891667","long":"-15.9861111"}},{"country":"sn","city":"Bala Ougono","coordinates":{"lat":"13.1","long":"-16.1666667"}},{"country":"sn","city":"Bala Ougonor","coordinates":{"lat":"13.1","long":"-16.1666667"}},{"country":"sn","city":"Bala Palène","coordinates":{"lat":"14.9333333","long":"-15.8333333"}},{"country":"sn","city":"Balardine","coordinates":{"lat":"13.0166667","long":"-16.3"}},{"country":"sn","city":"Bal","coordinates":{"lat":"14.25","long":"-14.5166667"}},{"country":"sn","city":"Bal","coordinates":{"lat":"15.05","long":"-16.9333333"}},{"country":"sn","city":"Balboto","coordinates":{"lat":"15.3666667","long":"-16.35"}},{"country":"sn","city":"Baldi Kayol","coordinates":{"lat":"14.5333333","long":"-12.9"}},{"country":"sn","city":"Balel","coordinates":{"lat":"15.2666667","long":"-12.9"}},{"country":"sn","city":"Balel Sala","coordinates":{"lat":"15.4333333","long":"-15.1333333"}},{"country":"sn","city":"Balel Sissé","coordinates":{"lat":"15.4333333","long":"-15.15"}},{"country":"sn","city":"Balénia","coordinates":{"lat":"12.9","long":"-16.2833333"}},{"country":"sn","city":"Balénian","coordinates":{"lat":"13.0333333","long":"-16.1833333"}},{"country":"sn","city":"Baléou","coordinates":{"lat":"12.7811111","long":"-16.3438889"}},{"country":"sn","city":"Bal Gaye","coordinates":{"lat":"15.05","long":"-16.9333333"}},{"country":"sn","city":"Balian","coordinates":{"lat":"12.9388889","long":"-16.2291667"}},{"country":"sn","city":"Baliar","coordinates":{"lat":"12.9388889","long":"-16.2291667"}},{"country":"sn","city":"Bali","coordinates":{"lat":"13.9833333","long":"-15.3666667"}},{"country":"sn","city":"Balib","coordinates":{"lat":"12.7833333","long":"-16.2166667"}},{"country":"sn","city":"Baliga","coordinates":{"lat":"14.9","long":"-16.8833333"}},{"country":"sn","city":"Balig","coordinates":{"lat":"14.9","long":"-16.8833333"}},{"country":"sn","city":"Bali Guéli","coordinates":{"lat":"15.35","long":"-15.4333333"}},{"country":"sn","city":"Baline","coordinates":{"lat":"12.9191667","long":"-16.4588889"}},{"country":"sn","city":"Balingor","coordinates":{"lat":"12.5166667","long":"-15.9333333"}},{"country":"sn","city":"Balingor","coordinates":{"lat":"12.7752778","long":"-16.3566667"}},{"country":"sn","city":"Balingoré","coordinates":{"lat":"12.7752778","long":"-16.3566667"}},{"country":"sn","city":"Balingor Mankagne","coordinates":{"lat":"12.5166667","long":"-15.9333333"}},{"country":"sn","city":"Baliniam","coordinates":{"lat":"12.9","long":"-16.2833333"}},{"country":"sn","city":"Bali Roto","coordinates":{"lat":"15.45","long":"-15.3833333"}},{"country":"sn","city":"Balkam","coordinates":{"lat":"14.55","long":"-16.6166667"}},{"country":"sn","city":"Balkamissa","coordinates":{"lat":"13.1666667","long":"-15.0166667"}},{"country":"sn","city":"Balli","coordinates":{"lat":"15.45","long":"-15.3833333"}},{"country":"sn","city":"Bally","coordinates":{"lat":"15.45","long":"-15.3833333"}},{"country":"sn","city":"Balmadou","coordinates":{"lat":"12.6233333","long":"-15.8591667"}},{"country":"sn","city":"Bal Mayata","coordinates":{"lat":"14.25","long":"-14.5166667"}},{"country":"sn","city":"Balo Counda","coordinates":{"lat":"12.7","long":"-14.7"}},{"country":"sn","city":"Balocounda","coordinates":{"lat":"12.9333333","long":"-14.2"}},{"country":"sn","city":"Balo Counda","coordinates":{"lat":"13.15","long":"-13.9"}},{"country":"sn","city":"Balodji","coordinates":{"lat":"14.9666667","long":"-15.7666667"}},{"country":"sn","city":"Balo Kounda","coordinates":{"lat":"12.7","long":"-14.7"}},{"country":"sn","city":"Balokounda","coordinates":{"lat":"12.9333333","long":"-14.2"}},{"country":"sn","city":"Balo Kounda","coordinates":{"lat":"13.15","long":"-13.9"}},{"country":"sn","city":"Balokounda","coordinates":{"lat":"13.3333333","long":"-13.7833333"}},{"country":"sn","city":"Balol","coordinates":{"lat":"14.7166667","long":"-15.7666667"}},{"country":"sn","city":"Balolle","coordinates":{"lat":"14.7166667","long":"-15.7666667"}},{"country":"sn","city":"Balonguine","coordinates":{"lat":"12.9744444","long":"-16.4186111"}},{"country":"sn","city":"Balori","coordinates":{"lat":"12.6166667","long":"-11.8166667"}},{"country":"sn","city":"Balta","coordinates":{"lat":"15.6666667","long":"-16.4833333"}},{"country":"sn","city":"Bamadoukounda","coordinates":{"lat":"13.7833333","long":"-13.9666667"}},{"country":"sn","city":"Bamaki","coordinates":{"lat":"13.2333333","long":"-13.25"}},{"country":"sn","city":"Bamako","coordinates":{"lat":"12.8666667","long":"-14.0833333"}},{"country":"sn","city":"Bamakounda","coordinates":{"lat":"12.6405556","long":"-15.5913889"}},{"country":"sn","city":"Bamba","coordinates":{"lat":"13.8","long":"-14.6166667"}},{"country":"sn","city":"Bamba","coordinates":{"lat":"13.7333333","long":"-15.7333333"}},{"country":"sn","city":"Bambadala","coordinates":{"lat":"13.2666667","long":"-13.4166667"}},{"country":"sn","city":"Bambadala","coordinates":{"lat":"13.7","long":"-16.3"}},{"country":"sn","city":"Bambadala","coordinates":{"lat":"13.3333333","long":"-15.4833333"}},{"country":"sn","city":"Bambadala Kontène","coordinates":{"lat":"13.7166667","long":"-16.3"}},{"country":"sn","city":"Bambadala Tiako","coordinates":{"lat":"13.7","long":"-16.3"}},{"country":"sn","city":"Bambadinka","coordinates":{"lat":"13.5666667","long":"-13.4166667"}},{"country":"sn","city":"Bambako","coordinates":{"lat":"13.5","long":"-12.15"}},{"country":"sn","city":"Bambali","coordinates":{"lat":"13.85","long":"-15.55"}},{"country":"sn","city":"Bambali","coordinates":{"lat":"12.6030556","long":"-15.6605556"}},{"country":"sn","city":"Bam","coordinates":{"lat":"15.1166667","long":"-15.85"}},{"country":"sn","city":"Bamba Mamadou","coordinates":{"lat":"13.8666667","long":"-15.2333333"}},{"country":"sn","city":"Bamba Moussa","coordinates":{"lat":"13.8333333","long":"-15.25"}},{"country":"sn","city":"Bambara","coordinates":{"lat":"14.7647222","long":"-17.0636111"}},{"country":"sn","city":"Bambarakounda","coordinates":{"lat":"13.1","long":"-15.5666667"}},{"country":"sn","city":"Bambaraya","coordinates":{"lat":"13.1166667","long":"-12.0833333"}},{"country":"sn","city":"Bam Baré","coordinates":{"lat":"15.0","long":"-15.9666667"}},{"country":"sn","city":"Bambato","coordinates":{"lat":"12.5","long":"-15.55"}},{"country":"sn","city":"Bamb","coordinates":{"lat":"14.7833333","long":"-16.2833333"}},{"country":"sn","city":"Bambe","coordinates":{"lat":"14.7833333","long":"-16.2833333"}},{"country":"sn","city":"Bambey","coordinates":{"lat":"14.7","long":"-16.4666667"}},{"country":"sn","city":"Bambilor","coordinates":{"lat":"14.8019444","long":"-17.1866667"}},{"country":"sn","city":"Bambli","coordinates":{"lat":"14.7833333","long":"-16.5333333"}},{"country":"sn","city":"Bambodinnka","coordinates":{"lat":"12.75","long":"-14.55"}},{"country":"sn","city":"Bamboung","coordinates":{"lat":"13.8347222","long":"-16.5394444"}},{"country":"sn","city":"Bamboye","coordinates":{"lat":"14.7","long":"-16.9333333"}},{"country":"sn","city":"Bam Djigane","coordinates":{"lat":"14.3833333","long":"-15.8333333"}},{"country":"sn","city":"Bamgol","coordinates":{"lat":"14.9833333","long":"-15.5166667"}},{"country":"sn","city":"Bamhouamé","coordinates":{"lat":"15.4666667","long":"-15.7166667"}},{"country":"sn","city":"Bampana","coordinates":{"lat":"14.85","long":"-16.6333333"}},{"country":"sn","city":"Bana Daniédio","coordinates":{"lat":"14.1","long":"-13.6833333"}},{"country":"sn","city":"Bana Daniédo","coordinates":{"lat":"14.1","long":"-13.6833333"}},{"country":"sn","city":"Banadié","coordinates":{"lat":"15.3666667","long":"-13.1333333"}},{"country":"sn","city":"Banane","coordinates":{"lat":"14.7166667","long":"-15.9"}},{"country":"sn","city":"Banane","coordinates":{"lat":"14.7666667","long":"-15.6"}},{"country":"sn","city":"Banani","coordinates":{"lat":"14.7166667","long":"-15.9"}},{"country":"sn","city":"Banankourou","coordinates":{"lat":"13.05","long":"-14.2333333"}},{"country":"sn","city":"Banaye","coordinates":{"lat":"14.7166667","long":"-15.9666667"}},{"country":"sn","city":"Banba","coordinates":{"lat":"13.8","long":"-14.6166667"}},{"country":"sn","city":"Banbadala","coordinates":{"lat":"12.6880556","long":"-15.3105556"}},{"country":"sn","city":"Banbadinnka","coordinates":{"lat":"12.75","long":"-14.55"}},{"country":"sn","city":"Banbadinnka","coordinates":{"lat":"12.5119444","long":"-16.1819444"}},{"country":"sn","city":"Banbadion","coordinates":{"lat":"12.7841667","long":"-15.5027778"}},{"country":"sn","city":"Banbadji","coordinates":{"lat":"12.8333333","long":"-11.5"}},{"country":"sn","city":"Banbali","coordinates":{"lat":"12.6030556","long":"-15.6605556"}},{"country":"sn","city":"Banbilor","coordinates":{"lat":"14.8019444","long":"-17.1866667"}},{"country":"sn","city":"Banboye","coordinates":{"lat":"12.4666667","long":"-12.0333333"}},{"country":"sn","city":"Banda","coordinates":{"lat":"15.2666667","long":"-16.0333333"}},{"country":"sn","city":"Banda","coordinates":{"lat":"14.1333333","long":"-15.7166667"}},{"country":"sn","city":"Bandafassi","coordinates":{"lat":"12.5333333","long":"-12.3166667"}},{"country":"sn","city":"Bandanba","coordinates":{"lat":"12.5166667","long":"-12.3833333"}},{"country":"sn","city":"Bandandar","coordinates":{"lat":"14.0333333","long":"-16.3166667"}},{"country":"sn","city":"Bandandare","coordinates":{"lat":"14.0333333","long":"-16.3166667"}},{"country":"sn","city":"Band","coordinates":{"lat":"14.1333333","long":"-15.7166667"}},{"country":"sn","city":"Bandia Bambara","coordinates":{"lat":"14.6152778","long":"-17.0175"}},{"country":"sn","city":"Bandia","coordinates":{"lat":"14.625","long":"-17.0286111"}},{"country":"sn","city":"Bandiaia","coordinates":{"lat":"13.6611111","long":"-16.5738889"}},{"country":"sn","city":"Bandiala","coordinates":{"lat":"13.6611111","long":"-16.5738889"}},{"country":"sn","city":"Bandial","coordinates":{"lat":"12.5808333","long":"-16.4830556"}},{"country":"sn","city":"Bandia Sessène","coordinates":{"lat":"14.625","long":"-17.0286111"}},{"country":"sn","city":"Bandiciraïla","coordinates":{"lat":"12.8","long":"-11.7333333"}},{"country":"sn","city":"Bandio","coordinates":{"lat":"13.7833333","long":"-16.5"}},{"country":"sn","city":"Bandioula","coordinates":{"lat":"12.8333333","long":"-11.8"}},{"country":"sn","city":"Bandioul Banté","coordinates":{"lat":"14.0333333","long":"-15.0833333"}},{"country":"sn","city":"Bandiouo","coordinates":{"lat":"13.7833333","long":"-16.5"}},{"country":"sn","city":"Bandji","coordinates":{"lat":"15.7822222","long":"-16.5225"}},{"country":"sn","city":"Bandjikaki","coordinates":{"lat":"13.0166667","long":"-16.6833333"}},{"country":"sn","city":"Bandoukounda Baldé","coordinates":{"lat":"13.0833333","long":"-15.2666667"}},{"country":"sn","city":"Bandoulou","coordinates":{"lat":"14.0","long":"-16.2333333"}},{"country":"sn","city":"Banéba","coordinates":{"lat":"13.25","long":"-15.5333333"}},{"country":"sn","city":"Bane","coordinates":{"lat":"14.3666667","long":"-16.45"}},{"country":"sn","city":"Bane","coordinates":{"lat":"14.15","long":"-16.2166667"}},{"country":"sn","city":"Banedi","coordinates":{"lat":"14.4","long":"-16.9166667"}},{"country":"sn","city":"Banfara","coordinates":{"lat":"13.8333333","long":"-13.4333333"}},{"country":"sn","city":"Banfara Démandaou","coordinates":{"lat":"13.8166667","long":"-13.3833333"}},{"country":"sn","city":"Banfara I","coordinates":{"lat":"13.8333333","long":"-13.4333333"}},{"country":"sn","city":"Banfara II","coordinates":{"lat":"13.8333333","long":"-13.4166667"}},{"country":"sn","city":"Bangadj","coordinates":{"lat":"14.8333333","long":"-16.8166667"}},{"country":"sn","city":"Bangadj","coordinates":{"lat":"14.5666667","long":"-16.25"}},{"country":"sn","city":"Banganga","coordinates":{"lat":"12.6063889","long":"-16.0558333"}},{"country":"sn","city":"Bangaré","coordinates":{"lat":"14.2166667","long":"-15.35"}},{"country":"sn","city":"Bangaye","coordinates":{"lat":"14.7166667","long":"-15.9666667"}},{"country":"sn","city":"Bangaye Sambo","coordinates":{"lat":"14.7166667","long":"-15.7666667"}},{"country":"sn","city":"Banghére","coordinates":{"lat":"12.6605556","long":"-15.4216667"}},{"country":"sn","city":"Bangoi","coordinates":{"lat":"15.3833333","long":"-16.2833333"}},{"country":"sn","city":"Bangol","coordinates":{"lat":"15.0","long":"-15.5166667"}},{"country":"sn","city":"Bangounam","coordinates":{"lat":"12.95","long":"-16.1333333"}},{"country":"sn","city":"Bangoye","coordinates":{"lat":"15.3833333","long":"-16.2833333"}},{"country":"sn","city":"Banguéré","coordinates":{"lat":"12.6605556","long":"-15.4216667"}},{"country":"sn","city":"Banhar","coordinates":{"lat":"12.6811111","long":"-15.5561111"}},{"country":"sn","city":"Banianol","coordinates":{"lat":"15.0333333","long":"-14.5"}},{"country":"sn","city":"Baniaye","coordinates":{"lat":"14.8166667","long":"-16.8166667"}},{"country":"sn","city":"Bani","coordinates":{"lat":"12.8","long":"-11.7333333"}},{"country":"sn","city":"Bani","coordinates":{"lat":"13.7666667","long":"-16.4833333"}},{"country":"sn","city":"Bani","coordinates":{"lat":"12.5072222","long":"-15.7336111"}},{"country":"sn","city":"Banière","coordinates":{"lat":"12.6605556","long":"-15.4216667"}},{"country":"sn","city":"Bani-Israïla","coordinates":{"lat":"13.8333333","long":"-12.8833333"}},{"country":"sn","city":"Banima","coordinates":{"lat":"12.45","long":"-15.65"}},{"country":"sn","city":"Baniou","coordinates":{"lat":"14.5166667","long":"-12.7833333"}},{"country":"sn","city":"Baniou","coordinates":{"lat":"12.5","long":"-15.9"}},{"country":"sn","city":"Banipéli","coordinates":{"lat":"14.2833333","long":"-12.45"}},{"country":"sn","city":"Bani Tapirdé","coordinates":{"lat":"13.95","long":"-12.85"}},{"country":"sn","city":"Bankassouk","coordinates":{"lat":"12.7027778","long":"-16.7213889"}},{"country":"sn","city":"Bankouba","coordinates":{"lat":"13.8833333","long":"-12.2833333"}},{"country":"sn","city":"Bankou","coordinates":{"lat":"13.4666667","long":"-12.8166667"}},{"country":"sn","city":"Bankouma","coordinates":{"lat":"14.1","long":"-15.2"}},{"country":"sn","city":"Bannbadinnka","coordinates":{"lat":"13.5666667","long":"-13.4166667"}},{"country":"sn","city":"Banou","coordinates":{"lat":"14.4333333","long":"-15.7833333"}},{"country":"sn","city":"Banoungoune","coordinates":{"lat":"13.0166667","long":"-15.8333333"}},{"country":"sn","city":"Banpana","coordinates":{"lat":"13.6666667","long":"-16.1166667"}},{"country":"sn","city":"Banrhass Keur Massar","coordinates":{"lat":"14.7852778","long":"-17.3105556"}},{"country":"sn","city":"Bantakili Moulaye","coordinates":{"lat":"13.0","long":"-14.3833333"}},{"country":"sn","city":"Bantakokouta","coordinates":{"lat":"12.7666667","long":"-12.2333333"}},{"country":"sn","city":"Banta Koutoum Pakane","coordinates":{"lat":"12.9333333","long":"-13.85"}},{"country":"sn","city":"Bantambali","coordinates":{"lat":"14.1833333","long":"-13.2"}},{"country":"sn","city":"Bantanani","coordinates":{"lat":"13.7166667","long":"-12.9833333"}},{"country":"sn","city":"Bantanbali","coordinates":{"lat":"14.1833333","long":"-13.2"}},{"country":"sn","city":"Bantandiang","coordinates":{"lat":"12.59","long":"-15.6491667"}},{"country":"sn","city":"Bantandienké","coordinates":{"lat":"13.5666667","long":"-13.9333333"}},{"country":"sn","city":"Bantanguel","coordinates":{"lat":"12.7833333","long":"-14.7333333"}},{"country":"sn","city":"Bantangueul","coordinates":{"lat":"13.9666667","long":"-14.0166667"}},{"country":"sn","city":"Bantangueul Kassoum","coordinates":{"lat":"12.85","long":"-14.2833333"}},{"country":"sn","city":"Bantaniel","coordinates":{"lat":"12.6558333","long":"-15.2563889"}},{"country":"sn","city":"Bantanki Doulo","coordinates":{"lat":"12.9666667","long":"-14.4333333"}},{"country":"sn","city":"Bantankoli","coordinates":{"lat":"13.3333333","long":"-13.1833333"}},{"country":"sn","city":"Bantankountou","coordinates":{"lat":"13.2666667","long":"-13.0666667"}},{"country":"sn","city":"Bantankountou","coordinates":{"lat":"12.5","long":"-15.9166667"}},{"country":"sn","city":"Bantankountou Maoundé","coordinates":{"lat":"12.7666667","long":"-14.95"}},{"country":"sn","city":"Bantankountouyél","coordinates":{"lat":"12.8333333","long":"-14.95"}},{"country":"sn","city":"Bantantinnting","coordinates":{"lat":"13.5333333","long":"-13.8666667"}},{"country":"sn","city":"Bantantinting","coordinates":{"lat":"13.5333333","long":"-13.8666667"}},{"country":"sn","city":"Bantanto","coordinates":{"lat":"13.0166667","long":"-15.5666667"}},{"country":"sn","city":"Bantata","coordinates":{"lat":"12.6833333","long":"-12.3333333"}},{"country":"sn","city":"Bantigniel","coordinates":{"lat":"12.9","long":"-13.7166667"}},{"country":"sn","city":"Banyadi","coordinates":{"lat":"14.8166667","long":"-16.8166667"}},{"country":"sn","city":"Baobabs","coordinates":{"lat":"14.7094444","long":"-17.4638889"}},{"country":"sn","city":"Baodé","coordinates":{"lat":"14.9","long":"-16.15"}},{"country":"sn","city":"Baou","coordinates":{"lat":"13.7833333","long":"-16.3"}},{"country":"sn","city":"Baoul","coordinates":{"lat":"14.05","long":"-16.5333333"}},{"country":"sn","city":"Baout","coordinates":{"lat":"14.05","long":"-16.5333333"}},{"country":"sn","city":"Bapalel Koliabé","coordinates":{"lat":"15.45","long":"-12.9666667"}},{"country":"sn","city":"Bapèdj","coordinates":{"lat":"14.75","long":"-14.8666667"}},{"country":"sn","city":"Bapédji","coordinates":{"lat":"15.1666667","long":"-14.8833333"}},{"country":"sn","city":"Baqua","coordinates":{"lat":"15.2333333","long":"-16.5833333"}},{"country":"sn","city":"Bara","coordinates":{"lat":"12.4333333","long":"-12.2"}},{"country":"sn","city":"Bara","coordinates":{"lat":"15.1166667","long":"-15.4166667"}},{"country":"sn","city":"Barabéri","coordinates":{"lat":"12.9666667","long":"-11.7333333"}},{"country":"sn","city":"Baraboye","coordinates":{"lat":"12.6833333","long":"-12.4166667"}},{"country":"sn","city":"Baracounda","coordinates":{"lat":"13.6666667","long":"-14.6333333"}},{"country":"sn","city":"Baracounda","coordinates":{"lat":"14.0166667","long":"-15.3"}},{"country":"sn","city":"Baraf","coordinates":{"lat":"12.5205556","long":"-16.3086111"}},{"country":"sn","city":"Barafe","coordinates":{"lat":"12.5205556","long":"-16.3086111"}},{"country":"sn","city":"Barafoutè","coordinates":{"lat":"12.6666667","long":"-12.3"}},{"country":"sn","city":"Baraglou","coordinates":{"lat":"14.9666667","long":"-16.8833333"}},{"country":"sn","city":"Baraguès","coordinates":{"lat":"13.1166667","long":"-16.15"}},{"country":"sn","city":"Baraka Bounao","coordinates":{"lat":"12.4952778","long":"-16.1933333"}},{"country":"sn","city":"Baraka Patata","coordinates":{"lat":"12.45","long":"-16.1333333"}},{"country":"sn","city":"Baraka Poukao","coordinates":{"lat":"12.4666667","long":"-16.2"}},{"country":"sn","city":"Barakounda","coordinates":{"lat":"13.6666667","long":"-14.6333333"}},{"country":"sn","city":"Barakounda","coordinates":{"lat":"14.0166667","long":"-15.3"}},{"country":"sn","city":"Baralak","coordinates":{"lat":"12.9058333","long":"-16.1738889"}},{"country":"sn","city":"Baral","coordinates":{"lat":"15.2166667","long":"-15.5166667"}},{"country":"sn","city":"Baralé Diaye","coordinates":{"lat":"15.85","long":"-16.2333333"}},{"country":"sn","city":"Baralé Ndiaye","coordinates":{"lat":"15.85","long":"-16.2333333"}},{"country":"sn","city":"Barandama","coordinates":{"lat":"13.0","long":"-15.7833333"}},{"country":"sn","city":"Barandao","coordinates":{"lat":"14.55","long":"-15.9333333"}},{"country":"sn","city":"Baranlir","coordinates":{"lat":"12.94","long":"-16.3702778"}},{"country":"sn","city":"Barantir","coordinates":{"lat":"12.94","long":"-16.3702778"}},{"country":"sn","city":"Barbaouane","coordinates":{"lat":"14.5333333","long":"-15.7166667"}},{"country":"sn","city":"Bar","coordinates":{"lat":"15.2333333","long":"-16.0166667"}},{"country":"sn","city":"Bardial","coordinates":{"lat":"15.05","long":"-16.55"}},{"country":"sn","city":"Bardiol","coordinates":{"lat":"15.7833333","long":"-15.2833333"}},{"country":"sn","city":"Baré Banta","coordinates":{"lat":"15.9833333","long":"-16.0833333"}},{"country":"sn","city":"Baréguessin","coordinates":{"lat":"13.0166667","long":"-16.3833333"}},{"country":"sn","city":"Barèt","coordinates":{"lat":"14.7447222","long":"-17.0997222"}},{"country":"sn","city":"Barga","coordinates":{"lat":"15.9833333","long":"-13.6333333"}},{"country":"sn","city":"Bargny","coordinates":{"lat":"14.6938889","long":"-17.2336111"}},{"country":"sn","city":"Bargny-Gouddau","coordinates":{"lat":"14.6938889","long":"-17.2336111"}},{"country":"sn","city":"Bargny Gouddou","coordinates":{"lat":"14.6938889","long":"-17.2336111"}},{"country":"sn","city":"Bargny Guèdj","coordinates":{"lat":"14.6877778","long":"-17.2291667"}},{"country":"sn","city":"Bargny Ngoude","coordinates":{"lat":"14.6947222","long":"-17.2366667"}},{"country":"sn","city":"Bargué","coordinates":{"lat":"15.2166667","long":"-16.0833333"}},{"country":"sn","city":"Barhéne","coordinates":{"lat":"15.2666667","long":"-16.4"}},{"country":"sn","city":"Baria","coordinates":{"lat":"13.6666667","long":"-16.1833333"}},{"country":"sn","city":"Bari","coordinates":{"lat":"14.75","long":"-16.4833333"}},{"country":"sn","city":"Bari","coordinates":{"lat":"16.0833333","long":"-16.1833333"}},{"country":"sn","city":"Bari","coordinates":{"lat":"15.1666667","long":"-15.4833333"}},{"country":"sn","city":"Bari","coordinates":{"lat":"12.8683333","long":"-15.6577778"}},{"country":"sn","city":"Baridiam","coordinates":{"lat":"15.2833333","long":"-16.0333333"}},{"country":"sn","city":"Bari Diamm","coordinates":{"lat":"16.1813889","long":"-16.2769444"}},{"country":"sn","city":"Baridian","coordinates":{"lat":"15.1333333","long":"-16.4"}},{"country":"sn","city":"Baridiane","coordinates":{"lat":"15.1333333","long":"-16.4"}},{"country":"sn","city":"Barigo","coordinates":{"lat":"16.0791667","long":"-16.3716667"}},{"country":"sn","city":"Barindondol","coordinates":{"lat":"14.6","long":"-16.5166667"}},{"country":"sn","city":"Barkaye","coordinates":{"lat":"13.6166667","long":"-14.3333333"}},{"country":"sn","city":"Barkayel","coordinates":{"lat":"13.4833333","long":"-13.4666667"}},{"country":"sn","city":"Barkédji","coordinates":{"lat":"14.8833333","long":"-15.9166667"}},{"country":"sn","city":"Barkèdji","coordinates":{"lat":"15.1666667","long":"-14.8666667"}},{"country":"sn","city":"Barkèdji","coordinates":{"lat":"13.95","long":"-15.7"}},{"country":"sn","city":"Barkédji Mboul","coordinates":{"lat":"14.6","long":"-15.9333333"}},{"country":"sn","city":"Barkéwè","coordinates":{"lat":"13.8","long":"-15.7666667"}},{"country":"sn","city":"Barkiel","coordinates":{"lat":"13.8833333","long":"-14.55"}},{"country":"sn","city":"Barkivi","coordinates":{"lat":"13.8","long":"-15.7666667"}},{"country":"sn","city":"Barkjéwèl","coordinates":{"lat":"13.8","long":"-15.7666667"}},{"country":"sn","city":"Barmatial","coordinates":{"lat":"15.4833333","long":"-13.0"}},{"country":"sn","city":"Barmétial","coordinates":{"lat":"15.4833333","long":"-13.0"}},{"country":"sn","city":"Baro","coordinates":{"lat":"15.25","long":"-16.2"}},{"country":"sn","city":"Barobé","coordinates":{"lat":"16.1833333","long":"-13.9"}},{"country":"sn","city":"Barokounda","coordinates":{"lat":"13.6666667","long":"-14.1"}},{"country":"sn","city":"Barokounda","coordinates":{"lat":"14.0166667","long":"-15.3"}},{"country":"sn","city":"Barone","coordinates":{"lat":"14.05","long":"-15.4666667"}},{"country":"sn","city":"Barouk","coordinates":{"lat":"12.7827778","long":"-16.2055556"}},{"country":"sn","city":"Barré Banta","coordinates":{"lat":"15.9833333","long":"-16.0833333"}},{"country":"sn","city":"Barré","coordinates":{"lat":"16.0833333","long":"-16.1833333"}},{"country":"sn","city":"Barsafa","coordinates":{"lat":"13.7166667","long":"-14.5666667"}},{"country":"sn","city":"Barsine","coordinates":{"lat":"14.3833333","long":"-15.9166667"}},{"country":"sn","city":"Bas N'Dar Toute","coordinates":{"lat":"16.0288889","long":"-16.5111111"}},{"country":"sn","city":"Bassabou","coordinates":{"lat":"13.9333333","long":"-15.9166667"}},{"country":"sn","city":"Bassada","coordinates":{"lat":"13.0","long":"-15.7666667"}},{"country":"sn","city":"Bassafa","coordinates":{"lat":"13.2833333","long":"-14.6"}},{"country":"sn","city":"Bassaf","coordinates":{"lat":"12.8052778","long":"-15.6191667"}},{"country":"sn","city":"Bassanbéa","coordinates":{"lat":"12.9833333","long":"-16.35"}},{"country":"sn","city":"Bassaoul","coordinates":{"lat":"13.9166667","long":"-16.6"}},{"country":"sn","city":"Bassar","coordinates":{"lat":"13.9166667","long":"-16.6166667"}},{"country":"sn","city":"Bassem Mondouar","coordinates":{"lat":"13.1333333","long":"-16.0833333"}},{"country":"sn","city":"Bassène","coordinates":{"lat":"12.95","long":"-16.3666667"}},{"country":"sn","city":"Basséré","coordinates":{"lat":"12.4508333","long":"-16.3666667"}},{"country":"sn","city":"Bassilamé","coordinates":{"lat":"12.8947222","long":"-15.4311111"}},{"country":"sn","city":"Bassinkil","coordinates":{"lat":"13.1","long":"-16.2"}},{"country":"sn","city":"Bassoul","coordinates":{"lat":"13.9166667","long":"-16.6"}},{"country":"sn","city":"Bassoum","coordinates":{"lat":"12.9833333","long":"-14.5"}},{"country":"sn","city":"Batabout","coordinates":{"lat":"13.0","long":"-16.2166667"}},{"country":"sn","city":"Batal","coordinates":{"lat":"14.6333333","long":"-16.4833333"}},{"country":"sn","city":"Batal","coordinates":{"lat":"15.55","long":"-15.2833333"}},{"country":"sn","city":"Batane","coordinates":{"lat":"14.6333333","long":"-16.4833333"}},{"country":"sn","city":"Batan Gnima","coordinates":{"lat":"12.7066667","long":"-15.8477778"}},{"country":"sn","city":"Batankigné","coordinates":{"lat":"13.0166667","long":"-16.1833333"}},{"country":"sn","city":"Batéguélé","coordinates":{"lat":"13.0833333","long":"-15.8833333"}},{"country":"sn","city":"Batékel","coordinates":{"lat":"12.9833333","long":"-16.1833333"}},{"country":"sn","city":"Bathias","coordinates":{"lat":"15.8661111","long":"-16.3491667"}},{"country":"sn","city":"Bathias Dièye","coordinates":{"lat":"15.8661111","long":"-16.3491667"}},{"country":"sn","city":"Batiaré Ouro Guéladjo","coordinates":{"lat":"14.4","long":"-15.6833333"}},{"country":"sn","city":"Batinba","coordinates":{"lat":"12.4833333","long":"-12.55"}},{"country":"sn","city":"Batindé","coordinates":{"lat":"12.8166667","long":"-16.2"}},{"country":"sn","city":"Batindié","coordinates":{"lat":"12.8166667","long":"-16.2"}},{"country":"sn","city":"Batinding Diémé","coordinates":{"lat":"13.0333333","long":"-16.2333333"}},{"country":"sn","city":"Batinièr","coordinates":{"lat":"12.5008333","long":"-16.4830556"}},{"country":"sn","city":"Batinière","coordinates":{"lat":"12.5008333","long":"-16.4830556"}},{"country":"sn","city":"Batodji","coordinates":{"lat":"14.9666667","long":"-15.7666667"}},{"country":"sn","city":"Batoulane","coordinates":{"lat":"14.1166667","long":"-14.6"}},{"country":"sn","city":"Batranké","coordinates":{"lat":"12.6833333","long":"-12.35"}},{"country":"sn","city":"Battel","coordinates":{"lat":"15.0833333","long":"-16.5333333"}},{"country":"sn","city":"Battel","coordinates":{"lat":"15.2333333","long":"-16.2333333"}},{"country":"sn","city":"Baya","coordinates":{"lat":"12.9727778","long":"-15.7725"}},{"country":"sn","city":"Bayacounda","coordinates":{"lat":"13.25","long":"-15.7666667"}},{"country":"sn","city":"Bayakh","coordinates":{"lat":"14.8308333","long":"-17.1375"}},{"country":"sn","city":"Bayakh","coordinates":{"lat":"15.6333333","long":"-16.2166667"}},{"country":"sn","city":"Bayakh Gaye","coordinates":{"lat":"15.6833333","long":"-16.4166667"}},{"country":"sn","city":"Bayamba","coordinates":{"lat":"13.1","long":"-15.4833333"}},{"country":"sn","city":"Bayandour","coordinates":{"lat":"14.2166667","long":"-15.7333333"}},{"country":"sn","city":"Bayanka","coordinates":{"lat":"13.1333333","long":"-15.9166667"}},{"country":"sn","city":"Bayar","coordinates":{"lat":"14.6666667","long":"-16.4333333"}},{"country":"sn","city":"Baye","coordinates":{"lat":"15.1333333","long":"-16.9"}},{"country":"sn","city":"Bayé","coordinates":{"lat":"14.0166667","long":"-16.4166667"}},{"country":"sn","city":"Baye Baye","coordinates":{"lat":"15.8333333","long":"-16.4"}},{"country":"sn","city":"Baye Diang","coordinates":{"lat":"15.6","long":"-15.5166667"}},{"country":"sn","city":"Bayelar","coordinates":{"lat":"15.1166667","long":"-16.4833333"}},{"country":"sn","city":"Baye Menké","coordinates":{"lat":"14.5833333","long":"-16.4"}},{"country":"sn","city":"Bayène","coordinates":{"lat":"14.75","long":"-16.1833333"}},{"country":"sn","city":"Bayène","coordinates":{"lat":"13.3166667","long":"-14.7166667"}},{"country":"sn","city":"Bayène Diak","coordinates":{"lat":"14.6666667","long":"-16.75"}},{"country":"sn","city":"Bayèr","coordinates":{"lat":"15.2","long":"-16.4166667"}},{"country":"sn","city":"Baye Yar","coordinates":{"lat":"15.65","long":"-16.4"}},{"country":"sn","city":"Bayfora","coordinates":{"lat":"12.4936111","long":"-15.9213889"}},{"country":"sn","city":"Bayiti","coordinates":{"lat":"16.05","long":"-16.15"}},{"country":"sn","city":"Baylar","coordinates":{"lat":"13.9666667","long":"-16.0333333"}},{"country":"sn","city":"Bayliga","coordinates":{"lat":"14.9","long":"-16.8833333"}},{"country":"sn","city":"Bayli Vamédaka","coordinates":{"lat":"13.3666667","long":"-12.5833333"}},{"country":"sn","city":"Bayottes","coordinates":{"lat":"12.5166667","long":"-16.2833333"}},{"country":"sn","city":"Bayti","coordinates":{"lat":"14.8","long":"-16.0166667"}},{"country":"sn","city":"Bayti","coordinates":{"lat":"16.05","long":"-16.15"}},{"country":"sn","city":"Bayti Dakar","coordinates":{"lat":"14.9666667","long":"-16.95"}},{"country":"sn","city":"Bédé","coordinates":{"lat":"15.9833333","long":"-15.35"}},{"country":"sn","city":"Bédétiolé","coordinates":{"lat":"12.45","long":"-15.75"}},{"country":"sn","city":"Bééla","coordinates":{"lat":"15.8333333","long":"-13.7166667"}},{"country":"sn","city":"Béél","coordinates":{"lat":"15.75","long":"-13.75"}},{"country":"sn","city":"Bégaye Ardo","coordinates":{"lat":"15.9","long":"-16.1833333"}},{"country":"sn","city":"Bégaye","coordinates":{"lat":"16.1425","long":"-16.27"}},{"country":"sn","city":"Bégaye Samb","coordinates":{"lat":"15.9166667","long":"-16.2166667"}},{"country":"sn","city":"Bégne Pinda","coordinates":{"lat":"15.5333333","long":"-16.5666667"}},{"country":"sn","city":"Béguel","coordinates":{"lat":"15.1833333","long":"-16.4666667"}},{"country":"sn","city":"Béguéré","coordinates":{"lat":"15.05","long":"-16.0333333"}},{"country":"sn","city":"Beguet","coordinates":{"lat":"15.1833333","long":"-16.4666667"}},{"country":"sn","city":"Béla","coordinates":{"lat":"14.2333333","long":"-15.6833333"}},{"country":"sn","city":"Bel-Air","coordinates":{"lat":"14.7041667","long":"-17.4222222"}},{"country":"sn","city":"Belakadio","coordinates":{"lat":"14.3333333","long":"-16.3"}},{"country":"sn","city":"Belal","coordinates":{"lat":"13.3333333","long":"-14.65"}},{"country":"sn","city":"Bélal Soumaïla","coordinates":{"lat":"13.2333333","long":"-14.6666667"}},{"country":"sn","city":"Bélan","coordinates":{"lat":"12.5619444","long":"-15.4816667"}},{"country":"sn","city":"Bélaye","coordinates":{"lat":"12.9019444","long":"-16.3963889"}},{"country":"sn","city":"Belbouk","coordinates":{"lat":"14.0333333","long":"-15.4"}},{"country":"sn","city":"Bélé","coordinates":{"lat":"14.3166667","long":"-13.0333333"}},{"country":"sn","city":"Bélé","coordinates":{"lat":"14.5333333","long":"-14.9666667"}},{"country":"sn","city":"Bélé II","coordinates":{"lat":"14.3166667","long":"-13.0333333"}},{"country":"sn","city":"Bélel Babo","coordinates":{"lat":"14.1333333","long":"-14.7"}},{"country":"sn","city":"Bélel Bandia","coordinates":{"lat":"15.45","long":"-15.4"}},{"country":"sn","city":"Bélel Baoudé","coordinates":{"lat":"15.8333333","long":"-15.2333333"}},{"country":"sn","city":"Bélel","coordinates":{"lat":"15.1833333","long":"-13.75"}},{"country":"sn","city":"Bélel","coordinates":{"lat":"14.05","long":"-14.5666667"}},{"country":"sn","city":"Bélel Béloki","coordinates":{"lat":"15.5166667","long":"-15.35"}},{"country":"sn","city":"Bélel Boukar","coordinates":{"lat":"15.55","long":"-14.2833333"}},{"country":"sn","city":"Bélel Boulbi","coordinates":{"lat":"15.95","long":"-15.35"}},{"country":"sn","city":"Bélel Davo","coordinates":{"lat":"16.3","long":"-14.9666667"}},{"country":"sn","city":"Bélèl Diabi","coordinates":{"lat":"14.7","long":"-15.8666667"}},{"country":"sn","city":"Bélel Diamala","coordinates":{"lat":"14.5","long":"-14.4833333"}},{"country":"sn","city":"Bélel Doba","coordinates":{"lat":"15.85","long":"-15.4666667"}},{"country":"sn","city":"Bélel Doulo","coordinates":{"lat":"15.8833333","long":"-15.3666667"}},{"country":"sn","city":"Bélel Fando","coordinates":{"lat":"15.3666667","long":"-15.9666667"}},{"country":"sn","city":"Bélel Goloki","coordinates":{"lat":"15.35","long":"-15.9833333"}},{"country":"sn","city":"Bélel Mbodi","coordinates":{"lat":"15.8833333","long":"-14.2333333"}},{"country":"sn","city":"Bélel Namari","coordinates":{"lat":"15.7833333","long":"-15.8166667"}},{"country":"sn","city":"Bélel Ndiobo","coordinates":{"lat":"15.6166667","long":"-15.4"}},{"country":"sn","city":"Bélel Otondé","coordinates":{"lat":"15.9666667","long":"-15.35"}},{"country":"sn","city":"Bélel Penda","coordinates":{"lat":"15.4","long":"-15.8"}},{"country":"sn","city":"Bélel Sirod","coordinates":{"lat":"16.0","long":"-15.2666667"}},{"country":"sn","city":"Bélel Tiaski","coordinates":{"lat":"15.6166667","long":"-15.4833333"}},{"country":"sn","city":"Bélel Tiodi","coordinates":{"lat":"15.7","long":"-14.1"}},{"country":"sn","city":"Bélel Tiodo","coordinates":{"lat":"15.7","long":"-14.1"}},{"country":"sn","city":"Bélenn Boulbi","coordinates":{"lat":"15.7333333","long":"-15.4333333"}},{"country":"sn","city":"Bélépouri","coordinates":{"lat":"13.65","long":"-12.6"}},{"country":"sn","city":"Belfadak","coordinates":{"lat":"14.3166667","long":"-16.1"}},{"country":"sn","city":"Belgarki","coordinates":{"lat":"15.4333333","long":"-15.8833333"}},{"country":"sn","city":"Belgor","coordinates":{"lat":"15.3666667","long":"-16.3833333"}},{"country":"sn","city":"Béli Diori","coordinates":{"lat":"15.1166667","long":"-15.1333333"}},{"country":"sn","city":"Béliguel","coordinates":{"lat":"15.6166667","long":"-15.45"}},{"country":"sn","city":"Béli Koyali","coordinates":{"lat":"15.7333333","long":"-15.3166667"}},{"country":"sn","city":"Bélil Nelbi","coordinates":{"lat":"15.1833333","long":"-15.2"}},{"country":"sn","city":"Bélimaoundé","coordinates":{"lat":"13.0666667","long":"-14.85"}},{"country":"sn","city":"Béli Pouri","coordinates":{"lat":"13.65","long":"-12.6"}},{"country":"sn","city":"Béli Tiovi","coordinates":{"lat":"16.5666667","long":"-14.35"}},{"country":"sn","city":"Belkagne","coordinates":{"lat":"15.4166667","long":"-14.8666667"}},{"country":"sn","city":"Belkhor","coordinates":{"lat":"14.4833333","long":"-15.85"}},{"country":"sn","city":"Belkiasky","coordinates":{"lat":"15.3333333","long":"-15.6333333"}},{"country":"sn","city":"Belki","coordinates":{"lat":"14.6166667","long":"-16.15"}},{"country":"sn","city":"Belkindi","coordinates":{"lat":"16.1","long":"-13.6333333"}},{"country":"sn","city":"Belkoum","coordinates":{"lat":"16.0","long":"-14.5333333"}},{"country":"sn","city":"Bellahor","coordinates":{"lat":"15.35","long":"-16.35"}},{"country":"sn","city":"Belldjinbara","coordinates":{"lat":"14.1","long":"-12.3666667"}},{"country":"sn","city":"Bellé","coordinates":{"lat":"14.4166667","long":"-12.3"}},{"country":"sn","city":"Belli","coordinates":{"lat":"15.2333333","long":"-16.6666667"}},{"country":"sn","city":"Belli","coordinates":{"lat":"15.0833333","long":"-15.5833333"}},{"country":"sn","city":"Belly","coordinates":{"lat":"15.0833333","long":"-15.5833333"}},{"country":"sn","city":"Belnaïbé Mbaïla","coordinates":{"lat":"15.4666667","long":"-13.3666667"}},{"country":"sn","city":"Belnaïdé Mbaïla","coordinates":{"lat":"15.4666667","long":"-13.3666667"}},{"country":"sn","city":"Bélogne","coordinates":{"lat":"14.1333333","long":"-15.05"}},{"country":"sn","city":"Bélongui","coordinates":{"lat":"14.25","long":"-16.2833333"}},{"country":"sn","city":"Belqui","coordinates":{"lat":"14.6166667","long":"-16.15"}},{"country":"sn","city":"Belrout","coordinates":{"lat":"14.5666667","long":"-16.5333333"}},{"country":"sn","city":"Beltiasdé","coordinates":{"lat":"15.3333333","long":"-15.6333333"}},{"country":"sn","city":"Beltiasdé Boki","coordinates":{"lat":"15.3166667","long":"-15.6333333"}},{"country":"sn","city":"Beltiaski","coordinates":{"lat":"15.3333333","long":"-15.6333333"}},{"country":"sn","city":"Beltiaskij","coordinates":{"lat":"15.3333333","long":"-15.6333333"}},{"country":"sn","city":"Béma","coordinates":{"lat":"14.8333333","long":"-12.4666667"}},{"country":"sn","city":"Béma","coordinates":{"lat":"12.6833333","long":"-16.3833333"}},{"country":"sn","city":"Bemba Badiane","coordinates":{"lat":"15.4","long":"-15.7166667"}},{"country":"sn","city":"Bem-Bem","coordinates":{"lat":"14.8166667","long":"-14.4"}},{"country":"sn","city":"Bembo","coordinates":{"lat":"12.8333333","long":"-11.8833333"}},{"country":"sn","city":"Bembou","coordinates":{"lat":"12.8333333","long":"-11.8833333"}},{"country":"sn","city":"Bémèt Diatakounda","coordinates":{"lat":"12.7094444","long":"-16.0008333"}},{"country":"sn","city":"Bémèt Djimandé","coordinates":{"lat":"12.7333333","long":"-15.9833333"}},{"country":"sn","city":"Bémète Diatakounda","coordinates":{"lat":"12.7094444","long":"-16.0008333"}},{"country":"sn","city":"Bémète Djimandé","coordinates":{"lat":"12.7333333","long":"-15.9833333"}},{"country":"sn","city":"Bémète Vouti","coordinates":{"lat":"12.7244444","long":"-15.9858333"}},{"country":"sn","city":"Bémèt-Vouli","coordinates":{"lat":"12.7244444","long":"-15.9858333"}},{"country":"sn","city":"Bendiciralla","coordinates":{"lat":"12.8","long":"-11.7333333"}},{"country":"sn","city":"Béne Barak","coordinates":{"lat":"14.7830556","long":"-17.355"}},{"country":"sn","city":"Béné Djouma","coordinates":{"lat":"14.0166667","long":"-15.5833333"}},{"country":"sn","city":"Béné Mamour","coordinates":{"lat":"14.0333333","long":"-15.5833333"}},{"country":"sn","city":"Bène Tali","coordinates":{"lat":"14.7141667","long":"-17.45"}},{"country":"sn","city":"Bengadji","coordinates":{"lat":"15.65","long":"-16.3333333"}},{"country":"sn","city":"Bengen","coordinates":{"lat":"15.35","long":"-16.4166667"}},{"country":"sn","city":"Ben Guen","coordinates":{"lat":"14.9","long":"-16.4666667"}},{"country":"sn","city":"Benndiguiraïlo","coordinates":{"lat":"12.8","long":"-11.7333333"}},{"country":"sn","city":"Bennguène","coordinates":{"lat":"14.95","long":"-15.8833333"}},{"country":"sn","city":"Benntingui","coordinates":{"lat":"15.0833333","long":"-15.4"}},{"country":"sn","city":"Benntingui","coordinates":{"lat":"14.0666667","long":"-15.4"}},{"country":"sn","city":"Béouane","coordinates":{"lat":"14.6833333","long":"-16.65"}},{"country":"sn","city":"Beraye","coordinates":{"lat":"16.1411111","long":"-16.3947222"}},{"country":"sn","city":"Berdiouga","coordinates":{"lat":"15.5666667","long":"-16.5666667"}},{"country":"sn","city":"Bereup","coordinates":{"lat":"14.9725","long":"-17.0908333"}},{"country":"sn","city":"Bereup Sow","coordinates":{"lat":"14.965","long":"-17.0430556"}},{"country":"sn","city":"Béri Diagne","coordinates":{"lat":"15.0","long":"-16.4333333"}},{"country":"sn","city":"Béridiam","coordinates":{"lat":"14.765","long":"-17.1152778"}},{"country":"sn","city":"Béri Diane","coordinates":{"lat":"15.45","long":"-16.2333333"}},{"country":"sn","city":"Bériou","coordinates":{"lat":"12.9483333","long":"-15.9186111"}},{"country":"sn","city":"Berkhom","coordinates":{"lat":"15.3666667","long":"-16.65"}},{"country":"sn","city":"Berkom","coordinates":{"lat":"15.3666667","long":"-16.65"}},{"country":"sn","city":"Bernal","coordinates":{"lat":"12.55","long":"-16.3166667"}},{"country":"sn","city":"Bérola","coordinates":{"lat":"13.2333333","long":"-11.9"}},{"country":"sn","city":"Berr Kalane","coordinates":{"lat":"14.8597222","long":"-17.1397222"}},{"country":"sn","city":"Berr Tialane","coordinates":{"lat":"14.8597222","long":"-17.1397222"}},{"country":"sn","city":"Bêr Tialane","coordinates":{"lat":"14.8597222","long":"-17.1397222"}},{"country":"sn","city":"Béssiré","coordinates":{"lat":"12.8605556","long":"-16.4386111"}},{"country":"sn","city":"Bessoloum","coordinates":{"lat":"12.46","long":"-15.9911111"}},{"country":"sn","city":"Bétanti","coordinates":{"lat":"13.6905556","long":"-16.6266667"}},{"country":"sn","city":"Bétchou","coordinates":{"lat":"15.4666667","long":"-15.3166667"}},{"country":"sn","city":"Betenti","coordinates":{"lat":"13.6905556","long":"-16.6266667"}},{"country":"sn","city":"Bétéou","coordinates":{"lat":"14.4833333","long":"-15.8833333"}},{"country":"sn","city":"Bétiou","coordinates":{"lat":"16.3666667","long":"-14.2166667"}},{"country":"sn","city":"Betlammi","coordinates":{"lat":"15.6666667","long":"-16.4833333"}},{"country":"sn","city":"Béto","coordinates":{"lat":"14.85","long":"-15.9666667"}},{"country":"sn","city":"Bettendick","coordinates":{"lat":"13.6905556","long":"-16.6266667"}},{"country":"sn","city":"Beul","coordinates":{"lat":"15.5666667","long":"-16.25"}},{"country":"sn","city":"Beulle","coordinates":{"lat":"15.15","long":"-16.2833333"}},{"country":"sn","city":"Beuno Mboro","coordinates":{"lat":"15.2","long":"-16.8833333"}},{"country":"sn","city":"Beurleup","coordinates":{"lat":"15.1333333","long":"-16.3666667"}},{"country":"sn","city":"Bèye Madji","coordinates":{"lat":"15.8333333","long":"-14.3833333"}},{"country":"sn","city":"Bézel","coordinates":{"lat":"13.1166667","long":"-14.1"}},{"country":"sn","city":"Biarou","coordinates":{"lat":"13.05","long":"-14.0333333"}},{"country":"sn","city":"Biba","coordinates":{"lat":"15.05","long":"-16.0"}},{"country":"sn","city":"Bibi","coordinates":{"lat":"15.0666667","long":"-15.9833333"}},{"country":"sn","city":"Bichiri","coordinates":{"lat":"15.9","long":"-13.4166667"}},{"country":"sn","city":"Bidal","coordinates":{"lat":"15.5666667","long":"-13.2166667"}},{"country":"sn","city":"Bidem","coordinates":{"lat":"15.5333333","long":"-16.3166667"}},{"country":"sn","city":"Bidiam","coordinates":{"lat":"15.8619444","long":"-16.3188889"}},{"country":"sn","city":"Bidiam","coordinates":{"lat":"14.2","long":"-15.7166667"}},{"country":"sn","city":"Bidiame","coordinates":{"lat":"15.8619444","long":"-16.3188889"}},{"country":"sn","city":"Bidjem","coordinates":{"lat":"15.5333333","long":"-16.3166667"}},{"country":"sn","city":"Bidjika","coordinates":{"lat":"14.35","long":"-15.8333333"}},{"country":"sn","city":"Bignona","coordinates":{"lat":"12.8102778","long":"-16.2263889"}},{"country":"sn","city":"Bikol","coordinates":{"lat":"14.4166667","long":"-16.45"}},{"country":"sn","city":"Bilassar","coordinates":{"lat":"12.5072222","long":"-15.6052778"}},{"country":"sn","city":"Bil","coordinates":{"lat":"14.4333333","long":"-16.0166667"}},{"country":"sn","city":"Bil","coordinates":{"lat":"14.1","long":"-16.1333333"}},{"country":"sn","city":"Bilel","coordinates":{"lat":"12.55","long":"-12.7666667"}},{"country":"sn","city":"Bill","coordinates":{"lat":"14.4333333","long":"-16.0166667"}},{"country":"sn","city":"Bill","coordinates":{"lat":"14.1","long":"-16.1333333"}},{"country":"sn","city":"Biloré","coordinates":{"lat":"14.5644444","long":"-17.0563889"}},{"country":"sn","city":"Binako","coordinates":{"lat":"12.5861111","long":"-15.5436111"}},{"country":"sn","city":"Binandar","coordinates":{"lat":"14.4666667","long":"-16.45"}},{"country":"sn","city":"Binbaba","coordinates":{"lat":"12.5077778","long":"-15.8627778"}},{"country":"sn","city":"Binbou","coordinates":{"lat":"12.8333333","long":"-11.8833333"}},{"country":"sn","city":"Bine Abdou Guèye","coordinates":{"lat":"14.4333333","long":"-15.9333333"}},{"country":"sn","city":"Binedou","coordinates":{"lat":"15.2833333","long":"-16.3333333"}},{"country":"sn","city":"Binguène","coordinates":{"lat":"15.6166667","long":"-16.4166667"}},{"country":"sn","city":"Binguil","coordinates":{"lat":"14.5666667","long":"-12.85"}},{"country":"sn","city":"Binndaba Bakou","coordinates":{"lat":"12.5077778","long":"-15.8627778"}},{"country":"sn","city":"Binndago","coordinates":{"lat":"12.7941667","long":"-16.2788889"}},{"country":"sn","city":"Binndiou","coordinates":{"lat":"15.2833333","long":"-16.3333333"}},{"country":"sn","city":"Binndiou","coordinates":{"lat":"14.3666667","long":"-15.9666667"}},{"country":"sn","city":"Binngel","coordinates":{"lat":"13.4","long":"-13.05"}},{"country":"sn","city":"Binngel","coordinates":{"lat":"14.4","long":"-15.5"}},{"country":"sn","city":"Binnguel","coordinates":{"lat":"14.0666667","long":"-14.45"}},{"country":"sn","city":"Binnguel","coordinates":{"lat":"14.6333333","long":"-14.5666667"}},{"country":"sn","city":"Binnguel Dadhi","coordinates":{"lat":"15.6","long":"-13.5"}},{"country":"sn","city":"Binnguer","coordinates":{"lat":"14.5333333","long":"-15.8333333"}},{"country":"sn","city":"Binnkine","coordinates":{"lat":"12.9352778","long":"-16.5022222"}},{"country":"sn","city":"Binouneder","coordinates":{"lat":"14.4666667","long":"-16.45"}},{"country":"sn","city":"Birahim Sèye","coordinates":{"lat":"15.9333333","long":"-15.7833333"}},{"country":"sn","city":"Birama Kélé","coordinates":{"lat":"15.2","long":"-15.35"}},{"country":"sn","city":"Biram Aouagali","coordinates":{"lat":"15.6666667","long":"-15.2333333"}},{"country":"sn","city":"Biram Bodél","coordinates":{"lat":"15.4333333","long":"-15.9166667"}},{"country":"sn","city":"Biram Diaté","coordinates":{"lat":"14.4166667","long":"-15.7166667"}},{"country":"sn","city":"Biram Fai","coordinates":{"lat":"14.75","long":"-16.75"}},{"country":"sn","city":"Biram Fal","coordinates":{"lat":"14.75","long":"-16.75"}},{"country":"sn","city":"Biram Guèye","coordinates":{"lat":"15.0666667","long":"-15.9"}},{"country":"sn","city":"Birane","coordinates":{"lat":"13.3833333","long":"-14.8"}},{"country":"sn","city":"Birane Gaye","coordinates":{"lat":"15.9380556","long":"-16.2769444"}},{"country":"sn","city":"Birataba","coordinates":{"lat":"13.4","long":"-13.4666667"}},{"country":"sn","city":"Birfal","coordinates":{"lat":"14.5166667","long":"-12.45"}},{"country":"sn","city":"Birkama","coordinates":{"lat":"12.5638889","long":"-15.8422222"}},{"country":"sn","city":"Birkama Bram","coordinates":{"lat":"12.5638889","long":"-15.8422222"}},{"country":"sn","city":"Birkamanding","coordinates":{"lat":"13.0166667","long":"-16.45"}},{"country":"sn","city":"Birkelane","coordinates":{"lat":"14.1333333","long":"-15.75"}},{"country":"sn","city":"Bisari Dioub","coordinates":{"lat":"13.0","long":"-15.9333333"}},{"country":"sn","city":"Bissakal","coordinates":{"lat":"12.5344444","long":"-15.4813889"}},{"country":"sn","city":"Bissao","coordinates":{"lat":"14.8291667","long":"-17.0883333"}},{"country":"sn","city":"Bissar","coordinates":{"lat":"12.6616667","long":"-15.4813889"}},{"country":"sn","city":"Bissari","coordinates":{"lat":"12.9","long":"-15.8"}},{"country":"sn","city":"Bissari Diosson","coordinates":{"lat":"12.9594444","long":"-15.7744444"}},{"country":"sn","city":"Bissari Dioub","coordinates":{"lat":"13.0","long":"-15.9333333"}},{"country":"sn","city":"Bissari Dioup","coordinates":{"lat":"13.0","long":"-15.9333333"}},{"country":"sn","city":"Bissari Missira","coordinates":{"lat":"12.7525","long":"-15.6088889"}},{"country":"sn","city":"Bissarou","coordinates":{"lat":"12.5822222","long":"-15.4266667"}},{"country":"sn","city":"Bissassou Douma","coordinates":{"lat":"12.5666667","long":"-15.4166667"}},{"country":"sn","city":"Bissét I","coordinates":{"lat":"16.2022222","long":"-16.3219444"}},{"country":"sn","city":"Bissét II","coordinates":{"lat":"16.2222222","long":"-16.3086111"}},{"country":"sn","city":"Bissine","coordinates":{"lat":"12.5305556","long":"-15.9586111"}},{"country":"sn","city":"Bissineï","coordinates":{"lat":"12.5305556","long":"-15.9586111"}},{"country":"sn","city":"Bississe Dia","coordinates":{"lat":"15.4333333","long":"-16.3166667"}},{"country":"sn","city":"Bitaène Keur Abdou Diakaté","coordinates":{"lat":"13.9166667","long":"-16.1166667"}},{"country":"sn","city":"Bitayen","coordinates":{"lat":"13.75","long":"-15.95"}},{"country":"sn","city":"Bitayène","coordinates":{"lat":"13.75","long":"-15.95"}},{"country":"sn","city":"Bitibiti","coordinates":{"lat":"13.0166667","long":"-16.3833333"}},{"country":"sn","city":"Bitiou","coordinates":{"lat":"15.3166667","long":"-16.4666667"}},{"country":"sn","city":"Bitiou Séou","coordinates":{"lat":"15.3166667","long":"-16.4666667"}},{"country":"sn","city":"Bito","coordinates":{"lat":"16.3","long":"-13.9833333"}},{"country":"sn","city":"Blaz","coordinates":{"lat":"12.5002778","long":"-15.9727778"}},{"country":"sn","city":"Blaze","coordinates":{"lat":"12.5002778","long":"-15.9727778"}},{"country":"sn","city":"Bloug Pouré","coordinates":{"lat":"15.4333333","long":"-13.0166667"}},{"country":"sn","city":"Boal","coordinates":{"lat":"12.6666667","long":"-16.2666667"}},{"country":"sn","city":"Boba","coordinates":{"lat":"14.8333333","long":"-16.35"}},{"country":"sn","city":"Boba","coordinates":{"lat":"13.6666667","long":"-13.85"}},{"country":"sn","city":"Bobi","coordinates":{"lat":"14.7333333","long":"-15.8"}},{"country":"sn","city":"Bobi","coordinates":{"lat":"14.75","long":"-14.8166667"}},{"country":"sn","city":"Boblol","coordinates":{"lat":"14.7666667","long":"-16.3333333"}},{"country":"sn","city":"Bobodigoula","coordinates":{"lat":"15.1666667","long":"-15.4833333"}},{"country":"sn","city":"Bobori","coordinates":{"lat":"16.2666667","long":"-14.45"}},{"country":"sn","city":"Bobori","coordinates":{"lat":"15.3","long":"-15.9"}},{"country":"sn","city":"Boboti","coordinates":{"lat":"12.6666667","long":"-11.4333333"}},{"country":"sn","city":"Bochineka","coordinates":{"lat":"13.7333333","long":"-16.5666667"}},{"country":"sn","city":"Bodadé","coordinates":{"lat":"15.0833333","long":"-15.9333333"}},{"country":"sn","city":"Bodé","coordinates":{"lat":"16.45","long":"-14.35"}},{"country":"sn","city":"Bodé","coordinates":{"lat":"13.9666667","long":"-12.85"}},{"country":"sn","city":"Bodé","coordinates":{"lat":"14.3166667","long":"-15.3833333"}},{"country":"sn","city":"Bodé","coordinates":{"lat":"12.6533333","long":"-16.425"}},{"country":"sn","city":"Bodé Dieng","coordinates":{"lat":"14.95","long":"-15.9333333"}},{"country":"sn","city":"Bodèdji","coordinates":{"lat":"14.6166667","long":"-14.55"}},{"country":"sn","city":"Bodéel","coordinates":{"lat":"12.8166667","long":"-14.85"}},{"country":"sn","city":"Bodègne","coordinates":{"lat":"15.4833333","long":"-16.5666667"}},{"country":"sn","city":"Bodei","coordinates":{"lat":"15.55","long":"-15.7833333"}},{"country":"sn","city":"Bodéièl","coordinates":{"lat":"12.8166667","long":"-14.85"}},{"country":"sn","city":"Bodé Mamadou Dieng","coordinates":{"lat":"14.9833333","long":"-15.9"}},{"country":"sn","city":"Bodéyel","coordinates":{"lat":"12.8166667","long":"-14.85"}},{"country":"sn","city":"Bodia","coordinates":{"lat":"12.95","long":"-16.2666667"}},{"country":"sn","city":"Bodibato","coordinates":{"lat":"14.0833333","long":"-12.0333333"}},{"country":"sn","city":"Bodién","coordinates":{"lat":"14.25","long":"-16.8666667"}},{"country":"sn","city":"Bodiène","coordinates":{"lat":"14.25","long":"-16.8666667"}},{"country":"sn","city":"Bofa","coordinates":{"lat":"12.4905556","long":"-16.1336111"}},{"country":"sn","city":"Bofaye","coordinates":{"lat":"14.65","long":"-16.6333333"}},{"country":"sn","city":"Bofé","coordinates":{"lat":"14.8","long":"-15.9333333"}},{"country":"sn","city":"Bofel","coordinates":{"lat":"15.5833333","long":"-15.9666667"}},{"country":"sn","city":"Bofi","coordinates":{"lat":"13.9833333","long":"-15.45"}},{"country":"sn","city":"Bofoulou","coordinates":{"lat":"13.4833333","long":"-13.35"}},{"country":"sn","city":"Bogalar","coordinates":{"lat":"14.3","long":"-16.2333333"}},{"country":"sn","city":"Bogal","coordinates":{"lat":"15.95","long":"-16.1166667"}},{"country":"sn","city":"Bogal Diaouli","coordinates":{"lat":"14.1833333","long":"-12.5833333"}},{"country":"sn","city":"Boggol","coordinates":{"lat":"15.95","long":"-16.1166667"}},{"country":"sn","city":"Bogguel","coordinates":{"lat":"16.0166667","long":"-13.8333333"}},{"country":"sn","city":"Bogol","coordinates":{"lat":"15.65","long":"-15.6666667"}},{"country":"sn","city":"Bogorheme","coordinates":{"lat":"14.8333333","long":"-16.6666667"}},{"country":"sn","city":"Bogue Gaye","coordinates":{"lat":"15.4833333","long":"-15.4166667"}},{"country":"sn","city":"Boguelbar","coordinates":{"lat":"15.4333333","long":"-15.8333333"}},{"country":"sn","city":"Boguel","coordinates":{"lat":"16.0166667","long":"-13.8333333"}},{"country":"sn","city":"Boguel","coordinates":{"lat":"14.4333333","long":"-15.15"}},{"country":"sn","city":"Boguel","coordinates":{"lat":"12.8141667","long":"-15.0863889"}},{"country":"sn","city":"Boguel Gaye","coordinates":{"lat":"15.4833333","long":"-15.4166667"}},{"country":"sn","city":"Boguène Goli","coordinates":{"lat":"15.8333333","long":"-15.7666667"}},{"country":"sn","city":"Boguessa Boudou","coordinates":{"lat":"15.3833333","long":"-15.75"}},{"country":"sn","city":"Bohé Balédié","coordinates":{"lat":"14.2833333","long":"-13.6"}},{"country":"sn","city":"Bohène","coordinates":{"lat":"14.8333333","long":"-16.2166667"}},{"country":"sn","city":"Bohodi Gobel","coordinates":{"lat":"15.8666667","long":"-15.5666667"}},{"country":"sn","city":"Bohof","coordinates":{"lat":"14.4833333","long":"-16.2333333"}},{"country":"sn","city":"Bohou","coordinates":{"lat":"15.4833333","long":"-13.1"}},{"country":"sn","city":"Boibérol","coordinates":{"lat":"15.8","long":"-15.4333333"}},{"country":"sn","city":"Boinadji Sinthiou","coordinates":{"lat":"15.65","long":"-13.35"}},{"country":"sn","city":"Boingal","coordinates":{"lat":"14.1333333","long":"-14.3666667"}},{"country":"sn","city":"Boinguel","coordinates":{"lat":"14.05","long":"-14.2666667"}},{"country":"sn","city":"Boissédou","coordinates":{"lat":"13.1166667","long":"-15.95"}},{"country":"sn","city":"Boïti","coordinates":{"lat":"16.0252778","long":"-16.2966667"}},{"country":"sn","city":"Boiti","coordinates":{"lat":"15.5666667","long":"-16.3"}},{"country":"sn","city":"Bokar Diakanké","coordinates":{"lat":"12.3833333","long":"-12.5666667"}},{"country":"sn","city":"Boké Baïbé","coordinates":{"lat":"16.05","long":"-13.9833333"}},{"country":"sn","city":"Boké","coordinates":{"lat":"14.3166667","long":"-13.25"}},{"country":"sn","city":"Boké Dialoubé","coordinates":{"lat":"16.0666667","long":"-14.0"}},{"country":"sn","city":"Boké Diégué","coordinates":{"lat":"16.0666667","long":"-14.0"}},{"country":"sn","city":"Boké Fafabé","coordinates":{"lat":"16.05","long":"-13.9666667"}},{"country":"sn","city":"Bokéladji","coordinates":{"lat":"15.05","long":"-12.75"}},{"country":"sn","city":"Boké Namadi","coordinates":{"lat":"16.0333333","long":"-14.2"}},{"country":"sn","city":"Bôkhogne","coordinates":{"lat":"14.6863889","long":"-17.0980556"}},{"country":"sn","city":"Bokhol","coordinates":{"lat":"16.5166667","long":"-15.4"}},{"country":"sn","city":"Boki Baga Pui","coordinates":{"lat":"14.4833333","long":"-15.6333333"}},{"country":"sn","city":"Boki Bagou","coordinates":{"lat":"15.8166667","long":"-13.8833333"}},{"country":"sn","city":"Boki","coordinates":{"lat":"16.5166667","long":"-14.2666667"}},{"country":"sn","city":"Boki Diavé","coordinates":{"lat":"15.8833333","long":"-13.5"}},{"country":"sn","city":"Boki Dior","coordinates":{"lat":"14.35","long":"-14.7"}},{"country":"sn","city":"Boki Divé","coordinates":{"lat":"15.95","long":"-15.4833333"}},{"country":"sn","city":"Bokidouilki","coordinates":{"lat":"14.3333333","long":"-12.65"}},{"country":"sn","city":"Bokié Sintiân","coordinates":{"lat":"12.8","long":"-15.0666667"}},{"country":"sn","city":"Bokiguilé","coordinates":{"lat":"14.5666667","long":"-12.95"}},{"country":"sn","city":"Boki Kekki","coordinates":{"lat":"15.9","long":"-14.55"}},{"country":"sn","city":"Boki Lotchi","coordinates":{"lat":"14.6166667","long":"-15.6666667"}},{"country":"sn","city":"Boki Maboubé","coordinates":{"lat":"14.25","long":"-13.0"}},{"country":"sn","city":"Boki Mbonon","coordinates":{"lat":"14.6833333","long":"-14.65"}},{"country":"sn","city":"Bokinédo","coordinates":{"lat":"16.0166667","long":"-15.7333333"}},{"country":"sn","city":"Boki Saboudo","coordinates":{"lat":"15.7666667","long":"-13.4166667"}},{"country":"sn","city":"Boki Saboudou","coordinates":{"lat":"15.7666667","long":"-13.4166667"}},{"country":"sn","city":"Boki Saboundou","coordinates":{"lat":"14.6166667","long":"-12.8833333"}},{"country":"sn","city":"Boki Sada","coordinates":{"lat":"14.5166667","long":"-14.5333333"}},{"country":"sn","city":"Boki Tiédo","coordinates":{"lat":"15.7","long":"-15.8"}},{"country":"sn","city":"Boki Toudoune","coordinates":{"lat":"15.8833333","long":"-14.5833333"}},{"country":"sn","city":"Bokké","coordinates":{"lat":"16.0666667","long":"-14.0"}},{"country":"sn","city":"Bokobof","coordinates":{"lat":"14.3833333","long":"-16.7"}},{"country":"sn","city":"Boko","coordinates":{"lat":"13.4833333","long":"-12.9666667"}},{"country":"sn","city":"Boko","coordinates":{"lat":"12.775","long":"-16.7555556"}},{"country":"sn","city":"Bokodi","coordinates":{"lat":"13.2333333","long":"-11.7333333"}},{"country":"sn","city":"Bokolako","coordinates":{"lat":"13.6","long":"-12.55"}},{"country":"sn","city":"Bokondine","coordinates":{"lat":"14.9","long":"-16.4166667"}},{"country":"sn","city":"Bokoul","coordinates":{"lat":"16.5166667","long":"-15.4"}},{"country":"sn","city":"Boktol","coordinates":{"lat":"14.7494444","long":"-17.0638889"}},{"country":"sn","city":"Bola Kho","coordinates":{"lat":"15.35","long":"-16.35"}},{"country":"sn","city":"Bolakounda","coordinates":{"lat":"12.7333333","long":"-14.1666667"}},{"country":"sn","city":"Bolèl Gari","coordinates":{"lat":"14.95","long":"-15.8666667"}},{"country":"sn","city":"Boleyel","coordinates":{"lat":"15.8833333","long":"-13.4833333"}},{"country":"sn","city":"Boliboguel","coordinates":{"lat":"14.9833333","long":"-15.65"}},{"country":"sn","city":"Boli","coordinates":{"lat":"14.0833333","long":"-16.3166667"}},{"country":"sn","city":"Boliègué Ardo","coordinates":{"lat":"15.2833333","long":"-15.1833333"}},{"country":"sn","city":"Bolo","coordinates":{"lat":"14.7333333","long":"-15.9333333"}},{"country":"sn","city":"Bolonas","coordinates":{"lat":"14.0833333","long":"-16.5666667"}},{"country":"sn","city":"Bolonhas","coordinates":{"lat":"14.0833333","long":"-16.5666667"}},{"country":"sn","city":"Boltogne","coordinates":{"lat":"15.4","long":"-16.35"}},{"country":"sn","city":"Bombali","coordinates":{"lat":"12.6030556","long":"-15.6605556"}},{"country":"sn","city":"Bombouda","coordinates":{"lat":"12.64","long":"-15.9247222"}},{"country":"sn","city":"Bombuda","coordinates":{"lat":"12.64","long":"-15.9247222"}},{"country":"sn","city":"Bompane","coordinates":{"lat":"14.85","long":"-16.6333333"}},{"country":"sn","city":"Bona","coordinates":{"lat":"12.9580556","long":"-15.8380556"}},{"country":"sn","city":"Bonboye","coordinates":{"lat":"14.6666667","long":"-16.6166667"}},{"country":"sn","city":"Bonboye","coordinates":{"lat":"14.7","long":"-16.9333333"}},{"country":"sn","city":"Bonconto","coordinates":{"lat":"13.0333333","long":"-13.9333333"}},{"country":"sn","city":"Bondali","coordinates":{"lat":"12.5563889","long":"-15.7469444"}},{"country":"sn","city":"Bondié","coordinates":{"lat":"14.4166667","long":"-15.5833333"}},{"country":"sn","city":"Bondié Peul","coordinates":{"lat":"14.4333333","long":"-15.5833333"}},{"country":"sn","city":"Bondié Samba","coordinates":{"lat":"14.4166667","long":"-15.5833333"}},{"country":"sn","city":"Bondié Tiamène","coordinates":{"lat":"14.4166667","long":"-15.5833333"}},{"country":"sn","city":"Bondié Tiarène","coordinates":{"lat":"14.4166667","long":"-15.5666667"}},{"country":"sn","city":"Bondji Bokar Demba","coordinates":{"lat":"15.0","long":"-12.6333333"}},{"country":"sn","city":"Bondji","coordinates":{"lat":"15.0","long":"-12.6333333"}},{"country":"sn","city":"Bonkonto","coordinates":{"lat":"13.0333333","long":"-13.9333333"}},{"country":"sn","city":"Bonmadigui","coordinates":{"lat":"13.0333333","long":"-11.5666667"}},{"country":"sn","city":"Bonou","coordinates":{"lat":"12.5877778","long":"-15.5897222"}},{"country":"sn","city":"Bontou","coordinates":{"lat":"13.65","long":"-12.0333333"}},{"country":"sn","city":"Bonu","coordinates":{"lat":"12.5877778","long":"-15.5897222"}},{"country":"sn","city":"Bop","coordinates":{"lat":"14.705","long":"-17.4494444"}},{"country":"sn","city":"Bop Tior","coordinates":{"lat":"16.0561111","long":"-16.4955556"}},{"country":"sn","city":"Bordé","coordinates":{"lat":"14.8166667","long":"-12.5"}},{"country":"sn","city":"Borhosem","coordinates":{"lat":"14.8333333","long":"-16.6666667"}},{"country":"sn","city":"Borodène","coordinates":{"lat":"14.6","long":"-16.4666667"}},{"country":"sn","city":"Boro Deunde","coordinates":{"lat":"15.1833333","long":"-16.9"}},{"country":"sn","city":"Borofaye Bayot","coordinates":{"lat":"12.5166667","long":"-16.2833333"}},{"country":"sn","city":"Borofaye","coordinates":{"lat":"12.4925","long":"-16.29"}},{"country":"sn","city":"Borofaye Diola","coordinates":{"lat":"12.5091667","long":"-16.2819444"}},{"country":"sn","city":"Boro Tirel","coordinates":{"lat":"14.1333333","long":"-13.0833333"}},{"country":"sn","city":"Boroya","coordinates":{"lat":"12.6597222","long":"-15.5197222"}},{"country":"sn","city":"Bos","coordinates":{"lat":"14.0","long":"-16.0166667"}},{"country":"sn","city":"Bosséabé","coordinates":{"lat":"15.3166667","long":"-12.9833333"}},{"country":"sn","city":"Bossédji Bara","coordinates":{"lat":"14.3166667","long":"-15.7333333"}},{"country":"sn","city":"Bossédji Bobou Faye","coordinates":{"lat":"14.3166667","long":"-15.7166667"}},{"country":"sn","city":"Bossinnka","coordinates":{"lat":"13.7333333","long":"-16.5666667"}},{"country":"sn","city":"Boto","coordinates":{"lat":"12.4833333","long":"-11.45"}},{"country":"sn","city":"Botou","coordinates":{"lat":"13.8166667","long":"-13.5833333"}},{"country":"sn","city":"B'oub'ab","coordinates":{"lat":"14.5725","long":"-17.0555556"}},{"country":"sn","city":"Boubak","coordinates":{"lat":"15.2333333","long":"-14.9833333"}},{"country":"sn","city":"Boubane","coordinates":{"lat":"14.8333333","long":"-16.5666667"}},{"country":"sn","city":"Boubane","coordinates":{"lat":"14.4333333","long":"-15.6"}},{"country":"sn","city":"Boubel","coordinates":{"lat":"14.2333333","long":"-13.9166667"}},{"country":"sn","city":"Boubene","coordinates":{"lat":"14.5666667","long":"-15.8"}},{"country":"sn","city":"Boubia","coordinates":{"lat":"14.3833333","long":"-12.2833333"}},{"country":"sn","city":"Bouborel","coordinates":{"lat":"12.7666667","long":"-14.5166667"}},{"country":"sn","city":"Bouboudem","coordinates":{"lat":"13.8166667","long":"-15.7833333"}},{"country":"sn","city":"Bouboudième","coordinates":{"lat":"13.8166667","long":"-15.7833333"}},{"country":"sn","city":"Bouboukounda","coordinates":{"lat":"13.05","long":"-14.4166667"}},{"country":"sn","city":"Boudaye","coordinates":{"lat":"14.4","long":"-16.4166667"}},{"country":"sn","city":"Boudaye","coordinates":{"lat":"13.9333333","long":"-16.1833333"}},{"country":"sn","city":"Boudhié Samine","coordinates":{"lat":"12.6538889","long":"-15.6902778"}},{"country":"sn","city":"Boudiangat","coordinates":{"lat":"12.95","long":"-16.0166667"}},{"country":"sn","city":"Boudiangate","coordinates":{"lat":"12.95","long":"-16.0166667"}},{"country":"sn","city":"Boudi","coordinates":{"lat":"15.8","long":"-15.9333333"}},{"country":"sn","city":"Boudiéguel","coordinates":{"lat":"14.25","long":"-15.0166667"}},{"country":"sn","city":"Boudiémar","coordinates":{"lat":"12.6213889","long":"-15.6377778"}},{"country":"sn","city":"Boudi Sènetiè","coordinates":{"lat":"15.8","long":"-15.9166667"}},{"country":"sn","city":"Boudok","coordinates":{"lat":"13.0952778","long":"-16.7105556"}},{"country":"sn","city":"Boudone","coordinates":{"lat":"12.6833333","long":"-16.25"}},{"country":"sn","city":"Boudouk","coordinates":{"lat":"13.2833333","long":"-15.7166667"}},{"country":"sn","city":"Boudou Mbaba","coordinates":{"lat":"14.6166667","long":"-14.6166667"}},{"country":"sn","city":"Boudoura","coordinates":{"lat":"14.8666667","long":"-14.4166667"}},{"country":"sn","city":"Boudy","coordinates":{"lat":"15.8","long":"-15.9333333"}},{"country":"sn","city":"Boufanto","coordinates":{"lat":"13.1333333","long":"-14.1833333"}},{"country":"sn","city":"Boufara Gor","coordinates":{"lat":"13.2333333","long":"-15.65"}},{"country":"sn","city":"Boufou","coordinates":{"lat":"12.65","long":"-16.6833333"}},{"country":"sn","city":"Boufoudj","coordinates":{"lat":"14.5666667","long":"-16.6166667"}},{"country":"sn","city":"Bougari","coordinates":{"lat":"12.9936111","long":"-15.8302778"}},{"country":"sn","city":"Bougnadou","coordinates":{"lat":"12.8141667","long":"-15.4769444"}},{"country":"sn","city":"Bougnous","coordinates":{"lat":"12.8888889","long":"-15.7963889"}},{"country":"sn","city":"Bougnousse","coordinates":{"lat":"12.8888889","long":"-15.7963889"}},{"country":"sn","city":"Bougolo","coordinates":{"lat":"12.9833333","long":"-16.0666667"}},{"country":"sn","city":"Bougolor","coordinates":{"lat":"12.8213889","long":"-16.3716667"}},{"country":"sn","city":"Bougou","coordinates":{"lat":"14.7669444","long":"-17.3402778"}},{"country":"sn","city":"Bougoulo","coordinates":{"lat":"12.9833333","long":"-16.0666667"}},{"country":"sn","city":"Bougoutoum","coordinates":{"lat":"12.9030556","long":"-16.0916667"}},{"country":"sn","city":"Bouhinor","coordinates":{"lat":"12.8638889","long":"-16.0563889"}},{"country":"sn","city":"Bouhouyoum","coordinates":{"lat":"12.45","long":"-16.25"}},{"country":"sn","city":"Bouhouyoume","coordinates":{"lat":"12.45","long":"-16.25"}},{"country":"sn","city":"Bouigheul Bamba","coordinates":{"lat":"14.1","long":"-12.9333333"}},{"country":"sn","city":"Bouïguel Banba","coordinates":{"lat":"14.1","long":"-12.9333333"}},{"country":"sn","city":"Bouigueul Bamba","coordinates":{"lat":"14.1","long":"-12.9333333"}},{"country":"sn","city":"Boukaour","coordinates":{"lat":"12.5383333","long":"-15.7336111"}},{"country":"sn","city":"Boukarkounda","coordinates":{"lat":"12.6455556","long":"-15.4852778"}},{"country":"sn","city":"Boukhou","coordinates":{"lat":"14.6761111","long":"-17.1186111"}},