[{"country":"kr","city":"Â¿Â¿","coordinates":{"lat":"34.367778","long":"126.719444"}},{"country":"kr","city":"Aaraeangol","coordinates":{"lat":"35.555093","long":"127.618664"}},{"country":"kr","city":"Abangsil","coordinates":{"lat":"36.3448","long":"129.0511"}},{"country":"kr","city":"Achae","coordinates":{"lat":"37.2296","long":"127.7582"}},{"country":"kr","city":"Achagol","coordinates":{"lat":"37.4585","long":"128.6636"}},{"country":"kr","city":"Achanori","coordinates":{"lat":"37.8784","long":"127.0645"}},{"country":"kr","city":"Achasil","coordinates":{"lat":"36.7","long":"127.783333"}},{"country":"kr","city":"Achi","coordinates":{"lat":"35.65703","long":"128.366313"}},{"country":"kr","city":"Achigok","coordinates":{"lat":"36.6487","long":"129.3779"}},{"country":"kr","city":"A Chigu","coordinates":{"lat":"36.3704","long":"127.4738"}},{"country":"kr","city":"Achimchi","coordinates":{"lat":"37.2789","long":"128.295"}},{"country":"kr","city":"Achimgari","coordinates":{"lat":"37.6925","long":"126.496667"}},{"country":"kr","city":"Achimgol","coordinates":{"lat":"37.3603","long":"128.3452"}},{"country":"kr","city":"Achimgol","coordinates":{"lat":"35.214421","long":"128.466061"}},{"country":"kr","city":"Achimmot","coordinates":{"lat":"37.9457","long":"127.7637"}},{"country":"kr","city":"Achinae","coordinates":{"lat":"36.721111","long":"126.130833"}},{"country":"kr","city":"Achisil","coordinates":{"lat":"35.678551","long":"128.327587"}},{"country":"kr","city":"Achiul","coordinates":{"lat":"37.5756","long":"127.115"}},{"country":"kr","city":"Achon","coordinates":{"lat":"36.177395","long":"128.115702"}},{"country":"kr","city":"Achon","coordinates":{"lat":"34.766667","long":"126.1"}},{"country":"kr","city":"Achon","coordinates":{"lat":"35.538721","long":"128.183853"}},{"country":"kr","city":"Adong","coordinates":{"lat":"34.983333","long":"127.766667"}},{"country":"kr","city":"Adubaengi","coordinates":{"lat":"37.3996","long":"129.1082"}},{"country":"kr","city":"Aduni","coordinates":{"lat":"38.065833","long":"127.634722"}},{"country":"kr","city":"Aean","coordinates":{"lat":"37.3291","long":"127.8358"}},{"country":"kr","city":"Aechanni","coordinates":{"lat":"36.133333","long":"126.566667"}},{"country":"kr","city":"Aechori","coordinates":{"lat":"34.4425","long":"127.489167"}},{"country":"kr","city":"Aedang","coordinates":{"lat":"36.7408","long":"126.4215"}},{"country":"kr","city":"Aedo","coordinates":{"lat":"34.466667","long":"127.45"}},{"country":"kr","city":"Aedong","coordinates":{"lat":"36.933333","long":"126.516667"}},{"country":"kr","city":"Aedori","coordinates":{"lat":"34.466667","long":"127.45"}},{"country":"kr","city":"Aegigol","coordinates":{"lat":"37.9464","long":"127.5246"}},{"country":"kr","city":"Aegisangol","coordinates":{"lat":"37.281667","long":"126.908889"}},{"country":"kr","city":"Aegoji","coordinates":{"lat":"37.6023","long":"128.1779"}},{"country":"kr","city":"Aegongni","coordinates":{"lat":"36.484613","long":"127.613293"}},{"country":"kr","city":"Aegye","coordinates":{"lat":"35.25","long":"126.983333"}},{"country":"kr","city":"Aegyo","coordinates":{"lat":"36.2239","long":"127.9302"}},{"country":"kr","city":"Aejon","coordinates":{"lat":"37.0045","long":"128.7305"}},{"country":"kr","city":"Aejongni","coordinates":{"lat":"36.73191","long":"126.420345"}},{"country":"kr","city":"Aejowolli","coordinates":{"lat":"34.866955","long":"128.410671"}},{"country":"kr","city":"Aemisil","coordinates":{"lat":"36.1868","long":"127.7917"}},{"country":"kr","city":"Aenae","coordinates":{"lat":"37.12","long":"126.943056"}},{"country":"kr","city":"Aenangni","coordinates":{"lat":"34.615833","long":"126.290278"}},{"country":"kr","city":"Aengchonni","coordinates":{"lat":"36.9","long":"127.8"}},{"country":"kr","city":"Aenggok","coordinates":{"lat":"35.804036","long":"127.029739"}},{"country":"kr","city":"Aenghwadong","coordinates":{"lat":"36.3651","long":"126.8713"}},{"country":"kr","city":"Aengmitae","coordinates":{"lat":"34.650806","long":"127.027833"}},{"country":"kr","city":"Aengmuchon","coordinates":{"lat":"35.05","long":"126.916667"}},{"country":"kr","city":"Aengmudong","coordinates":{"lat":"36.460497","long":"127.907486"}},{"country":"kr","city":"Aengsandong","coordinates":{"lat":"37.1493","long":"127.5017"}},{"country":"kr","city":"Aengsanggol","coordinates":{"lat":"37.9319","long":"127.6087"}},{"country":"kr","city":"Aengsangkol","coordinates":{"lat":"37.9319","long":"127.6087"}},{"country":"kr","city":"Aerari","coordinates":{"lat":"36.5361","long":"126.8552"}},{"country":"kr","city":"Aettumi","coordinates":{"lat":"36.8274","long":"129.0387"}},{"country":"kr","city":"Aewol","coordinates":{"lat":"33.464444","long":"126.318333"}},{"country":"kr","city":"Aewolli","coordinates":{"lat":"33.464444","long":"126.318333"}},{"country":"kr","city":"Aeyangni","coordinates":{"lat":"34.843333","long":"127.635"}},{"country":"kr","city":"Aeyangri","coordinates":{"lat":"34.843333","long":"127.635"}},{"country":"kr","city":"Aeyangwon","coordinates":{"lat":"34.843333","long":"127.635"}},{"country":"kr","city":"Agabol","coordinates":{"lat":"36.3422","long":"126.8466"}},{"country":"kr","city":"Agadongsan","coordinates":{"lat":"37.214167","long":"127.486389"}},{"country":"kr","city":"Agalchaebi","coordinates":{"lat":"36.5978","long":"126.3523"}},{"country":"kr","city":"Agam","coordinates":{"lat":"36.3549","long":"127.5174"}},{"country":"kr","city":"Agame","coordinates":{"lat":"37.8225","long":"126.775"}},{"country":"kr","city":"Agok","coordinates":{"lat":"37.104444","long":"127.089167"}},{"country":"kr","city":"Agok","coordinates":{"lat":"36.5839","long":"129.3851"}},{"country":"kr","city":"Agokdong","coordinates":{"lat":"37.1525","long":"127.167778"}},{"country":"kr","city":"Agokri","coordinates":{"lat":"37.148333","long":"127.168333"}},{"country":"kr","city":"Agoktong","coordinates":{"lat":"37.1525","long":"127.167778"}},{"country":"kr","city":"Agol","coordinates":{"lat":"36.2","long":"128.383333"}},{"country":"kr","city":"Agongni","coordinates":{"lat":"35.4875","long":"127.572778"}},{"country":"kr","city":"Agongni","coordinates":{"lat":"36.121111","long":"127.665278"}},{"country":"kr","city":"Agongni","coordinates":{"lat":"37.148333","long":"127.168333"}},{"country":"kr","city":"Agongni","coordinates":{"lat":"35.316667","long":"126.733333"}},{"country":"kr","city":"Agulli","coordinates":{"lat":"35.50561","long":"128.379494"}},{"country":"kr","city":"Agyang","coordinates":{"lat":"35.120864","long":"128.248552"}},{"country":"kr","city":"Agyedong","coordinates":{"lat":"37.849","long":"128.2718"}},{"country":"kr","city":"Agyo","coordinates":{"lat":"34.946396","long":"127.464382"}},{"country":"kr","city":"Aho","coordinates":{"lat":"36.953333","long":"128.62"}},{"country":"kr","city":"Aho","coordinates":{"lat":"36.20935","long":"127.121508"}},{"country":"kr","city":"Ahopsari","coordinates":{"lat":"37.1972","long":"127.8673"}},{"country":"kr","city":"Ahopsari","coordinates":{"lat":"36.1526","long":"128.1161"}},{"country":"kr","city":"Ahoraji","coordinates":{"lat":"37.8032","long":"127.9973"}},{"country":"kr","city":"Ahori","coordinates":{"lat":"36.20935","long":"127.121508"}},{"country":"kr","city":"Ahunegol","coordinates":{"lat":"37.165","long":"128.4576"}},{"country":"kr","city":"Ahuppauri","coordinates":{"lat":"35.266667","long":"126.983333"}},{"country":"kr","city":"Ahwa","coordinates":{"lat":"35.894167","long":"129.046111"}},{"country":"kr","city":"Ahwari","coordinates":{"lat":"35.894167","long":"129.046111"}},{"country":"kr","city":"Ahyondong","coordinates":{"lat":"37.5546","long":"126.9507"}},{"country":"kr","city":"Ahyonidong","coordinates":{"lat":"37.5553","long":"126.95355"}},{"country":"kr","city":"Ahyoniltong","coordinates":{"lat":"37.55472","long":"126.95929"}},{"country":"kr","city":"Ahyonjong","coordinates":{"lat":"37.5546","long":"126.9507"}},{"country":"kr","city":"Ahyonni","coordinates":{"lat":"36.85","long":"126.883333"}},{"country":"kr","city":"Ahyonsamdong","coordinates":{"lat":"37.55247","long":"126.95384"}},{"country":"kr","city":"Ajaengigol","coordinates":{"lat":"37.3476","long":"129.1417"}},{"country":"kr","city":"Ajeonri","coordinates":{"lat":"37.029722","long":"127.349444"}},{"country":"kr","city":"Ajidong","coordinates":{"lat":"37.477","long":"128.4768"}},{"country":"kr","city":"Ajigi","coordinates":{"lat":"34.816667","long":"128.516667"}},{"country":"kr","city":"Ajiktong","coordinates":{"lat":"35.689846","long":"127.015386"}},{"country":"kr","city":"Ajimal","coordinates":{"lat":"36.6901","long":"126.5511"}},{"country":"kr","city":"Ajiri","coordinates":{"lat":"35.432078","long":"128.437001"}},{"country":"kr","city":"Ajiryang","coordinates":{"lat":"34.816667","long":"128.516667"}},{"country":"kr","city":"Ajolli","coordinates":{"lat":"37.029722","long":"127.349444"}},{"country":"kr","city":"Ajon","coordinates":{"lat":"35.860407","long":"128.130868"}},{"country":"kr","city":"Ajonsari","coordinates":{"lat":"38.113889","long":"128.188333"}},{"country":"kr","city":"Aju","coordinates":{"lat":"37.475","long":"127.414167"}},{"country":"kr","city":"Aju","coordinates":{"lat":"35.695238","long":"127.96329"}},{"country":"kr","city":"Ajungni","coordinates":{"lat":"35.816667","long":"127.2"}},{"country":"kr","city":"Ajuri","coordinates":{"lat":"35.695238","long":"127.96329"}},{"country":"kr","city":"Akatsuki","coordinates":{"lat":"33.386111","long":"126.265556"}},{"country":"kr","city":"Akkabawi","coordinates":{"lat":"37.9876","long":"127.0038"}},{"country":"kr","city":"Akkul","coordinates":{"lat":"36.5156","long":"126.7132"}},{"country":"kr","city":"Ako","coordinates":{"lat":"36.20935","long":"127.121508"}},{"country":"kr","city":"Akori","coordinates":{"lat":"36.20935","long":"127.121508"}},{"country":"kr","city":"Aksa","coordinates":{"lat":"36.517222","long":"128.907778"}},{"country":"kr","city":"Aksanggol","coordinates":{"lat":"37.771944","long":"126.698889"}},{"country":"kr","city":"Albong","coordinates":{"lat":"37.51","long":"130.86"}},{"country":"kr","city":"Albongdong","coordinates":{"lat":"33.2","long":"126.283333"}},{"country":"kr","city":"Alchanni","coordinates":{"lat":"36.133333","long":"126.566667"}},{"country":"kr","city":"Algaengi","coordinates":{"lat":"34.217778","long":"126.609444"}},{"country":"kr","city":"Algaesil","coordinates":{"lat":"35.400466","long":"128.441771"}},{"country":"kr","city":"Alguji","coordinates":{"lat":"37.0812","long":"127.6481"}},{"country":"kr","city":"Allakgol","coordinates":{"lat":"37.043","long":"127.7085"}},{"country":"kr","city":"Allakkol","coordinates":{"lat":"37.043","long":"127.7085"}},{"country":"kr","city":"Alli","coordinates":{"lat":"35.578179","long":"128.383944"}},{"country":"kr","city":"Allim","coordinates":{"lat":"36.3149","long":"127.7334"}},{"country":"kr","city":"Allim","coordinates":{"lat":"35.693993","long":"128.258221"}},{"country":"kr","city":"Allimdong","coordinates":{"lat":"35.693993","long":"128.258221"}},{"country":"kr","city":"Allimni","coordinates":{"lat":"35.693993","long":"128.258221"}},{"country":"kr","city":"Allyong","coordinates":{"lat":"36.1801","long":"127.9697"}},{"country":"kr","city":"Allyong","coordinates":{"lat":"36.3347","long":"128.079"}},{"country":"kr","city":"Allyongdong","coordinates":{"lat":"36.259167","long":"128.484444"}},{"country":"kr","city":"Allyongjigol","coordinates":{"lat":"37.837222","long":"126.834722"}},{"country":"kr","city":"Allyongni","coordinates":{"lat":"37.205278","long":"127.011944"}},{"country":"kr","city":"Almi","coordinates":{"lat":"37.741389","long":"126.491944"}},{"country":"kr","city":"Almi","coordinates":{"lat":"36.1171","long":"127.4596"}},{"country":"kr","city":"Almijang","coordinates":{"lat":"35.516667","long":"126.683333"}},{"country":"kr","city":"Almijangto","coordinates":{"lat":"35.516667","long":"126.683333"}},{"country":"kr","city":"Almoe","coordinates":{"lat":"36.252","long":"127.4609"}},{"country":"kr","city":"Almyon","coordinates":{"lat":"37.329","long":"128.2691"}},{"country":"kr","city":"Alsangol","coordinates":{"lat":"37.2359","long":"127.8027"}},{"country":"kr","city":"Alsangol","coordinates":{"lat":"36.774722","long":"128.672222"}},{"country":"kr","city":"Alsonggol","coordinates":{"lat":"36.774722","long":"128.672222"}},{"country":"kr","city":"Alto","coordinates":{"lat":"35.714116","long":"128.296825"}},{"country":"kr","city":"Amaksong","coordinates":{"lat":"35.514493","long":"127.574029"}},{"country":"kr","city":"Amangni","coordinates":{"lat":"35.560306","long":"128.269346"}},{"country":"kr","city":"Ambodae","coordinates":{"lat":"38.013333","long":"127.878056"}},{"country":"kr","city":"Amchi","coordinates":{"lat":"35.466667","long":"127.15"}},{"country":"kr","city":"Amchiri","coordinates":{"lat":"35.357222","long":"126.643333"}},{"country":"kr","city":"Amchiri","coordinates":{"lat":"36.85","long":"126.666667"}},{"country":"kr","city":"Amcholli","coordinates":{"lat":"34.833333","long":"126.883333"}},{"country":"kr","city":"Amchon","coordinates":{"lat":"34.643611","long":"125.396389"}},{"country":"kr","city":"Amchonni","coordinates":{"lat":"34.833333","long":"126.883333"}},{"country":"kr","city":"Amdol","coordinates":{"lat":"36.9457","long":"129.0207"}},{"country":"kr","city":"Amdong","coordinates":{"lat":"35.65","long":"128.416667"}},{"country":"kr","city":"Amdong","coordinates":{"lat":"34.643611","long":"125.396389"}},{"country":"kr","city":"Amgidong","coordinates":{"lat":"37.008088","long":"129.073275"}},{"country":"kr","city":"Amgilli","coordinates":{"lat":"34.75","long":"126.6"}},{"country":"kr","city":"Amgoktong","coordinates":{"lat":"36.2718","long":"128.1427"}},{"country":"kr","city":"Amha","coordinates":{"lat":"36.6881","long":"126.8383"}},{"country":"kr","city":"Amido","coordinates":{"lat":"37.533333","long":"128.45"}},{"country":"kr","city":"Amidong","coordinates":{"lat":"37.533333","long":"128.45"}},{"country":"kr","city":"Amiri","coordinates":{"lat":"37.259722","long":"127.495833"}},{"country":"kr","city":"Amjadong","coordinates":{"lat":"37.4915","long":"128.5251"}},{"country":"kr","city":"Amjaeri","coordinates":{"lat":"36.85","long":"126.666667"}},{"country":"kr","city":"Amjil","coordinates":{"lat":"36.1227","long":"127.5304"}},{"country":"kr","city":"Amjondong","coordinates":{"lat":"36.3746","long":"129.0903"}},{"country":"kr","city":"Amjongni","coordinates":{"lat":"34.932778","long":"126.828611"}},{"country":"kr","city":"Ammal","coordinates":{"lat":"37.058889","long":"127.105556"}},{"country":"kr","city":"Ammori","coordinates":{"lat":"36.6277","long":"126.308"}},{"country":"kr","city":"Amnae","coordinates":{"lat":"36.1124","long":"127.5714"}},{"country":"kr","city":"Amnakchon","coordinates":{"lat":"36.3443","long":"127.478"}},{"country":"kr","city":"Amnamdong","coordinates":{"lat":"35.066667","long":"129.016667"}},{"country":"kr","city":"Amnamni","coordinates":{"lat":"35.066667","long":"129.016667"}},{"country":"kr","city":"Amnaru","coordinates":{"lat":"38.120985","long":"128.629093"}},{"country":"kr","city":"Amni","coordinates":{"lat":"35.75","long":"129"}},{"country":"kr","city":"Amni","coordinates":{"lat":"35.578179","long":"128.383944"}},{"country":"kr","city":"Amnongni","coordinates":{"lat":"35.195","long":"127.37"}},{"country":"kr","city":"Ampo","coordinates":{"lat":"35.589848","long":"127.218003"}},{"country":"kr","city":"Ampori","coordinates":{"lat":"35.583333","long":"127.216667"}},{"country":"kr","city":"Ampyong","coordinates":{"lat":"35.46983","long":"128.31101"}},{"country":"kr","city":"Amsa","coordinates":{"lat":"37.5519","long":"127.1325"}},{"country":"kr","city":"Amsadong","coordinates":{"lat":"37.5519","long":"127.1325"}},{"country":"kr","city":"Amsaidong","coordinates":{"lat":"37.55815","long":"127.1231"}},{"country":"kr","city":"Amsailtong","coordinates":{"lat":"37.55092","long":"127.13161"}},{"country":"kr","city":"Amsalli","coordinates":{"lat":"37.16803","long":"127.5416"}},{"country":"kr","city":"Amsamni","coordinates":{"lat":"36.0682","long":"127.3833"}},{"country":"kr","city":"Amsan","coordinates":{"lat":"37.472778","long":"127.025"}},{"country":"kr","city":"Amsan","coordinates":{"lat":"36.5","long":"128.683333"}},{"country":"kr","city":"Amsanri","coordinates":{"lat":"37.16803","long":"127.5416"}},{"country":"kr","city":"Amsari","coordinates":{"lat":"37.5519","long":"127.1325"}},{"country":"kr","city":"Amsasadong","coordinates":{"lat":"37.55158","long":"127.13958"}},{"country":"kr","city":"Amsasamdong","coordinates":{"lat":"37.56248","long":"127.13837"}},{"country":"kr","city":"Amsil","coordinates":{"lat":"37.8335","long":"127.7845"}},{"country":"kr","city":"Amsobawi","coordinates":{"lat":"36.4813","long":"127.76"}},{"country":"kr","city":"Amsogae","coordinates":{"lat":"36.761","long":"127.0829"}},{"country":"kr","city":"Amsudong","coordinates":{"lat":"37.8722","long":"128.2573"}},{"country":"kr","city":"Amugul","coordinates":{"lat":"36.7208","long":"126.8066"}},{"country":"kr","city":"Anaemal","coordinates":{"lat":"36.8849","long":"126.9726"}},{"country":"kr","city":"Anaeri","coordinates":{"lat":"36.760556","long":"127.299722"}},{"country":"kr","city":"Anak","coordinates":{"lat":"36.6125","long":"126.5816"}},{"country":"kr","city":"Anakkul","coordinates":{"lat":"36.5302","long":"126.4884"}},{"country":"kr","city":"Anam","coordinates":{"lat":"36.8486","long":"129.2272"}},{"country":"kr","city":"Anam","coordinates":{"lat":"36.8237","long":"126.4144"}},{"country":"kr","city":"Anamdong","coordinates":{"lat":"37.58685","long":"127.02755"}},{"country":"kr","city":"Anamdong","coordinates":{"lat":"36.8486","long":"129.2272"}},{"country":"kr","city":"Anamgol","coordinates":{"lat":"36.4868","long":"127.6292"}},{"country":"kr","city":"Anbaemi","coordinates":{"lat":"36.0554","long":"128.3495"}},{"country":"kr","city":"Anbaeteo","coordinates":{"lat":"37.249722","long":"127.372778"}},{"country":"kr","city":"Anbaeto","coordinates":{"lat":"37.249722","long":"127.372778"}},{"country":"kr","city":"Anbaji","coordinates":{"lat":"37.8052","long":"127.5237"}},{"country":"kr","city":"Anbakkol","coordinates":{"lat":"37.54753","long":"127.87733"}},{"country":"kr","city":"Anbamgol","coordinates":{"lat":"37.54753","long":"127.87733"}},{"country":"kr","city":"Anbandok","coordinates":{"lat":"37.6156","long":"128.7395"}},{"country":"kr","city":"Anbang","coordinates":{"lat":"35.761432","long":"127.352695"}},{"country":"kr","city":"Anbanji","coordinates":{"lat":"37.8631","long":"127.6188"}},{"country":"kr","city":"Anbannae","coordinates":{"lat":"37.033333","long":"127.866667"}},{"country":"kr","city":"Anbannaeri","coordinates":{"lat":"37.033333","long":"127.866667"}},{"country":"kr","city":"Anbatang","coordinates":{"lat":"34.745278","long":"126.6625"}},{"country":"kr","city":"Anbesul","coordinates":{"lat":"37.156389","long":"126.729167"}},{"country":"kr","city":"Anbi","coordinates":{"lat":"37.8366","long":"127.5845"}},{"country":"kr","city":"Anbodong","coordinates":{"lat":"33.416667","long":"126.783333"}},{"country":"kr","city":"Anbodusugol","coordinates":{"lat":"35.999239","long":"127.70358"}},{"country":"kr","city":"Anbogwangni","coordinates":{"lat":"36.2113","long":"127.5495"}},{"country":"kr","city":"Anbol","coordinates":{"lat":"36.729","long":"126.7428"}},{"country":"kr","city":"Anbolmae","coordinates":{"lat":"36.7882","long":"129.126"}},{"country":"kr","city":"Anbomi","coordinates":{"lat":"36.8095","long":"127.0749"}},{"country":"kr","city":"Anbomni","coordinates":{"lat":"35.484444","long":"128.850556"}},{"country":"kr","city":"Anbong","coordinates":{"lat":"35.338889","long":"127.956389"}},{"country":"kr","city":"Anbongbawi","coordinates":{"lat":"37.1495","long":"127.6229"}},{"country":"kr","city":"Anbongchon","coordinates":{"lat":"36.426","long":"127.3153"}},{"country":"kr","city":"Anbonggol","coordinates":{"lat":"38.171389","long":"127.629167"}},{"country":"kr","city":"Anbongni","coordinates":{"lat":"35.338889","long":"127.956389"}},{"country":"kr","city":"Anbopri","coordinates":{"lat":"35.484444","long":"128.850556"}},{"country":"kr","city":"Anbopsudong","coordinates":{"lat":"36.3421","long":"129.1555"}},{"country":"kr","city":"Anbudong","coordinates":{"lat":"36.4479","long":"126.9986"}},{"country":"kr","city":"Anbulmigol","coordinates":{"lat":"36.0135","long":"128.3768"}},{"country":"kr","city":"Anbusom","coordinates":{"lat":"36.8496","long":"126.2938"}},{"country":"kr","city":"Anbyollisil","coordinates":{"lat":"35.545622","long":"128.147674"}},{"country":"kr","city":"Anchaenggi","coordinates":{"lat":"35.93338","long":"128.098102"}},{"country":"kr","city":"Anchangjuk","coordinates":{"lat":"37.233056","long":"128.945"}},{"country":"kr","city":"Anchangmoru","coordinates":{"lat":"37.5374","long":"127.2303"}},{"country":"kr","city":"Anchi","coordinates":{"lat":"34.492778","long":"126.182778"}},{"country":"kr","city":"Anchi","coordinates":{"lat":"36.2695","long":"126.7929"}},{"country":"kr","city":"Anchiri","coordinates":{"lat":"34.492778","long":"126.182778"}},{"country":"kr","city":"Anchiri","coordinates":{"lat":"36.6841","long":"126.6858"}},{"country":"kr","city":"Anchirigol","coordinates":{"lat":"35.563044","long":"127.841296"}},{"country":"kr","city":"Ancholli","coordinates":{"lat":"35.424444","long":"128.900278"}},{"country":"kr","city":"Anchon","coordinates":{"lat":"35.946124","long":"127.038206"}},{"country":"kr","city":"Anchon","coordinates":{"lat":"37.486389","long":"127.738333"}},{"country":"kr","city":"Anchon","coordinates":{"lat":"35.666515","long":"128.395633"}},{"country":"kr","city":"Anchon","coordinates":{"lat":"35.424444","long":"128.900278"}},{"country":"kr","city":"Anchongni","coordinates":{"lat":"35.216667","long":"126.8"}},{"country":"kr","city":"Anchonmal","coordinates":{"lat":"37.9715","long":"127.2059"}},{"country":"kr","city":"Anchonmani","coordinates":{"lat":"36.083333","long":"127.8"}},{"country":"kr","city":"Andaean","coordinates":{"lat":"36.0151","long":"128.2459"}},{"country":"kr","city":"Andae","coordinates":{"lat":"36.212552","long":"127.88958"}},{"country":"kr","city":"Andaebyol","coordinates":{"lat":"36.2873","long":"127.449"}},{"country":"kr","city":"Andaegol","coordinates":{"lat":"36.2792","long":"128.8869"}},{"country":"kr","city":"Andaemi","coordinates":{"lat":"36.374016","long":"127.938819"}},{"country":"kr","city":"Andaeri","coordinates":{"lat":"36.212552","long":"127.88958"}},{"country":"kr","city":"Andaeri","coordinates":{"lat":"38.086944","long":"127.988611"}},{"country":"kr","city":"Andaeri","coordinates":{"lat":"35.406944","long":"128.873056"}},{"country":"kr","city":"Andaeul","coordinates":{"lat":"36.4337","long":"126.8691"}},{"country":"kr","city":"Andalbi","coordinates":{"lat":"36.055","long":"129.531389"}},{"country":"kr","city":"Andalgimul","coordinates":{"lat":"36.658","long":"126.7375"}},{"country":"kr","city":"Andalgol","coordinates":{"lat":"37.1263","long":"128.456"}},{"country":"kr","city":"Andam","coordinates":{"lat":"36.0795","long":"127.5727"}},{"country":"kr","city":"Andam","coordinates":{"lat":"35.54457","long":"128.027659"}},{"country":"kr","city":"Andang","coordinates":{"lat":"36.565556","long":"128.725"}},{"country":"kr","city":"Andanggol","coordinates":{"lat":"37.3141","long":"128.1295"}},{"country":"kr","city":"Andangni","coordinates":{"lat":"36.1","long":"126.783333"}},{"country":"kr","city":"Andanim","coordinates":{"lat":"37.552","long":"128.5998"}},{"country":"kr","city":"Andarigol","coordinates":{"lat":"37.0593","long":"127.6801"}},{"country":"kr","city":"Andimi","coordinates":{"lat":"37.118889","long":"126.783611"}},{"country":"kr","city":"Andoamgol","coordinates":{"lat":"36.4602","long":"127.8887"}},{"country":"kr","city":"Ando","coordinates":{"lat":"34.483333","long":"127.8"}},{"country":"kr","city":"Ando","coordinates":{"lat":"35.033889","long":"128.02"}},{"country":"kr","city":"Andodalmi","coordinates":{"lat":"37.078","long":"127.5565"}},{"country":"kr","city":"Andoguri","coordinates":{"lat":"37.136944","long":"126.866667"}},{"country":"kr","city":"Andojanggol","coordinates":{"lat":"37.446667","long":"127.3625"}},{"country":"kr","city":"Andok","coordinates":{"lat":"36.3967","long":"127.6967"}},{"country":"kr","city":"Andok","coordinates":{"lat":"36.2887","long":"128.9596"}},{"country":"kr","city":"Andokchi","coordinates":{"lat":"36.8328","long":"127.0686"}},{"country":"kr","city":"Andol","coordinates":{"lat":"36.4802","long":"127.8178"}},{"country":"kr","city":"Andonae","coordinates":{"lat":"37.2936","long":"128.2426"}},{"country":"kr","city":"Andonae","coordinates":{"lat":"36.815","long":"126.3222"}},{"country":"kr","city":"Andong","coordinates":{"lat":"38.199444","long":"128.033333"}},{"country":"kr","city":"Andong","coordinates":{"lat":"37.924722","long":"126.792778"}},{"country":"kr","city":"Andong","coordinates":{"lat":"36.565556","long":"128.725"}},{"country":"kr","city":"Andong","coordinates":{"lat":"34.5525","long":"126.583056"}},{"country":"kr","city":"Andong","coordinates":{"lat":"35.528712","long":"128.467949"}},{"country":"kr","city":"Andongmakkol","coordinates":{"lat":"37.1136","long":"128.1717"}},{"country":"kr","city":"Andongne","coordinates":{"lat":"35.504898","long":"127.393846"}},{"country":"kr","city":"Andongni","coordinates":{"lat":"37.0353","long":"128.3161"}},{"country":"kr","city":"Andongni","coordinates":{"lat":"34.5525","long":"126.583056"}},{"country":"kr","city":"Andongni","coordinates":{"lat":"36.433333","long":"126.6"}},{"country":"kr","city":"Andongpo","coordinates":{"lat":"37.586389","long":"126.639167"}},{"country":"kr","city":"Andori","coordinates":{"lat":"34.483333","long":"127.8"}},{"country":"kr","city":"Andosawol","coordinates":{"lat":"37.0763","long":"128.0683"}},{"country":"kr","city":"Anduksugol","coordinates":{"lat":"36.3357","long":"127.8973"}},{"country":"kr","city":"Anduman","coordinates":{"lat":"37.319","long":"128.1628"}},{"country":"kr","city":"Andureongi","coordinates":{"lat":"37.420833","long":"127.445"}},{"country":"kr","city":"Anduri","coordinates":{"lat":"37.9961","long":"128.2644"}},{"country":"kr","city":"Anduri","coordinates":{"lat":"37.6364","long":"127.1917"}},{"country":"kr","city":"Andurongi","coordinates":{"lat":"37.420833","long":"127.445"}},{"country":"kr","city":"Andusil","coordinates":{"lat":"35.63335","long":"127.277014"}},{"country":"kr","city":"Andwigol","coordinates":{"lat":"37.8835","long":"128.0393"}},{"country":"kr","city":"Andwikkol","coordinates":{"lat":"37.6508","long":"127.9397"}},{"country":"kr","city":"Ane","coordinates":{"lat":"35.69","long":"129.119444"}},{"country":"kr","city":"Angaemogi","coordinates":{"lat":"37.891944","long":"126.892778"}},{"country":"kr","city":"Angajiul","coordinates":{"lat":"37.416667","long":"127.204167"}},{"country":"kr","city":"Angalli","coordinates":{"lat":"37.0663","long":"128.1171"}},{"country":"kr","city":"Angalmi","coordinates":{"lat":"36.6111","long":"126.563"}},{"country":"kr","city":"Angamagol","coordinates":{"lat":"36.4097","long":"126.7569"}},{"country":"kr","city":"Angamasil","coordinates":{"lat":"36.5101","long":"129.3708"}},{"country":"kr","city":"Angamgol","coordinates":{"lat":"35.544925","long":"127.96745"}},{"country":"kr","city":"Angamun","coordinates":{"lat":"36.4521","long":"128.1549"}},{"country":"kr","city":"Angan","coordinates":{"lat":"36.0283","long":"127.955"}},{"country":"kr","city":"Angang","coordinates":{"lat":"35.9925","long":"129.225833"}},{"country":"kr","city":"Anganggol","coordinates":{"lat":"37.1997","long":"127.6142"}},{"country":"kr","city":"Anganggol","coordinates":{"lat":"36.789","long":"127.098"}},{"country":"kr","city":"Angangjong","coordinates":{"lat":"33.228333","long":"126.474444"}},{"country":"kr","city":"Angangni","coordinates":{"lat":"35.9925","long":"129.225833"}},{"country":"kr","city":"Anganni","coordinates":{"lat":"36.0283","long":"127.955"}},{"country":"kr","city":"Angasamok","coordinates":{"lat":"36.3556","long":"127.8465"}},{"country":"kr","city":"Angdeokri","coordinates":{"lat":"37.442778","long":"127.510278"}},{"country":"kr","city":"Angdongni","coordinates":{"lat":"37.442778","long":"127.510278"}},{"country":"kr","city":"Angeolmi","coordinates":{"lat":"37.038889","long":"127.415833"}},{"country":"kr","city":"Anggam","coordinates":{"lat":"34.75","long":"126.45"}},{"country":"kr","city":"Anggol","coordinates":{"lat":"34.567473","long":"127.346961"}},{"country":"kr","city":"Anggumbat","coordinates":{"lat":"38.141258","long":"128.132785"}},{"country":"kr","city":"Anggure","coordinates":{"lat":"36.405","long":"127.4909"}},{"country":"kr","city":"Angi","coordinates":{"lat":"36.9801","long":"126.8772"}},{"country":"kr","city":"Angi","coordinates":{"lat":"36.3365","long":"128.2153"}},{"country":"kr","city":"Angi","coordinates":{"lat":"36.5005","long":"127.2248"}},{"country":"kr","city":"Angi","coordinates":{"lat":"35.627778","long":"127.812222"}},{"country":"kr","city":"Angil","coordinates":{"lat":"37.085833","long":"126.921667"}},{"country":"kr","city":"Angiri","coordinates":{"lat":"35.883333","long":"127.7"}},{"country":"kr","city":"Angodan","coordinates":{"lat":"37.528333","long":"128.822222"}},{"country":"kr","city":"Angogae","coordinates":{"lat":"37.8063","long":"128.8785"}},{"country":"kr","city":"Angoil","coordinates":{"lat":"36.4673","long":"128.8295"}},{"country":"kr","city":"Angojan","coordinates":{"lat":"37.159167","long":"126.854722"}},{"country":"kr","city":"Angojan","coordinates":{"lat":"36.7139","long":"126.3685"}},{"country":"kr","city":"Angok","coordinates":{"lat":"37.8295","long":"127.3442"}},{"country":"kr","city":"Angok","coordinates":{"lat":"35.906495","long":"128.435861"}},{"country":"kr","city":"Angok","coordinates":{"lat":"34.702222","long":"126.883611"}},{"country":"kr","city":"Angok","coordinates":{"lat":"35.301389","long":"128.839722"}},{"country":"kr","city":"Angok","coordinates":{"lat":"35.553889","long":"129.283889"}},{"country":"kr","city":"Angokri","coordinates":{"lat":"35.301389","long":"128.839722"}},{"country":"kr","city":"Angoktong","coordinates":{"lat":"36.2718","long":"128.1427"}},{"country":"kr","city":"Angol","coordinates":{"lat":"35.957362","long":"127.622157"}},{"country":"kr","city":"Angol","coordinates":{"lat":"36.380844","long":"127.833623"}},{"country":"kr","city":"Angol","coordinates":{"lat":"37.1613","long":"128.426"}},{"country":"kr","city":"Angol","coordinates":{"lat":"37.682222","long":"126.821944"}},{"country":"kr","city":"Angol","coordinates":{"lat":"37.064444","long":"127.356667"}},{"country":"kr","city":"Angol","coordinates":{"lat":"35.756652","long":"128.220969"}},{"country":"kr","city":"Angol","coordinates":{"lat":"34.549702","long":"127.122972"}},{"country":"kr","city":"Angol","coordinates":{"lat":"36.0641","long":"127.4585"}},{"country":"kr","city":"Angol","coordinates":{"lat":"36.2922","long":"127.2532"}},{"country":"kr","city":"Angol","coordinates":{"lat":"34.925247","long":"128.280116"}},{"country":"kr","city":"Angollami","coordinates":{"lat":"36.2238","long":"127.5716"}},{"country":"kr","city":"Angolli","coordinates":{"lat":"35.088056","long":"128.792778"}},{"country":"kr","city":"Angolmal","coordinates":{"lat":"36.2935","long":"127.6374"}},{"country":"kr","city":"Angolmal","coordinates":{"lat":"36.7964","long":"126.9576"}},{"country":"kr","city":"Angolmi","coordinates":{"lat":"37.038889","long":"127.415833"}},{"country":"kr","city":"Angomodong","coordinates":{"lat":"37.121","long":"128.148"}},{"country":"kr","city":"Angomsom","coordinates":{"lat":"36.5878","long":"126.296"}},{"country":"kr","city":"Angomyong","coordinates":{"lat":"35.688861","long":"128.653096"}},{"country":"kr","city":"Angonggi","coordinates":{"lat":"37.3056","long":"128.4416"}},{"country":"kr","city":"Angongni","coordinates":{"lat":"35.054444","long":"126.600556"}},{"country":"kr","city":"Angongni","coordinates":{"lat":"35.301389","long":"128.839722"}},{"country":"kr","city":"Angoni","coordinates":{"lat":"37.235278","long":"127.4225"}},{"country":"kr","city":"Angonjae","coordinates":{"lat":"37.0313","long":"127.5999"}},{"country":"kr","city":"Angoraeji","coordinates":{"lat":"37.7082","long":"128.6862"}},{"country":"kr","city":"Angoryong","coordinates":{"lat":"37.7718","long":"126.938"}},{"country":"kr","city":"Angosu","coordinates":{"lat":"36.989167","long":"128.378056"}},{"country":"kr","city":"Angotchang","coordinates":{"lat":"36.8212","long":"126.2159"}},{"country":"kr","city":"Angsuri","coordinates":{"lat":"36.2975","long":"127.5552"}},{"country":"kr","city":"Anguk","coordinates":{"lat":"35.622717","long":"128.584468"}},{"country":"kr","city":"Anguktong","coordinates":{"lat":"37.7466","long":"128.828"}},{"country":"kr","city":"Angul","coordinates":{"lat":"36.5335","long":"126.7362"}},{"country":"kr","city":"Angum","coordinates":{"lat":"35.696043","long":"128.003087"}},{"country":"kr","city":"Angunggol","coordinates":{"lat":"38.279722","long":"127.939722"}},{"country":"kr","city":"Anguppadul","coordinates":{"lat":"36.4184","long":"129.067"}},{"country":"kr","city":"Angurop","coordinates":{"lat":"37.6185","long":"127.6814"}},{"country":"kr","city":"Angwang","coordinates":{"lat":"37.078333","long":"127.4325"}},{"country":"kr","city":"Angye","coordinates":{"lat":"35.618707","long":"127.046409"}},{"country":"kr","city":"Angye","coordinates":{"lat":"35.23711","long":"128.485731"}},{"country":"kr","city":"Angyejang","coordinates":{"lat":"36.386667","long":"128.433611"}},{"country":"kr","city":"Angyejangto","coordinates":{"lat":"36.386667","long":"128.433611"}},{"country":"kr","city":"Angyodong","coordinates":{"lat":"36.578611","long":"128.574722"}},{"country":"kr","city":"Anha","coordinates":{"lat":"35.588054","long":"127.349113"}},{"country":"kr","city":"Anhaenggol","coordinates":{"lat":"37.652222","long":"126.539444"}},{"country":"kr","city":"Anhamtae","coordinates":{"lat":"36.1283","long":"127.8047"}},{"country":"kr","city":"Anhangol","coordinates":{"lat":"36.654","long":"129.1848"}},{"country":"kr","city":"Anhawon","coordinates":{"lat":"36.9477","long":"129.2726"}},{"country":"kr","city":"Anhawongol","coordinates":{"lat":"36.9518","long":"129.2633"}},{"country":"kr","city":"Anheungdong","coordinates":{"lat":"37.279722","long":"127.455"}},{"country":"kr","city":"Anhomsil","coordinates":{"lat":"35.333333","long":"127.383333"}},{"country":"kr","city":"Anhongsi","coordinates":{"lat":"37.138","long":"127.6057"}},{"country":"kr","city":"Anhugi","coordinates":{"lat":"38.173333","long":"127.662778"}},{"country":"kr","city":"Anhuisil","coordinates":{"lat":"36.0072","long":"127.979"}},{"country":"kr","city":"Anhuksu","coordinates":{"lat":"35.801809","long":"128.289629"}},{"country":"kr","city":"Anhulli","coordinates":{"lat":"38.295992","long":"128.384418"}},{"country":"kr","city":"Anhung","coordinates":{"lat":"37.6229","long":"127.8664"}},{"country":"kr","city":"Anhung","coordinates":{"lat":"36.679444","long":"126.154444"}},{"country":"kr","city":"Anhung","coordinates":{"lat":"35.705666","long":"127.949444"}},{"country":"kr","city":"Anhungdong","coordinates":{"lat":"37.5919","long":"128.3185"}},{"country":"kr","city":"Anhungdong","coordinates":{"lat":"37.279722","long":"127.455"}},{"country":"kr","city":"Anhungmok","coordinates":{"lat":"36.1074","long":"127.8887"}},{"country":"kr","city":"Anhungni","coordinates":{"lat":"37.4113","long":"128.1576"}},{"country":"kr","city":"Anhwa","coordinates":{"lat":"35.691804","long":"128.267948"}},{"country":"kr","city":"Anhwadong","coordinates":{"lat":"37.2125","long":"127.048333"}},{"country":"kr","city":"Anhwaekkol","coordinates":{"lat":"36.8278","long":"129.0239"}},{"country":"kr","city":"Anhwanggol","coordinates":{"lat":"36.1328","long":"127.6841"}},{"country":"kr","city":"Anhwanghae","coordinates":{"lat":"36.949167","long":"128.743333"}},{"country":"kr","city":"Anhwari","coordinates":{"lat":"36.883333","long":"126.966667"}},{"country":"kr","city":"Anhyondong","coordinates":{"lat":"37.809393","long":"128.889133"}},{"country":"kr","city":"Anhyonni","coordinates":{"lat":"37.916667","long":"127.866667"}},{"country":"kr","city":"Anikkae","coordinates":{"lat":"36.8402","long":"126.2915"}},{"country":"kr","city":"Anillyang","coordinates":{"lat":"35.694054","long":"128.280532"}},{"country":"kr","city":"Anin","coordinates":{"lat":"35.287688","long":"128.437688"}},{"country":"kr","city":"Aningol","coordinates":{"lat":"36.050571","long":"129.219698"}},{"country":"kr","city":"Aninjilli","coordinates":{"lat":"37.7375","long":"128.9806"}},{"country":"kr","city":"Aninjinni","coordinates":{"lat":"37.7375","long":"128.9806"}},{"country":"kr","city":"Aninpyong","coordinates":{"lat":"37.5647","long":"128.4222"}},{"country":"kr","city":"Anisil","coordinates":{"lat":"36.3049","long":"128.1817"}},{"country":"kr","city":"Anjae","coordinates":{"lat":"36.3539","long":"127.7174"}},{"country":"kr","city":"Anjaebisan","coordinates":{"lat":"37.5232","long":"127.7464"}},{"country":"kr","city":"Anjaembae","coordinates":{"lat":"37.425278","long":"127.559722"}},{"country":"kr","city":"Anjaenaemi","coordinates":{"lat":"36.120523","long":"129.198856"}},{"country":"kr","city":"Anjaeul","coordinates":{"lat":"36.3298","long":"126.8454"}},{"country":"kr","city":"Anjandari","coordinates":{"lat":"36.4237","long":"126.7063"}},{"country":"kr","city":"Anjangap","coordinates":{"lat":"36.716667","long":"127.683333"}},{"country":"kr","city":"Anjangdan","coordinates":{"lat":"35.320556","long":"127.790833"}},{"country":"kr","city":"Anjangdang","coordinates":{"lat":"35.320556","long":"127.790833"}},{"country":"kr","city":"Anjanggogae","coordinates":{"lat":"37.6873","long":"126.9017"}},{"country":"kr","city":"Anjanggol","coordinates":{"lat":"37.22151","long":"127.59831"}},{"country":"kr","city":"Anjanggol","coordinates":{"lat":"36.7944","long":"129.1802"}},{"country":"kr","city":"Anjanggori","coordinates":{"lat":"37.719","long":"128.9856"}},{"country":"kr","city":"Anjangpung","coordinates":{"lat":"35.736244","long":"127.848188"}},{"country":"kr","city":"Anjangsobang","coordinates":{"lat":"36.4536","long":"128.0538"}},{"country":"kr","city":"Anjasi","coordinates":{"lat":"35.45","long":"126.55"}},{"country":"kr","city":"Anjattul","coordinates":{"lat":"35.596563","long":"127.805709"}},{"country":"kr","city":"Anjeongjamal","coordinates":{"lat":"37.446389","long":"127.318889"}},{"country":"kr","city":"Anjeungil","coordinates":{"lat":"37.265833","long":"127.430278"}},{"country":"kr","city":"Anji","coordinates":{"lat":"36.146993","long":"129.266678"}},{"country":"kr","city":"Anji","coordinates":{"lat":"34.646944","long":"126.843611"}},{"country":"kr","city":"Anjil","coordinates":{"lat":"36.95","long":"128.616667"}},{"country":"kr","city":"Anjilgol","coordinates":{"lat":"36.405","long":"126.6079"}},{"country":"kr","city":"Anjilla","coordinates":{"lat":"35.677682","long":"128.735077"}},{"country":"kr","city":"Anjimok","coordinates":{"lat":"36.3954","long":"127.6926"}},{"country":"kr","city":"Anjinbawi","coordinates":{"lat":"36.362","long":"127.2919"}},{"country":"kr","city":"Anjingol","coordinates":{"lat":"37.719167","long":"126.579167"}},{"country":"kr","city":"Anjo","coordinates":{"lat":"37.010833","long":"127.270278"}},{"country":"kr","city":"Anjocho","coordinates":{"lat":"35.865789","long":"127.652719"}},{"country":"kr","city":"Anjojo","coordinates":{"lat":"35.865789","long":"127.652719"}},{"country":"kr","city":"Anjokkol","coordinates":{"lat":"36.4626","long":"126.8033"}},{"country":"kr","city":"Anjoktol","coordinates":{"lat":"36.6532","long":"126.3391"}},{"country":"kr","city":"Anjol","coordinates":{"lat":"36.5195","long":"126.5782"}},{"country":"kr","city":"Anjom","coordinates":{"lat":"36.1548","long":"127.8602"}},{"country":"kr","city":"Anjong","coordinates":{"lat":"36.0417","long":"127.8163"}},{"country":"kr","city":"Anjong","coordinates":{"lat":"36.071881","long":"129.188602"}},{"country":"kr","city":"Anjong","coordinates":{"lat":"34.445278","long":"126.503889"}},{"country":"kr","city":"Anjongdong","coordinates":{"lat":"35.947409","long":"127.424217"}},{"country":"kr","city":"Anjongdong","coordinates":{"lat":"37.22151","long":"127.59831"}},{"country":"kr","city":"Anjonggol","coordinates":{"lat":"37.7725","long":"126.424444"}},{"country":"kr","city":"Anjonggol","coordinates":{"lat":"37.174167","long":"126.838889"}},{"country":"kr","city":"Anjonggol","coordinates":{"lat":"35.518365","long":"128.324628"}},{"country":"kr","city":"Anjonggum","coordinates":{"lat":"37.5154","long":"128.1155"}},{"country":"kr","city":"Anjonggye","coordinates":{"lat":"36.0854","long":"128.114"}},{"country":"kr","city":"Anjongjamal","coordinates":{"lat":"37.446389","long":"127.318889"}},{"country":"kr","city":"Anjongmal","coordinates":{"lat":"37.3276","long":"128.3342"}},{"country":"kr","city":"Anjongni","coordinates":{"lat":"36.036091","long":"127.814002"}},{"country":"kr","city":"Anjongni","coordinates":{"lat":"34.445278","long":"126.503889"}},{"country":"kr","city":"Anjosil","coordinates":{"lat":"35.849951","long":"128.28332"}},{"country":"kr","city":"Anjoul","coordinates":{"lat":"36.6311","long":"126.5533"}},{"country":"kr","city":"Anjukgol","coordinates":{"lat":"38.135833","long":"128.020833"}},{"country":"kr","city":"Anjukkol","coordinates":{"lat":"38.135833","long":"128.020833"}},{"country":"kr","city":"Anjung","coordinates":{"lat":"36.9871","long":"126.927"}},{"country":"kr","city":"Anjungil","coordinates":{"lat":"37.265833","long":"127.430278"}},{"country":"kr","city":"Anjungni","coordinates":{"lat":"36.9871","long":"126.927"}},{"country":"kr","city":"Anjungsan","coordinates":{"lat":"35.617326","long":"127.70963"}},{"country":"kr","city":"Anjungsijang","coordinates":{"lat":"36.9871","long":"126.927"}},{"country":"kr","city":"Anjwadong","coordinates":{"lat":"33.359444","long":"126.754167"}},{"country":"kr","city":"Ankeijo","coordinates":{"lat":"36.386667","long":"128.433611"}},{"country":"kr","city":"Ankkurongi","coordinates":{"lat":"36.8703","long":"126.2561"}},{"country":"kr","city":"Anko","coordinates":{"lat":"36.679444","long":"126.154444"}},{"country":"kr","city":"Ankodo","coordinates":{"lat":"36.578611","long":"128.574722"}},{"country":"kr","city":"Ankol","coordinates":{"lat":"34.567473","long":"127.346961"}},{"country":"kr","city":"Ankol","coordinates":{"lat":"36.4684","long":"126.7763"}},{"country":"kr","city":"Ankori","coordinates":{"lat":"35.9925","long":"129.225833"}},{"country":"kr","city":"Ankotsuri","coordinates":{"lat":"35.088056","long":"128.792778"}},{"country":"kr","city":"Anma","coordinates":{"lat":"36.4843","long":"128.1404"}},{"country":"kr","city":"Anma","coordinates":{"lat":"35.862255","long":"128.41556"}},{"country":"kr","city":"Anma","coordinates":{"lat":"35.416667","long":"126.416667"}},{"country":"kr","city":"Anmadurae","coordinates":{"lat":"36.3775","long":"127.7901"}},{"country":"kr","city":"Anmaeil","coordinates":{"lat":"37.5476","long":"128.133"}},{"country":"kr","city":"Anmaengni","coordinates":{"lat":"35.209722","long":"126.5075"}},{"country":"kr","city":"Anmagundam","coordinates":{"lat":"35.308611","long":"127.856111"}},{"country":"kr","city":"Anmak","coordinates":{"lat":"35.237222","long":"128.989167"}},{"country":"kr","city":"Anmakgol","coordinates":{"lat":"38.066667","long":"128.002778"}},{"country":"kr","city":"Anmakkol","coordinates":{"lat":"38.066667","long":"128.002778"}},{"country":"kr","city":"Anmal","coordinates":{"lat":"36.725","long":"128.042778"}},{"country":"kr","city":"Anmal","coordinates":{"lat":"37.2068","long":"127.7578"}},{"country":"kr","city":"Anmal","coordinates":{"lat":"37.746389","long":"126.750278"}},{"country":"kr","city":"Anmal","coordinates":{"lat":"37.547222","long":"126.797222"}},{"country":"kr","city":"Anmal","coordinates":{"lat":"37.012778","long":"127.319167"}},{"country":"kr","city":"Anmal","coordinates":{"lat":"36.524444","long":"128.087778"}},{"country":"kr","city":"Anmal","coordinates":{"lat":"36.3111","long":"127.1292"}},{"country":"kr","city":"Anmal","coordinates":{"lat":"36.2522","long":"127.4378"}},{"country":"kr","city":"Anmallae","coordinates":{"lat":"37.020556","long":"129.287778"}},{"country":"kr","city":"Anmandujae","coordinates":{"lat":"36.366667","long":"127.8"}},{"country":"kr","city":"Anmangdong","coordinates":{"lat":"36.466667","long":"128.683333"}},{"country":"kr","city":"Anmangsil","coordinates":{"lat":"36.466667","long":"128.683333"}},{"country":"kr","city":"Anmasan","coordinates":{"lat":"37.745278","long":"127.282222"}},{"country":"kr","city":"Anmasangol","coordinates":{"lat":"38.203333","long":"127.683333"}},{"country":"kr","city":"Anmasil","coordinates":{"lat":"36.7325","long":"126.326"}},{"country":"kr","city":"Anmasil","coordinates":{"lat":"35.602564","long":"128.541863"}},{"country":"kr","city":"Anmaul","coordinates":{"lat":"36.3512","long":"127.5862"}},{"country":"kr","city":"Anmaul","coordinates":{"lat":"37.3916","long":"128.6078"}},{"country":"kr","city":"Anmaul","coordinates":{"lat":"35.620792","long":"128.60515"}},{"country":"kr","city":"Anmaul","coordinates":{"lat":"35.269511","long":"128.311274"}},{"country":"kr","city":"Anmeolguji","coordinates":{"lat":"38.1275","long":"128.036667"}},{"country":"kr","city":"Anmigundam","coordinates":{"lat":"35.308611","long":"127.856111"}},{"country":"kr","city":"Anmin","coordinates":{"lat":"35.184444","long":"128.701389"}},{"country":"kr","city":"Anminni","coordinates":{"lat":"35.184444","long":"128.701389"}},{"country":"kr","city":"Anmojong","coordinates":{"lat":"35.637697","long":"128.41501"}},{"country":"kr","city":"Anmoksil","coordinates":{"lat":"36.4913","long":"128.2348"}},{"country":"kr","city":"Anmolguji","coordinates":{"lat":"38.1275","long":"128.036667"}},{"country":"kr","city":"Anmoraebat","coordinates":{"lat":"37.9748","long":"127.9219"}},{"country":"kr","city":"Anmorigol","coordinates":{"lat":"36.205016","long":"129.119888"}},{"country":"kr","city":"Anmosan","coordinates":{"lat":"36.4932","long":"127.6095"}},{"country":"kr","city":"Anmosang","coordinates":{"lat":"37.166667","long":"127.216667"}},{"country":"kr","city":"Anmosigol","coordinates":{"lat":"36.755556","long":"128.117222"}},{"country":"kr","city":"Anmotchil","coordinates":{"lat":"36.7101","long":"129.442"}},{"country":"kr","city":"Anmounae","coordinates":{"lat":"35.775776","long":"127.493095"}},{"country":"kr","city":"Anmudong","coordinates":{"lat":"36.4605","long":"126.9749"}},{"country":"kr","city":"Anmudungni","coordinates":{"lat":"38.05","long":"127"}},{"country":"kr","city":"Anmurusil","coordinates":{"lat":"36.4861","long":"126.946"}},{"country":"kr","city":"Anmuryang","coordinates":{"lat":"34.987328","long":"128.292376"}},{"country":"kr","city":"Anmushil","coordinates":{"lat":"35.943545","long":"128.32231"}},{"country":"kr","city":"Anmusil","coordinates":{"lat":"35.943545","long":"128.32231"}},{"country":"kr","city":"Anmyo","coordinates":{"lat":"35.2","long":"126.366667"}},{"country":"kr","city":"Anmyon","coordinates":{"lat":"36.5175","long":"126.344444"}},{"country":"kr","city":"Anmyonbae","coordinates":{"lat":"37.7263","long":"127.7509"}},{"country":"kr","city":"Annabasi","coordinates":{"lat":"36.6421","long":"126.5957"}},{"country":"kr","city":"Annae","coordinates":{"lat":"36.3943","long":"127.6598"}},{"country":"kr","city":"Annaegol","coordinates":{"lat":"36.1684","long":"127.6357"}},{"country":"kr","city":"Annagol","coordinates":{"lat":"36.3091","long":"129.1946"}},{"country":"kr","city":"Annalsil","coordinates":{"lat":"36.3214","long":"129.0341"}},{"country":"kr","city":"Annam","coordinates":{"lat":"35.989691","long":"127.244688"}},{"country":"kr","city":"Annam","coordinates":{"lat":"36.3563","long":"127.6725"}},{"country":"kr","city":"Anni","coordinates":{"lat":"35.578179","long":"128.383944"}},{"country":"kr","city":"Annimdong","coordinates":{"lat":"35.693993","long":"128.258221"}},{"country":"kr","city":"Annolpum","coordinates":{"lat":"36.7182","long":"129.4096"}},{"country":"kr","city":"Annonsigol","coordinates":{"lat":"36.4614","long":"129.0699"}},{"country":"kr","city":"Annorae","coordinates":{"lat":"36.375833","long":"129.021389"}},{"country":"kr","city":"Annori","coordinates":{"lat":"34.882222","long":"126.763333"}},{"country":"kr","city":"Annungan","coordinates":{"lat":"37.741667","long":"126.791111"}},{"country":"kr","city":"Annungan","coordinates":{"lat":"37.8142","long":"126.9929"}},{"country":"kr","city":"Annurukkol","coordinates":{"lat":"35.818501","long":"127.569785"}},{"country":"kr","city":"Annurundae","coordinates":{"lat":"35.529818","long":"127.387736"}},{"country":"kr","city":"Annyeongri","coordinates":{"lat":"37.205278","long":"127.011944"}},{"country":"kr","city":"Annyong","coordinates":{"lat":"36.1801","long":"127.9697"}},{"country":"kr","city":"Annyongchon","coordinates":{"lat":"37.205278","long":"127.011944"}},{"country":"kr","city":"Annyongni","coordinates":{"lat":"37.205278","long":"127.011944"}},{"country":"kr","city":"Annyori","coordinates":{"lat":"36.0283","long":"127.955"}},{"country":"kr","city":"Anogeil","coordinates":{"lat":"36.3574","long":"129.007"}},{"country":"kr","city":"Anojong","coordinates":{"lat":"36.2024","long":"127.7727"}},{"country":"kr","city":"Anomdong","coordinates":{"lat":"36.8486","long":"129.2272"}},{"country":"kr","city":"Anongmani","coordinates":{"lat":"36.037","long":"128.3606"}},{"country":"kr","city":"Anpagol","coordinates":{"lat":"36.8084","long":"126.2465"}},{"country":"kr","city":"Anpannaeri","coordinates":{"lat":"37.033333","long":"127.866667"}},{"country":"kr","city":"Anpidokkol","coordinates":{"lat":"36.0324","long":"127.3656"}},{"country":"kr","city":"Anpimi","coordinates":{"lat":"36.7604","long":"126.9176"}},{"country":"kr","city":"Anpo","coordinates":{"lat":"34.678889","long":"127.6175"}},{"country":"kr","city":"Anpori","coordinates":{"lat":"35.95667","long":"128.31662"}},{"country":"kr","city":"Anpori","coordinates":{"lat":"34.678889","long":"127.6175"}},{"country":"kr","city":"Anpung","coordinates":{"lat":"34.646111","long":"126.8325"}},{"country":"kr","city":"Anpyeong","coordinates":{"lat":"37.203","long":"127.712"}},{"country":"kr","city":"Anpyeongbonburak","coordinates":{"lat":"38.106389","long":"127.650556"}},{"country":"kr","city":"Anpyeongri","coordinates":{"lat":"37.246111","long":"127.416111"}},{"country":"kr","city":"Anpyong","coordinates":{"lat":"35.713527","long":"127.337347"}},{"country":"kr","city":"Anpyong","coordinates":{"lat":"35.234167","long":"129.180556"}},{"country":"kr","city":"Anpyong","coordinates":{"lat":"37.203","long":"127.712"}},{"country":"kr","city":"Anpyong","coordinates":{"lat":"34.344444","long":"126.605833"}},{"country":"kr","city":"Anpyong","coordinates":{"lat":"35.511534","long":"127.78141"}},{"country":"kr","city":"Anpyongdong","coordinates":{"lat":"35.535821","long":"127.419731"}},{"country":"kr","city":"Anpyongjanggol","coordinates":{"lat":"37.1451","long":"128.0266"}},{"country":"kr","city":"Anpyongjon","coordinates":{"lat":"37.4832","long":"130.879"}},{"country":"kr","city":"Anpyongni","coordinates":{"lat":"38.115833","long":"127.635278"}},{"country":"kr","city":"Anpyongni","coordinates":{"lat":"35.234167","long":"129.180556"}},{"country":"kr","city":"Anpyongni","coordinates":{"lat":"37.246111","long":"127.416111"}},{"country":"kr","city":"Anpyongponburak","coordinates":{"lat":"38.106389","long":"127.650556"}},{"country":"kr","city":"Ansaechul","coordinates":{"lat":"35.93098","long":"128.134829"}},{"country":"kr","city":"Ansaedangi","coordinates":{"lat":"37.9376","long":"127.5592"}},{"country":"kr","city":"Ansaegol","coordinates":{"lat":"35.639337","long":"128.104719"}},{"country":"kr","city":"Ansaegyong","coordinates":{"lat":"37.2275","long":"126.724722"}},{"country":"kr","city":"Ansagiso","coordinates":{"lat":"36.8456","long":"126.6337"}},{"country":"kr","city":"Ansakkum","coordinates":{"lat":"34.459444","long":"126.928056"}},{"country":"kr","city":"Ansalmaegi","coordinates":{"lat":"36.548","long":"126.8012"}},{"country":"kr","city":"Ansalmi","coordinates":{"lat":"36.254","long":"127.1041"}},{"country":"kr","city":"Ansalmok","coordinates":{"lat":"36.55","long":"126.816667"}},{"country":"kr","city":"Ansamgulli","coordinates":{"lat":"37.5856","long":"128.0235"}},{"country":"kr","city":"Ansamgusil","coordinates":{"lat":"36.903","long":"126.5748"}},{"country":"kr","city":"Ansamhanni","coordinates":{"lat":"36.283333","long":"127.3"}},{"country":"kr","city":"Ansamjong","coordinates":{"lat":"36.3194","long":"127.477"}},{"country":"kr","city":"Ansammi","coordinates":{"lat":"37.176667","long":"127.068333"}},{"country":"kr","city":"Ansan","coordinates":{"lat":"35.466667","long":"126.533333"}},{"country":"kr","city":"Ansan","coordinates":{"lat":"37.1126","long":"127.6437"}},{"country":"kr","city":"Ansan","coordinates":{"lat":"37.1859","long":"128.4577"}},{"country":"kr","city":"Ansan","coordinates":{"lat":"37.713889","long":"126.648333"}},{"country":"kr","city":"Ansan","coordinates":{"lat":"37.323611","long":"126.821944"}},{"country":"kr","city":"Ansan","coordinates":{"lat":"35.990451","long":"128.216924"}},{"country":"kr","city":"Ansan","coordinates":{"lat":"36.8741","long":"126.2116"}},{"country":"kr","city":"Ansanbat","coordinates":{"lat":"37.2088","long":"129.0436"}},{"country":"kr","city":"Ansandae","coordinates":{"lat":"37.0952","long":"127.5088"}},{"country":"kr","city":"Ansandong","coordinates":{"lat":"37.183889","long":"126.879167"}},{"country":"kr","city":"Ansangol","coordinates":{"lat":"37.9101","long":"128.015"}},{"country":"kr","city":"Ansangon","coordinates":{"lat":"35.832509","long":"128.326829"}},{"country":"kr","city":"Ansani","coordinates":{"lat":"37.679167","long":"126.513333"}},{"country":"kr","city":"Ansanmal","coordinates":{"lat":"37.072222","long":"126.975"}},{"country":"kr","city":"Ansanmal","coordinates":{"lat":"36.6167","long":"126.8314"}},{"country":"kr","city":"Ansanmit","coordinates":{"lat":"37.193333","long":"127.186389"}},{"country":"kr","city":"Ansanni","coordinates":{"lat":"35.466667","long":"126.533333"}},{"country":"kr","city":"Ansanri","coordinates":{"lat":"35.466667","long":"126.533333"}},{"country":"kr","city":"Ansanttul","coordinates":{"lat":"37.788","long":"127.7512"}},{"country":"kr","city":"Ansapchae","coordinates":{"lat":"37.9951","long":"128.2526"}},{"country":"kr","city":"Ansasan","coordinates":{"lat":"36.063183","long":"129.229374"}},{"country":"kr","city":"Ansean","coordinates":{"lat":"35.575865","long":"127.914629"}},{"country":"kr","city":"Ansegol","coordinates":{"lat":"37.8406","long":"127.3273"}},{"country":"kr","city":"Anseomburi","coordinates":{"lat":"37.456944","long":"127.65"}},{"country":"kr","city":"Anseong","coordinates":{"lat":"37.010833","long":"127.270278"}},{"country":"kr","city":"Anseongsamdong","coordinates":{"lat":"37.027222","long":"127.270278"}},{"country":"kr","city":"Anseorwolri","coordinates":{"lat":"37.346944","long":"127.386944"}},{"country":"kr","city":"Anseuge","coordinates":{"lat":"37.835","long":"126.9344"}},{"country":"kr","city":"Anshimdong","coordinates":{"lat":"35.869167","long":"128.713889"}},{"country":"kr","city":"Anshimri","coordinates":{"lat":"35.735833","long":"129.160556"}},{"country":"kr","city":"Ansianggol","coordinates":{"lat":"35.643674","long":"127.16807"}},{"country":"kr","city":"Ansigol","coordinates":{"lat":"37.7923","long":"128.8037"}},{"country":"kr","city":"Ansil","coordinates":{"lat":"35.919801","long":"127.833283"}},{"country":"kr","city":"Ansil","coordinates":{"lat":"36.2718","long":"128.1427"}},{"country":"kr","city":"Ansim","coordinates":{"lat":"35.82235","long":"127.063072"}},{"country":"kr","city":"Ansim","coordinates":{"lat":"36.551944","long":"127.411111"}},{"country":"kr","city":"Ansim","coordinates":{"lat":"35.735833","long":"129.160556"}},{"country":"kr","city":"Ansim","coordinates":{"lat":"34.757242","long":"127.206907"}},{"country":"kr","city":"Ansim","coordinates":{"lat":"35.651933","long":"127.80027"}},{"country":"kr","city":"Ansimdong","coordinates":{"lat":"35.869167","long":"128.713889"}},{"country":"kr","city":"Ansimdong","coordinates":{"lat":"36.4186","long":"126.9923"}},{"country":"kr","city":"Ansimni","coordinates":{"lat":"35.735833","long":"129.160556"}},{"country":"kr","city":"Ansimni","coordinates":{"lat":"36.420834","long":"127.003056"}},{"country":"kr","city":"Ansimni","coordinates":{"lat":"35.657222","long":"128.521667"}},{"country":"kr","city":"Ansimukkol","coordinates":{"lat":"36.7366","long":"126.6755"}},{"country":"kr","city":"Ansinae","coordinates":{"lat":"37.2298","long":"128.3356"}},{"country":"kr","city":"Ansirae","coordinates":{"lat":"34.903376","long":"127.153798"}},{"country":"kr","city":"Ansirat","coordinates":{"lat":"37.360556","long":"127.49"}},{"country":"kr","city":"Ansoam","coordinates":{"lat":"37.786","long":"128.8341"}},{"country":"kr","city":"Ansodae","coordinates":{"lat":"37.776","long":"127.3814"}},{"country":"kr","city":"Ansodumul","coordinates":{"lat":"36.7253","long":"126.8347"}},{"country":"kr","city":"Ansoejom","coordinates":{"lat":"36.2699","long":"127.3238"}},{"country":"kr","city":"Ansoesil","coordinates":{"lat":"35.843234","long":"127.588515"}},{"country":"kr","city":"Ansoeyakkul","coordinates":{"lat":"36.5663","long":"126.5056"}},{"country":"kr","city":"Ansoil","coordinates":{"lat":"37.81472","long":"128.10722"}},{"country":"kr","city":"Ansojae","coordinates":{"lat":"37.5647","long":"128.8473"}},{"country":"kr","city":"Ansojigae","coordinates":{"lat":"37.308333","long":"127.668333"}},{"country":"kr","city":"Ansokkul","coordinates":{"lat":"36.7949","long":"126.2318"}},{"country":"kr","city":"Ansokri","coordinates":{"lat":"37.170278","long":"126.823333"}},{"country":"kr","city":"Ansolbang","coordinates":{"lat":"36.082","long":"128.2349"}},{"country":"kr","city":"Ansolchi","coordinates":{"lat":"36.442222","long":"128.566389"}},{"country":"kr","city":"Ansolti","coordinates":{"lat":"36.442222","long":"128.566389"}},{"country":"kr","city":"Ansomburi","coordinates":{"lat":"37.456944","long":"127.65"}},{"country":"kr","city":"Ansong","coordinates":{"lat":"35.783333","long":"126.75"}},{"country":"kr","city":"Ansong","coordinates":{"lat":"37.010833","long":"127.270278"}},{"country":"kr","city":"Ansong","coordinates":{"lat":"35.259722","long":"128.551389"}},{"country":"kr","city":"Ansonggum","coordinates":{"lat":"36.883333","long":"128.4"}},{"country":"kr","city":"Ansongjang","coordinates":{"lat":"35.865789","long":"127.652719"}},{"country":"kr","city":"Ansongni","coordinates":{"lat":"33.249444","long":"126.281389"}},{"country":"kr","city":"Ansongni","coordinates":{"lat":"35.783611","long":"126.742778"}},{"country":"kr","city":"Ansongni","coordinates":{"lat":"35.259722","long":"128.551389"}},{"country":"kr","city":"Ansongri","coordinates":{"lat":"35.259722","long":"128.551389"}},{"country":"kr","city":"Ansongsamdong","coordinates":{"lat":"37.027222","long":"127.270278"}},{"country":"kr","city":"Ansongyuchon","coordinates":{"lat":"36.9758","long":"127.1197"}},{"country":"kr","city":"Ansoppau","coordinates":{"lat":"37.054444","long":"128.056111"}},{"country":"kr","city":"Ansorim","coordinates":{"lat":"35.543344","long":"128.462916"}},{"country":"kr","city":"Ansorwolli","coordinates":{"lat":"37.346944","long":"127.386944"}},{"country":"kr","city":"Anssukpakkol","coordinates":{"lat":"36.3832","long":"127.9766"}},{"country":"kr","city":"Ansujom","coordinates":{"lat":"35.746352","long":"128.663627"}},{"country":"kr","city":"Ansulchi","coordinates":{"lat":"35.688816","long":"127.250926"}},{"country":"kr","city":"Ansumori","coordinates":{"lat":"36.1291","long":"127.6593"}},{"country":"kr","city":"Ansuto","coordinates":{"lat":"36.5213","long":"126.3616"}},{"country":"kr","city":"Antae","coordinates":{"lat":"35.618929","long":"128.570246"}},{"country":"kr","city":"Antae","coordinates":{"lat":"34.559167","long":"126.538056"}},{"country":"kr","city":"Antaebong","coordinates":{"lat":"36.028282","long":"129.005074"}},{"country":"kr","city":"Antaegol","coordinates":{"lat":"38.190833","long":"127.684722"}},{"country":"kr","city":"Antaeri","coordinates":{"lat":"35.406944","long":"128.873056"}},{"country":"kr","city":"Antapchong","coordinates":{"lat":"35.778056","long":"129.381389"}},{"country":"kr","city":"Anteo","coordinates":{"lat":"37.0206","long":"127.6444"}},{"country":"kr","city":"Anteo","coordinates":{"lat":"38.180278","long":"127.900278"}},{"country":"kr","city":"Anteo","coordinates":{"lat":"37.151","long":"127.6127"}},{"country":"kr","city":"Anteomal","coordinates":{"lat":"37.2398","long":"127.6297"}},{"country":"kr","city":"Anto","coordinates":{"lat":"35.560205","long":"127.335752"}},{"country":"kr","city":"Anto","coordinates":{"lat":"36.3189","long":"127.6207"}},{"country":"kr","city":"Anto","coordinates":{"lat":"37.3859","long":"128.1375"}},{"country":"kr","city":"Anto","coordinates":{"lat":"37.151","long":"127.6127"}},{"country":"kr","city":"Anto","coordinates":{"lat":"36.565556","long":"128.725"}},{"country":"kr","city":"Anto","coordinates":{"lat":"34.483333","long":"127.8"}},{"country":"kr","city":"Anto","coordinates":{"lat":"36.033333","long":"126.7"}},{"country":"kr","city":"Anto","coordinates":{"lat":"36.4165","long":"127.3813"}},{"country":"kr","city":"Antogol","coordinates":{"lat":"37.2301","long":"128.3182"}},{"country":"kr","city":"Antogol","coordinates":{"lat":"37.523","long":"127.6509"}},{"country":"kr","city":"Antok","coordinates":{"lat":"34.436111","long":"126.589167"}},{"country":"kr","city":"Antomal","coordinates":{"lat":"37.2398","long":"127.6297"}},{"country":"kr","city":"Antonae","coordinates":{"lat":"37.2936","long":"128.2426"}},{"country":"kr","city":"Antori","coordinates":{"lat":"34.483333","long":"127.8"}},{"country":"kr","city":"Anttam","coordinates":{"lat":"35.122158","long":"128.372612"}},{"country":"kr","city":"Anttanggol","coordinates":{"lat":"35.878242","long":"127.875555"}},{"country":"kr","city":"Anttul","coordinates":{"lat":"36.5381","long":"126.7598"}},{"country":"kr","city":"Anttum","coordinates":{"lat":"36.1722","long":"127.2049"}},{"country":"kr","city":"Anui","coordinates":{"lat":"35.627778","long":"127.812222"}},{"country":"kr","city":"Anuisil","coordinates":{"lat":"37.34","long":"129.0752"}},{"country":"kr","city":"Anun","coordinates":{"lat":"34.740278","long":"126.693889"}},{"country":"kr","city":"Anunso","coordinates":{"lat":"36.394316","long":"127.918954"}},{"country":"kr","city":"Anwollim","coordinates":{"lat":"37.0871","long":"128.169"}},{"country":"kr","city":"Anwondokol","coordinates":{"lat":"36.1278","long":"127.7275"}},{"country":"kr","city":"Anwongol","coordinates":{"lat":"37.164","long":"128.5276"}},{"country":"kr","city":"Anwonha","coordinates":{"lat":"37.1393","long":"127.5902"}},{"country":"kr","city":"Anyang","coordinates":{"lat":"35.621278","long":"127.490008"}},{"country":"kr","city":"Anyang","coordinates":{"lat":"37.3925","long":"126.926944"}},{"country":"kr","city":"Anyang","coordinates":{"lat":"36.4361","long":"128.1305"}},{"country":"kr","city":"Anyang","coordinates":{"lat":"36.9577","long":"127.1464"}},{"country":"kr","city":"Anyangchildong","coordinates":{"lat":"37.387222","long":"126.934722"}},{"country":"kr","city":"Anyangchiltong","coordinates":{"lat":"37.387222","long":"126.934722"}},{"country":"kr","city":"Anyangdong","coordinates":{"lat":"35.719301","long":"127.051935"}},{"country":"kr","city":"Anyangdong","coordinates":{"lat":"37.310556","long":"127.574167"}},{"country":"kr","city":"Anyangdong","coordinates":{"lat":"34.687778","long":"127.597778"}},{"country":"kr","city":"Anyanggok","coordinates":{"lat":"36.9153","long":"127.1146"}},{"country":"kr","city":"Anyanggudong","coordinates":{"lat":"37.375833","long":"126.905"}},{"country":"kr","city":"Anyangidong","coordinates":{"lat":"37.409444","long":"126.919444"}},{"country":"kr","city":"Anyangildong","coordinates":{"lat":"37.399167","long":"126.925556"}},{"country":"kr","city":"Anyangiltong","coordinates":{"lat":"37.399167","long":"126.925556"}},{"country":"kr","city":"Anyangji","coordinates":{"lat":"35.592875","long":"128.735263"}},{"country":"kr","city":"Anyangni","coordinates":{"lat":"35.621278","long":"127.490008"}},{"country":"kr","city":"Anyangni","coordinates":{"lat":"37.3925","long":"126.926944"}},{"country":"kr","city":"Anyangodong","coordinates":{"lat":"37.391944","long":"126.923056"}},{"country":"kr","city":"Anyangpaldong","coordinates":{"lat":"37.380833","long":"126.930278"}},{"country":"kr","city":"Anyangpaltong","coordinates":{"lat":"37.380833","long":"126.930278"}},{"country":"kr","city":"Anyangsadong","coordinates":{"lat":"37.396944","long":"126.918889"}},{"country":"kr","city":"Anyangsamdong","coordinates":{"lat":"37.397222","long":"126.911944"}},{"country":"kr","city":"Anyangyukdong","coordinates":{"lat":"37.385556","long":"126.925278"}},{"country":"kr","city":"Anyangyuktong","coordinates":{"lat":"37.385556","long":"126.925278"}},{"country":"kr","city":"Anyeom","coordinates":{"lat":"37.158056","long":"127.018611"}},{"country":"kr","city":"Anyo","coordinates":{"lat":"35.719301","long":"127.051935"}},{"country":"kr","city":"Anyo","coordinates":{"lat":"37.3925","long":"126.926944"}},{"country":"kr","city":"Anyogol","coordinates":{"lat":"37.103889","long":"126.9625"}},{"country":"kr","city":"Anyom","coordinates":{"lat":"37.158056","long":"127.018611"}},{"country":"kr","city":"Anyongdong","coordinates":{"lat":"36.282158","long":"127.381246"}},{"country":"kr","city":"Anyonggol","coordinates":{"lat":"36.3074","long":"127.0565"}},{"country":"kr","city":"Anyonghwa","coordinates":{"lat":"36.0431","long":"127.7765"}},{"country":"kr","city":"Anyongmeori","coordinates":{"lat":"37.369444","long":"127.673889"}},{"country":"kr","city":"Anyongmori","coordinates":{"lat":"37.369444","long":"127.673889"}},{"country":"kr","city":"Anyongsimak","coordinates":{"lat":"35.54162","long":"127.824259"}},{"country":"kr","city":"Anyori","coordinates":{"lat":"37.3925","long":"126.926944"}},{"country":"kr","city":"Anyosu","coordinates":{"lat":"35.566818","long":"128.741026"}},{"country":"kr","city":"Anyusinae","coordinates":{"lat":"36.243179","long":"129.054707"}},{"country":"kr","city":"Anzan","coordinates":{"lat":"35.466667","long":"126.533333"}},{"country":"kr","city":"Anzan","coordinates":{"lat":"37.323611","long":"126.821944"}},{"country":"kr","city":"Aoraji","coordinates":{"lat":"37.7274","long":"128.2347"}},{"country":"kr","city":"Apasil","coordinates":{"lat":"37.2974","long":"128.3865"}},{"country":"kr","city":"Apchae","coordinates":{"lat":"36.0547","long":"127.66"}},{"country":"kr","city":"Apchae","coordinates":{"lat":"36.2337","long":"127.3725"}},{"country":"kr","city":"Apchae","coordinates":{"lat":"35.242553","long":"128.250007"}},{"country":"kr","city":"Apchaedong","coordinates":{"lat":"36.0547","long":"127.66"}},{"country":"kr","city":"Apchakkol","coordinates":{"lat":"36.988333","long":"128.701111"}},{"country":"kr","city":"Apche","coordinates":{"lat":"34.916667","long":"126.716667"}},{"country":"kr","city":"Apcheri","coordinates":{"lat":"34.916667","long":"126.716667"}},{"country":"kr","city":"Apchidong","coordinates":{"lat":"36.0547","long":"127.66"}},{"country":"kr","city":"Apgaji","coordinates":{"lat":"37.395","long":"127.241111"}},{"country":"kr","city":"Apgoji","coordinates":{"lat":"37.286111","long":"127.217778"}},{"country":"kr","city":"Apgol","coordinates":{"lat":"37.404722","long":"127.585833"}},{"country":"kr","city":"Aphang","coordinates":{"lat":"36.75","long":"127.683333"}},{"country":"kr","city":"Apho","coordinates":{"lat":"35.639093","long":"128.048725"}},{"country":"kr","city":"Apkaegol","coordinates":{"lat":"33.266667","long":"126.65"}},{"country":"kr","city":"Apkaji","coordinates":{"lat":"37.395","long":"127.241111"}},{"country":"kr","city":"Apkoji","coordinates":{"lat":"37.286111","long":"127.217778"}},{"country":"kr","city":"Apkok","coordinates":{"lat":"35.594525","long":"127.406841"}},{"country":"kr","city":"Apkok","coordinates":{"lat":"34.984444","long":"127.523611"}},{"country":"kr","city":"Apkok","coordinates":{"lat":"36.5829","long":"126.5615"}},{"country":"kr","city":"Apkok","coordinates":{"lat":"35.292743","long":"128.283153"}},{"country":"kr","city":"Apkol","coordinates":{"lat":"37.3611","long":"128.501"}},{"country":"kr","city":"Apkol","coordinates":{"lat":"37.404722","long":"127.585833"}},{"country":"kr","city":"Apkongni","coordinates":{"lat":"37.488861","long":"127.897297"}},{"country":"kr","city":"Apkongni","coordinates":{"lat":"34.984444","long":"127.523611"}},{"country":"kr","city":"Apkongni","coordinates":{"lat":"35.432078","long":"128.26443"}},{"country":"kr","city":"Apkujong","coordinates":{"lat":"36.291","long":"127.6416"}},{"country":"kr","city":"Apkujongdong","coordinates":{"lat":"37.5266","long":"127.0366"}},{"country":"kr","city":"Apkujongidong","coordinates":{"lat":"37.52915","long":"127.03949"}},{"country":"kr","city":"Apkujongiltong","coordinates":{"lat":"37.52921","long":"127.02818"}},{"country":"kr","city":"Apkujongni","coordinates":{"lat":"37.5266","long":"127.0366"}},{"country":"kr","city":"Apo","coordinates":{"lat":"36.158333","long":"128.256111"}},{"country":"kr","city":"Apodong","coordinates":{"lat":"36.5073","long":"126.4931"}},{"country":"kr","city":"Appakkol","coordinates":{"lat":"36.6731","long":"126.8532"}},{"country":"kr","city":"Appodong","coordinates":{"lat":"37.7213","long":"127.5489"}},{"country":"kr","city":"Apsaegol","coordinates":{"lat":"37.0689","long":"128.3862"}},{"country":"kr","city":"Apsanmit","coordinates":{"lat":"36.4136","long":"128.7726"}},{"country":"kr","city":"Apsigol","coordinates":{"lat":"36.646","long":"129.1218"}},{"country":"kr","city":"Apsil","coordinates":{"lat":"37.293","long":"129.0524"}},{"country":"kr","city":"Apsil","coordinates":{"lat":"37.1975","long":"126.705"}},{"country":"kr","city":"Apsil","coordinates":{"lat":"36.014962","long":"127.985844"}},{"country":"kr","city":"Apsilgol","coordinates":{"lat":"37.5115","long":"128.8016"}},{"country":"kr","city":"Apsilli","coordinates":{"lat":"37.1975","long":"126.705"}},{"country":"kr","city":"Apsom","coordinates":{"lat":"36.0211","long":"127.6449"}},{"country":"kr","city":"Apsom","coordinates":{"lat":"37.8396","long":"128.875"}},{"country":"kr","city":"Apsu","coordinates":{"lat":"36.4095","long":"126.731"}},{"country":"kr","city":"Apsugol","coordinates":{"lat":"36.5442","long":"129.1663"}},{"country":"kr","city":"Apsugol","coordinates":{"lat":"36.0742","long":"127.5945"}},{"country":"kr","city":"Aptidong","coordinates":{"lat":"36.0547","long":"127.66"}},{"country":"kr","city":"Aptongne","coordinates":{"lat":"33.326667","long":"126.713889"}},{"country":"kr","city":"Aptuduk","coordinates":{"lat":"36.866667","long":"128.483333"}},{"country":"kr","city":"Apyong","coordinates":{"lat":"37.0152","long":"128.3868"}},{"country":"kr","city":"Apyong","coordinates":{"lat":"34.757033","long":"127.340024"}},{"country":"kr","city":"Arackkomo","coordinates":{"lat":"37.175","long":"126.7475"}},{"country":"kr","city":"Aradong","coordinates":{"lat":"33.468889","long":"126.5275"}},{"country":"kr","city":"Araeachan","coordinates":{"lat":"36.8535","long":"126.742"}},{"country":"kr","city":"Araeangan","coordinates":{"lat":"36.0143","long":"127.9608"}},{"country":"kr","city":"Araebaesil","coordinates":{"lat":"36.4034","long":"127.9245"}},{"country":"kr","city":"Araebaetti","coordinates":{"lat":"36.605556","long":"128.908333"}},{"country":"kr","city":"Araebagam","coordinates":{"lat":"37.7261","long":"127.5418"}},{"country":"kr","city":"Araebaktal","coordinates":{"lat":"38.103889","long":"127.510833"}},{"country":"kr","city":"Araebamni","coordinates":{"lat":"35.69024","long":"127.053687"}},{"country":"kr","city":"Araebeomsil","coordinates":{"lat":"37.4075","long":"127.502222"}},{"country":"kr","city":"Arae Bigginae","coordinates":{"lat":"38.220833","long":"127.67"}},{"country":"kr","city":"Araebikkinae","coordinates":{"lat":"38.220833","long":"127.67"}},{"country":"kr","city":"Araebikkunbaengi","coordinates":{"lat":"36.0587","long":"127.7518"}},{"country":"kr","city":"Araebodong","coordinates":{"lat":"37.5678","long":"127.9523"}},{"country":"kr","city":"Araebomgol","coordinates":{"lat":"37.7055","long":"127.8574"}},{"country":"kr","city":"Araebomsil","coordinates":{"lat":"37.4075","long":"127.502222"}},{"country":"kr","city":"Araebuchun","coordinates":{"lat":"34.8","long":"128.6"}},{"country":"kr","city":"Araebusuam","coordinates":{"lat":"34.996407","long":"128.318458"}},{"country":"kr","city":"Araechamnamusil","coordinates":{"lat":"36.3105","long":"128.8551"}},{"country":"kr","city":"Araechangnae","coordinates":{"lat":"37.8458","long":"127.7019"}},{"country":"kr","city":"Araechongyong","coordinates":{"lat":"34.438889","long":"126.296667"}},{"country":"kr","city":"Araedaesil","coordinates":{"lat":"36.8238","long":"126.9766"}},{"country":"kr","city":"Araedamuri","coordinates":{"lat":"37.9462","long":"128.0696"}},{"country":"kr","city":"Araedarigol","coordinates":{"lat":"37.5337","long":"128.8341"}},{"country":"kr","city":"Araedeokgol","coordinates":{"lat":"38.1925","long":"128.03"}},{"country":"kr","city":"Araedibam","coordinates":{"lat":"36.3992","long":"129.2585"}},{"country":"kr","city":"Araedmal","coordinates":{"lat":"38.048056","long":"127.614444"}},{"country":"kr","city":"Araedokcholli","coordinates":{"lat":"37.2493","long":"128.3894"}},{"country":"kr","city":"Araedokchong","coordinates":{"lat":"36.8296","long":"126.992"}},{"country":"kr","city":"Araedokkol","coordinates":{"lat":"38.1925","long":"128.03"}},{"country":"kr","city":"Araedoldam","coordinates":{"lat":"37.195278","long":"127.431111"}},{"country":"kr","city":"Araedoltam","coordinates":{"lat":"37.195278","long":"127.431111"}},{"country":"kr","city":"Araedomachi","coordinates":{"lat":"37.471389","long":"127.2875"}},{"country":"kr","city":"Araedong","coordinates":{"lat":"34.643611","long":"126.630833"}},{"country":"kr","city":"Araedongbakkol","coordinates":{"lat":"37.47","long":"128.2274"}},{"country":"kr","city":"Araedongol","coordinates":{"lat":"36.5313","long":"129.0257"}},{"country":"kr","city":"Araedugik","coordinates":{"lat":"36.2934","long":"128.2173"}},{"country":"kr","city":"Araedulgol","coordinates":{"lat":"37.194891","long":"128.385103"}},{"country":"kr","city":"Araedunmori","coordinates":{"lat":"34.524167","long":"126.791944"}},{"country":"kr","city":"Araedwangchon","coordinates":{"lat":"36.4352","long":"127.1733"}},{"country":"kr","city":"Araedwirun","coordinates":{"lat":"37.5093","long":"127.9671"}},{"country":"kr","city":"Araedyangmyong","coordinates":{"lat":"35.930569","long":"127.436113"}},{"country":"kr","city":"Araedyangwolli","coordinates":{"lat":"37.9934","long":"127.0237"}},{"country":"kr","city":"Araedyongho","coordinates":{"lat":"35.059167","long":"128.591111"}},{"country":"kr","city":"Araedyongyonggae","coordinates":{"lat":"37.5135","long":"128.0469"}},{"country":"kr","city":"Araedyorwolli","coordinates":{"lat":"35.82423","long":"127.551398"}},{"country":"kr","city":"Araedyosaengi","coordinates":{"lat":"36.740556","long":"127.764167"}},{"country":"kr","city":"Araegaehwa","coordinates":{"lat":"37.1948","long":"128.2503"}},{"country":"kr","city":"Araegaehwat","coordinates":{"lat":"37.5055","long":"128.0126"}},{"country":"kr","city":"Araegaktan","coordinates":{"lat":"35.931111","long":"128.694167"}},{"country":"kr","city":"Araegalgol","coordinates":{"lat":"38.154167","long":"127.676389"}},{"country":"kr","city":"Araegamaeul","coordinates":{"lat":"37.356944","long":"127.386667"}},{"country":"kr","city":"Araegamaul","coordinates":{"lat":"37.356944","long":"127.386667"}},{"country":"kr","city":"Araegaraejae","coordinates":{"lat":"35.899774","long":"128.002444"}},{"country":"kr","city":"Araegaragol","coordinates":{"lat":"36.2852","long":"128.264"}},{"country":"kr","city":"Araegarani","coordinates":{"lat":"36.6715","long":"126.883"}},{"country":"kr","city":"Araegarusil","coordinates":{"lat":"36.6562","long":"126.6437"}},{"country":"kr","city":"Araegasimakkol","coordinates":{"lat":"36.0045","long":"128.3406"}},{"country":"kr","city":"Araegijae","coordinates":{"lat":"37.801667","long":"126.253333"}},{"country":"kr","city":"Araegolmi","coordinates":{"lat":"37.343","long":"128.168"}},{"country":"kr","city":"Araegolpigi","coordinates":{"lat":"37.0367","long":"127.8271"}},{"country":"kr","city":"Araegonchon","coordinates":{"lat":"36.4269","long":"126.6802"}},{"country":"kr","city":"Araegosol","coordinates":{"lat":"37.490278","long":"127.699167"}},{"country":"kr","city":"Araegumdan","coordinates":{"lat":"35.976648","long":"128.24501"}},{"country":"kr","city":"Araegumsong","coordinates":{"lat":"37.132222","long":"129.338611"}},{"country":"kr","city":"Araegwangchi","coordinates":{"lat":"38.131389","long":"128.046111"}},{"country":"kr","city":"Araegwangchon","coordinates":{"lat":"36.142064","long":"129.083193"}},{"country":"kr","city":"Araehaengjong","coordinates":{"lat":"37.57773","long":"127.96122"}},{"country":"kr","city":"Araehail","coordinates":{"lat":"37.1406","long":"127.9096"}},{"country":"kr","city":"Araehail","coordinates":{"lat":"37.214722","long":"126.790833"}},{"country":"kr","city":"Araehansil","coordinates":{"lat":"36.3976","long":"129.0989"}},{"country":"kr","city":"Araehoumsa Ri","coordinates":{"lat":"38.1275","long":"127.747778"}},{"country":"kr","city":"Araehoumsoeri","coordinates":{"lat":"38.1275","long":"127.747778"}},{"country":"kr","city":"Araehoumsori","coordinates":{"lat":"38.1275","long":"127.747778"}},{"country":"kr","city":"Araehunae","coordinates":{"lat":"37.616667","long":"128.983333"}},{"country":"kr","city":"Araehungbu","coordinates":{"lat":"37.103333","long":"129.364167"}},{"country":"kr","city":"Araehurisil","coordinates":{"lat":"35.940702","long":"128.153312"}},{"country":"kr","city":"Araehwajang","coordinates":{"lat":"36.302539","long":"129.142133"}},{"country":"kr","city":"Araehwajon","coordinates":{"lat":"33.35","long":"126.383333"}},{"country":"kr","city":"Araehwanggol","coordinates":{"lat":"37.3659","long":"128.0028"}},{"country":"kr","city":"Araehwangi","coordinates":{"lat":"37.9711","long":"128.5218"}},{"country":"kr","city":"Araehwangjeong","coordinates":{"lat":"37.1505","long":"127.5933"}},{"country":"kr","city":"Araehwangjong","coordinates":{"lat":"37.1505","long":"127.5933"}},{"country":"kr","city":"Araeillyun","coordinates":{"lat":"37.2822","long":"128.0151"}},{"country":"kr","city":"Araeiraesil","coordinates":{"lat":"36.5782","long":"129.3802"}},{"country":"kr","city":"Araejajingae","coordinates":{"lat":"37.428333","long":"127.540278"}},{"country":"kr","city":"Araejamiwon","coordinates":{"lat":"37.2368","long":"128.7321"}},{"country":"kr","city":"Araejangbat","coordinates":{"lat":"36.4204","long":"126.6716"}},{"country":"kr","city":"Araejanggol","coordinates":{"lat":"36.3992","long":"126.6407"}},{"country":"kr","city":"Araejanggu","coordinates":{"lat":"36.334167","long":"128.407222"}},{"country":"kr","city":"Araejaposil","coordinates":{"lat":"36.6066","long":"129.0436"}},{"country":"kr","city":"Araejawiri","coordinates":{"lat":"37.0728","long":"127.5469"}},{"country":"kr","city":"Araejedong","coordinates":{"lat":"37.2992","long":"128.7956"}},{"country":"kr","city":"Araejeotgae","coordinates":{"lat":"37.501111","long":"126.504167"}},{"country":"kr","city":"Araejokkae","coordinates":{"lat":"37.501111","long":"126.504167"}},{"country":"kr","city":"Araejolgol","coordinates":{"lat":"37.0047","long":"127.9586"}},{"country":"kr","city":"Araejongsanpo","coordinates":{"lat":"36.7161","long":"126.1689"}},{"country":"kr","city":"Araejonuisil","coordinates":{"lat":"36.4006","long":"128.8831"}},{"country":"kr","city":"Araejumigol","coordinates":{"lat":"36.3382","long":"126.8862"}},{"country":"kr","city":"Araekkae","coordinates":{"lat":"36.0517","long":"128.3927"}},{"country":"kr","city":"Araekkae","coordinates":{"lat":"35.054722","long":"128.5575"}},{"country":"kr","city":"Araekkaegol","coordinates":{"lat":"36.7064","long":"126.6472"}},{"country":"kr","city":"Araekkajim","coordinates":{"lat":"35.440044","long":"128.443293"}},{"country":"kr","city":"Araekkajonggi","coordinates":{"lat":"36.6432","long":"129.0055"}},{"country":"kr","city":"Araekkalgi","coordinates":{"lat":"37.9903","long":"127.3156"}},{"country":"kr","city":"Araekkalmae","coordinates":{"lat":"36.064271","long":"129.247423"}},{"country":"kr","city":"Araekkamasil","coordinates":{"lat":"37.38","long":"127.506389"}},{"country":"kr","city":"Araekkamaul","coordinates":{"lat":"37.820278","long":"126.8225"}},{"country":"kr","city":"Araekkamunae","coordinates":{"lat":"37.483333","long":"128.183333"}},{"country":"kr","city":"Araekkarigol","coordinates":{"lat":"37.6375","long":"128.5419"}},{"country":"kr","city":"Araekkobuk","coordinates":{"lat":"37.6","long":"127.58333"}},{"country":"kr","city":"Araekkol","coordinates":{"lat":"35.672411","long":"128.330445"}},{"country":"kr","city":"Araekkol","coordinates":{"lat":"35.393971","long":"128.474803"}},{"country":"kr","city":"Araekkolmal","coordinates":{"lat":"37.3044","long":"127.8213"}},{"country":"kr","city":"Araekkomsil","coordinates":{"lat":"36.8077","long":"129.4299"}},{"country":"kr","city":"Araekkondure","coordinates":{"lat":"37.91669","long":"127.80597"}},{"country":"kr","city":"Araekkongi","coordinates":{"lat":"36.867222","long":"128.994444"}},{"country":"kr","city":"Araekkosigol","coordinates":{"lat":"37.1117","long":"128.3559"}},{"country":"kr","city":"Araekkujip","coordinates":{"lat":"34.917231","long":"128.427318"}},{"country":"kr","city":"Araekkulmogi","coordinates":{"lat":"35.873549","long":"128.191"}},{"country":"kr","city":"Araekkumul","coordinates":{"lat":"36.8918","long":"126.6802"}},{"country":"kr","city":"Araekkuryang","coordinates":{"lat":"36.7171","long":"126.7659"}},{"country":"kr","city":"Araekkwaho","coordinates":{"lat":"37.5992","long":"127.7391"}},{"country":"kr","city":"Araekkwanam","coordinates":{"lat":"36.114551","long":"129.152771"}},{"country":"kr","city":"Araekkwau","coordinates":{"lat":"37.5992","long":"127.7391"}},{"country":"kr","city":"Araekkwinae","coordinates":{"lat":"36.843333","long":"128.616389"}},{"country":"kr","city":"Araemaenam","coordinates":{"lat":"37.4868","long":"127.8401"}},{"country":"kr","city":"Araemaengi","coordinates":{"lat":"36.810556","long":"127.8725"}},{"country":"kr","city":"Araemal","coordinates":{"lat":"37.233333","long":"128.95"}},{"country":"kr","city":"Araemal","coordinates":{"lat":"37.229722","long":"126.545278"}},{"country":"kr","city":"Araemangjimi","coordinates":{"lat":"36.283","long":"127.5609"}},{"country":"kr","city":"Araemangwol","coordinates":{"lat":"37.746389","long":"126.364722"}},{"country":"kr","city":"Araemanjisan","coordinates":{"lat":"37.3266","long":"128.6056"}},{"country":"kr","city":"Araemanmok","coordinates":{"lat":"36.1871","long":"127.3101"}},{"country":"kr","city":"Araemaul","coordinates":{"lat":"34.856944","long":"128.642222"}},{"country":"kr","city":"Araemirachi","coordinates":{"lat":"37.982","long":"127.0991"}},{"country":"kr","city":"Araemirat","coordinates":{"lat":"36.832222","long":"127.878889"}},{"country":"kr","city":"Araemireuk","coordinates":{"lat":"37.365556","long":"127.635556"}},{"country":"kr","city":"Araemiruk","coordinates":{"lat":"37.365556","long":"127.635556"}},{"country":"kr","city":"Araemoejae","coordinates":{"lat":"35.895273","long":"128.214344"}},{"country":"kr","city":"Araemoeruni","coordinates":{"lat":"37.391667","long":"127.084167"}},{"country":"kr","city":"Araemojong","coordinates":{"lat":"36.7881","long":"127.0221"}},{"country":"kr","city":"Araemok","coordinates":{"lat":"36.676","long":"126.1448"}},{"country":"kr","city":"Araemongni","coordinates":{"lat":"36.016667","long":"126.666667"}},{"country":"kr","city":"Araemusul","coordinates":{"lat":"37.448333","long":"127.295833"}},{"country":"kr","city":"Araenakpung","coordinates":{"lat":"37.616667","long":"129.033333"}},{"country":"kr","city":"Araenamgyo","coordinates":{"lat":"38.184444","long":"128.295"}},{"country":"kr","city":"Araenaragol","coordinates":{"lat":"36.554167","long":"129.373611"}},{"country":"kr","city":"Araenma","coordinates":{"lat":"36.197623","long":"129.058295"}},{"country":"kr","city":"Araenmal","coordinates":{"lat":"36.299939","long":"127.813346"}},{"country":"kr","city":"Araenmal","coordinates":{"lat":"37.2114","long":"128.5022"}},{"country":"kr","city":"Araenmal","coordinates":{"lat":"37.723056","long":"126.700278"}},{"country":"kr","city":"Araenmal","coordinates":{"lat":"37.083333","long":"127.148611"}},{"country":"kr","city":"Araenmal","coordinates":{"lat":"36.3244","long":"128.2188"}},{"country":"kr","city":"Araenmal","coordinates":{"lat":"36.3004","long":"127.1556"}},{"country":"kr","city":"Araenmal","coordinates":{"lat":"35.601235","long":"128.23075"}},{"country":"kr","city":"Araenmalgori","coordinates":{"lat":"37.9089","long":"127.8849"}},{"country":"kr","city":"Araenmalmori","coordinates":{"lat":"36.1488","long":"127.4753"}},{"country":"kr","city":"Araenmangwol","coordinates":{"lat":"37.746389","long":"126.364722"}},{"country":"kr","city":"Araenmanmok","coordinates":{"lat":"36.1871","long":"127.3101"}},{"country":"kr","city":"Araenmatchil","coordinates":{"lat":"35.814116","long":"128.268288"}},{"country":"kr","city":"Araenmaul","coordinates":{"lat":"37.0212","long":"128.2774"}},{"country":"kr","city":"Araenmaul","coordinates":{"lat":"38.140278","long":"127.976667"}},{"country":"kr","city":"Araenmaul","coordinates":{"lat":"36.176404","long":"129.248412"}},{"country":"kr","city":"Araenmaul","coordinates":{"lat":"34.856944","long":"128.642222"}},{"country":"kr","city":"Araenmojil","coordinates":{"lat":"36.4788","long":"128.9894"}},{"country":"kr","city":"Araenmokkol","coordinates":{"lat":"37.426667","long":"127.755833"}},{"country":"kr","city":"Araenmokkol","coordinates":{"lat":"36.175","long":"127.4591"}},{"country":"kr","city":"Araenmongni","coordinates":{"lat":"36.016667","long":"126.666667"}},{"country":"kr","city":"Araenmongomogi","coordinates":{"lat":"36.4891","long":"127.8636"}},{"country":"kr","city":"Araenmosan","coordinates":{"lat":"36.1141","long":"127.6653"}},{"country":"kr","city":"Araenmunjong","coordinates":{"lat":"37.9328","long":"127.7565"}},{"country":"kr","city":"Araennabang","coordinates":{"lat":"36.6869","long":"129.0823"}},{"country":"kr","city":"Araennangwol","coordinates":{"lat":"36.2844","long":"127.468"}},{"country":"kr","city":"Araennobunni","coordinates":{"lat":"37.5349","long":"128.1525"}},{"country":"kr","city":"Araennoburi","coordinates":{"lat":"35.632743","long":"128.196372"}},{"country":"kr","city":"Araennodang","coordinates":{"lat":"36.038231","long":"129.228233"}},{"country":"kr","city":"Araennongjang","coordinates":{"lat":"36.7398","long":"126.7264"}},{"country":"kr","city":"Araennulti","coordinates":{"lat":"36.586389","long":"127.901111"}},{"country":"kr","city":"Araenobungnae","coordinates":{"lat":"36.3234","long":"126.8375"}},{"country":"kr","city":"Araenochae","coordinates":{"lat":"37.8846","long":"127.3503"}},{"country":"kr","city":"Araenomnampo","coordinates":{"lat":"34.358611","long":"126.521389"}},{"country":"kr","city":"Araenongso","coordinates":{"lat":"36.3039","long":"128.2886"}},{"country":"kr","city":"Araenopunto","coordinates":{"lat":"37.6124","long":"127.8704"}},{"country":"kr","city":"Araeogap","coordinates":{"lat":"37.113611","long":"127.671389"}},{"country":"kr","city":"Araeojaksil","coordinates":{"lat":"36.1746","long":"127.2744"}},{"country":"kr","city":"Araeppaeguni","coordinates":{"lat":"37.9697","long":"126.9593"}},{"country":"kr","city":"Araeppaehae","coordinates":{"lat":"36.816667","long":"128.666667"}},{"country":"kr","city":"Araeppaektong","coordinates":{"lat":"37.5499","long":"127.6792"}},{"country":"kr","city":"Araeppaenae","coordinates":{"lat":"37.393611","long":"127.778056"}},{"country":"kr","city":"Araeppaenamugol","coordinates":{"lat":"36.4812","long":"126.7833"}},{"country":"kr","city":"Araeppallyong","coordinates":{"lat":"36.4258","long":"127.2118"}},{"country":"kr","city":"Araeppamnamugol","coordinates":{"lat":"37.1411","long":"127.7406"}},{"country":"kr","city":"Araeppamwon","coordinates":{"lat":"36.4421","long":"128.0242"}},{"country":"kr","city":"Araeppangasil","coordinates":{"lat":"37.2284","long":"127.8489"}},{"country":"kr","city":"Araeppangdu","coordinates":{"lat":"37.0665","long":"128.3607"}},{"country":"kr","city":"Araeppangsalmi","coordinates":{"lat":"37.1375","long":"128.3594"}},{"country":"kr","city":"Araeppikkine","coordinates":{"lat":"38.220833","long":"127.67"}},{"country":"kr","city":"Araeppirisil","coordinates":{"lat":"35.927861","long":"127.613485"}},{"country":"kr","city":"Araeppol","coordinates":{"lat":"37.7935","long":"127.3244"}},{"country":"kr","city":"Araeppomsil","coordinates":{"lat":"37.4075","long":"127.502222"}},{"country":"kr","city":"Araepporibat","coordinates":{"lat":"35.582604","long":"127.046469"}},{"country":"kr","city":"Araeppujo","coordinates":{"lat":"35.996111","long":"129.311111"}},{"country":"kr","city":"Araeppurugae","coordinates":{"lat":"37.484167","long":"127.400278"}},{"country":"kr","city":"Araepujo","coordinates":{"lat":"35.996111","long":"129.311111"}},{"country":"kr","city":"Araesaechong","coordinates":{"lat":"37.9606","long":"127.1177"}},{"country":"kr","city":"Araesaeto","coordinates":{"lat":"35.653354","long":"127.166406"}},{"country":"kr","city":"Araesaeto","coordinates":{"lat":"36.5503","long":"129.4073"}},{"country":"kr","city":"Araesaeto","coordinates":{"lat":"36.0828","long":"127.5775"}},{"country":"kr","city":"Araesaeto","coordinates":{"lat":"35.387223","long":"128.384281"}},{"country":"kr","city":"Araesaetto","coordinates":{"lat":"35.387223","long":"128.384281"}},{"country":"kr","city":"Araesagimak","coordinates":{"lat":"37.314722","long":"127.154167"}},{"country":"kr","city":"Araesagunae","coordinates":{"lat":"37.431","long":"128.3405"}},{"country":"kr","city":"Araesail","coordinates":{"lat":"37.451389","long":"127.854722"}},{"country":"kr","city":"Araesambae","coordinates":{"lat":"37.5653","long":"127.983"}},{"country":"kr","city":"Araesangjaewon","coordinates":{"lat":"36.053889","long":"128.328056"}},{"country":"kr","city":"Araesansugol","coordinates":{"lat":"37.6652","long":"127.9379"}},{"country":"kr","city":"Araesayo","coordinates":{"lat":"36.4264","long":"127.8229"}},{"country":"kr","city":"Araeseongneup","coordinates":{"lat":"37.267778","long":"127.651389"}},{"country":"kr","city":"Araesinamgol","coordinates":{"lat":"37.9035","long":"126.9598"}},{"country":"kr","city":"Araesodanggol","coordinates":{"lat":"36.438233","long":"127.850497"}},{"country":"kr","city":"Araesoebat","coordinates":{"lat":"36.4243","long":"126.8256"}},{"country":"kr","city":"Araesoeri","coordinates":{"lat":"38.125786","long":"128.296161"}},{"country":"kr","city":"Araesongnup","coordinates":{"lat":"37.267778","long":"127.651389"}},{"country":"kr","city":"Araesori","coordinates":{"lat":"37.326944","long":"127.174444"}},{"country":"kr","city":"Araessadun","coordinates":{"lat":"37.4241","long":"129.1126"}},{"country":"kr","city":"Araessaebyol","coordinates":{"lat":"36.9027","long":"126.9506"}},{"country":"kr","city":"Araessaejabi","coordinates":{"lat":"37.809444","long":"126.714722"}},{"country":"kr","city":"Araessaejae","coordinates":{"lat":"37.379722","long":"127.596111"}},{"country":"kr","city":"Araessaejae","coordinates":{"lat":"35.950841","long":"127.944612"}},{"country":"kr","city":"Araessaeudae","coordinates":{"lat":"37.308056","long":"126.938333"}},{"country":"kr","city":"Araessagiso","coordinates":{"lat":"36.379","long":"127.2608"}},{"country":"kr","city":"Araessajanggol","coordinates":{"lat":"37.1053","long":"127.6779"}},{"country":"kr","city":"Araessajong","coordinates":{"lat":"36.1944","long":"127.2767"}},{"country":"kr","city":"Araessalmi","coordinates":{"lat":"37.0542","long":"128.1357"}},{"country":"kr","city":"Araessalmok","coordinates":{"lat":"36.0985","long":"127.7188"}},{"country":"kr","city":"Araessanae","coordinates":{"lat":"37.176667","long":"126.911111"}},{"country":"kr","city":"Araessandu","coordinates":{"lat":"38.450278","long":"128.396944"}},{"country":"kr","city":"Araessanjeon","coordinates":{"lat":"37.0999","long":"127.7907"}},{"country":"kr","city":"Araessanjon","coordinates":{"lat":"37.0999","long":"127.7907"}},{"country":"kr","city":"Araessegeori","coordinates":{"lat":"37.1624","long":"127.661"}},{"country":"kr","city":"Araessegori","coordinates":{"lat":"37.1624","long":"127.661"}},{"country":"kr","city":"Araessepyong","coordinates":{"lat":"35.537517","long":"127.784259"}},{"country":"kr","city":"Araesshinchon","coordinates":{"lat":"36.4","long":"128.233333"}},{"country":"kr","city":"Araessingori","coordinates":{"lat":"35.638721","long":"127.955399"}},{"country":"kr","city":"Araessobusil","coordinates":{"lat":"35.873925","long":"128.436934"}},{"country":"kr","city":"Araessokkae","coordinates":{"lat":"35.07414","long":"128.455121"}},{"country":"kr","city":"Araessomun","coordinates":{"lat":"37.723611","long":"126.786944"}},{"country":"kr","city":"Araessonbawi","coordinates":{"lat":"35.918849","long":"128.07791"}},{"country":"kr","city":"Araessonggang","coordinates":{"lat":"36.4228","long":"127.2493"}},{"country":"kr","city":"Araessongmi","coordinates":{"lat":"36.6969","long":"126.7179"}},{"country":"kr","city":"Araessongnam","coordinates":{"lat":"37.2587","long":"128.0834"}},{"country":"kr","city":"Araessori","coordinates":{"lat":"36.2634","long":"127.451"}},{"country":"kr","city":"Araessorim","coordinates":{"lat":"37.9918","long":"128.5318"}},{"country":"kr","city":"Araessorisil","coordinates":{"lat":"37.418056","long":"127.495"}},{"country":"kr","city":"Araessosae","coordinates":{"lat":"37.1474","long":"128.1587"}},{"country":"kr","city":"Araesugol","coordinates":{"lat":"37.6729","long":"127.917"}},{"country":"kr","city":"Araesumunari","coordinates":{"lat":"37.458693","long":"127.8096"}},{"country":"kr","city":"Araesungjang","coordinates":{"lat":"36.3624","long":"128.2075"}},{"country":"kr","city":"Araesurumjae","coordinates":{"lat":"35.912136","long":"128.19166"}},{"country":"kr","city":"Araetaeoji","coordinates":{"lat":"37.4712","long":"128.1413"}},{"country":"kr","city":"Araetappul","coordinates":{"lat":"35.791069","long":"127.814843"}},{"country":"kr","city":"Araetbaenae","coordinates":{"lat":"37.393611","long":"127.778056"}},{"country":"kr","city":"Araetbamnamugol","coordinates":{"lat":"37.1411","long":"127.7406"}},{"country":"kr","city":"Araetbureugae","coordinates":{"lat":"37.484167","long":"127.400278"}},{"country":"kr","city":"Araetchae","coordinates":{"lat":"35.798021","long":"127.45455"}},{"country":"kr","city":"Araetchae","coordinates":{"lat":"36.7021","long":"129.0446"}},{"country":"kr","city":"Araetchaesa","coordinates":{"lat":"37.2349","long":"128.1599"}},{"country":"kr","city":"Araetchagaeul","coordinates":{"lat":"37.207222","long":"127.403889"}},{"country":"kr","city":"Araetchagusil","coordinates":{"lat":"35.081415","long":"128.286169"}},{"country":"kr","city":"Araetchajolli","coordinates":{"lat":"36.1913","long":"127.5779"}},{"country":"kr","city":"Araetchaksil","coordinates":{"lat":"37.1647","long":"127.7911"}},{"country":"kr","city":"Araetchamosil","coordinates":{"lat":"36.331","long":"127.5145"}},{"country":"kr","city":"Araetchangbat","coordinates":{"lat":"36.4204","long":"126.6716"}},{"country":"kr","city":"Araetchangson","coordinates":{"lat":"35.771656","long":"127.784296"}},{"country":"kr","city":"Araetchangto","coordinates":{"lat":"35.919197","long":"127.973074"}},{"country":"kr","city":"Araetchidul","coordinates":{"lat":"36.118525","long":"129.079116"}},{"country":"kr","city":"Araetchindori","coordinates":{"lat":"36.1888","long":"127.4553"}},{"country":"kr","city":"Araetchiryangi","coordinates":{"lat":"37.474722","long":"127.765833"}},{"country":"kr","city":"Araetchom","coordinates":{"lat":"35.960294","long":"128.486646"}},{"country":"kr","city":"Araetchongdong","coordinates":{"lat":"36.3185","long":"127.6736"}},{"country":"kr","city":"Araetchulgol","coordinates":{"lat":"36.3319","long":"127.4744"}},{"country":"kr","city":"Araetchungmal","coordinates":{"lat":"36.2069","long":"127.5774"}},{"country":"kr","city":"Araetchuo","coordinates":{"lat":"37.4125","long":"127.428889"}},{"country":"kr","city":"Araetdaesil","coordinates":{"lat":"37.0341","long":"127.4997"}},{"country":"kr","city":"Araetdakbatgol","coordinates":{"lat":"37.0492","long":"127.7482"}},{"country":"kr","city":"Araetdam","coordinates":{"lat":"37.0063","long":"127.7236"}},{"country":"kr","city":"Araetdam","coordinates":{"lat":"37.158","long":"127.6638"}},{"country":"kr","city":"Araetdarigol","coordinates":{"lat":"37.441667","long":"127.488611"}},{"country":"kr","city":"Araetdobongi","coordinates":{"lat":"37.308333","long":"127.456389"}},{"country":"kr","city":"Araetdumeori","coordinates":{"lat":"37.100278","long":"126.95"}},{"country":"kr","city":"Araetdumil","coordinates":{"lat":"38.231667","long":"128.035278"}},{"country":"kr","city":"Araetdumuri","coordinates":{"lat":"38.0425","long":"128.089167"}},{"country":"kr","city":"Araetdurisil","coordinates":{"lat":"37.0252","long":"127.5254"}},{"country":"kr","city":"Araetgamasil","coordinates":{"lat":"37.38","long":"127.506389"}},{"country":"kr","city":"Araethalmok","coordinates":{"lat":"35.828665","long":"127.875884"}},{"country":"kr","city":"Araethanduri","coordinates":{"lat":"36.657778","long":"128.255"}},{"country":"kr","city":"Araethumsil","coordinates":{"lat":"35.992966","long":"128.256189"}},{"country":"kr","city":"Araetjagaeul","coordinates":{"lat":"37.207222","long":"127.403889"}},{"country":"kr","city":"Araetjaksil","coordinates":{"lat":"37.1647","long":"127.7911"}},{"country":"kr","city":"Araetjiryangi","coordinates":{"lat":"37.474722","long":"127.765833"}},{"country":"kr","city":"Araetjueo","coordinates":{"lat":"37.4125","long":"127.428889"}},{"country":"kr","city":"Araetkalbol","coordinates":{"lat":"38.38959","long":"128.487067"}},{"country":"kr","city":"Araetmaeul","coordinates":{"lat":"38.140278","long":"127.976667"}},{"country":"kr","city":"Araetmal","coordinates":{"lat":"38.048056","long":"127.614444"}},{"country":"kr","city":"Araetmal","coordinates":{"lat":"37.083333","long":"127.148611"}},{"country":"kr","city":"Araetmokgol","coordinates":{"lat":"37.426667","long":"127.755833"}},{"country":"kr","city":"Araetochanggol","coordinates":{"lat":"37.805556","long":"126.803889"}},{"country":"kr","city":"Araetogol","coordinates":{"lat":"37.7739","long":"126.953"}},{"country":"kr","city":"Araetokchom","coordinates":{"lat":"34.414444","long":"126.294444"}},{"country":"kr","city":"Araetonmori","coordinates":{"lat":"34.524167","long":"126.791944"}},{"country":"kr","city":"Araetpaehae","coordinates":{"lat":"36.816667","long":"128.666667"}},{"country":"kr","city":"Araetpyongdaengi","coordinates":{"lat":"36.0223","long":"127.5593"}},{"country":"kr","city":"Araetsokkae","coordinates":{"lat":"35.07414","long":"128.455121"}},{"country":"kr","city":"Araetsorisil","coordinates":{"lat":"37.418056","long":"127.495"}},{"country":"kr","city":"Araettaeri","coordinates":{"lat":"38.088889","long":"127.742222"}},{"country":"kr","city":"Araettaesil","coordinates":{"lat":"37.0341","long":"127.4997"}},{"country":"kr","city":"Araettaesil","coordinates":{"lat":"36.2565","long":"127.2569"}},{"country":"kr","city":"Araettakpakkol","coordinates":{"lat":"37.0492","long":"127.7482"}},{"country":"kr","city":"Araettam","coordinates":{"lat":"36.0286","long":"127.645"}},{"country":"kr","city":"Araettam","coordinates":{"lat":"37.0063","long":"127.7236"}},{"country":"kr","city":"Araettam","coordinates":{"lat":"37.158","long":"127.6638"}},{"country":"kr","city":"Araettam","coordinates":{"lat":"34.917064","long":"128.282095"}},{"country":"kr","city":"Araettang","coordinates":{"lat":"35.441871","long":"128.294215"}},{"country":"kr","city":"Araettarakkol","coordinates":{"lat":"36.546389","long":"127.961111"}},{"country":"kr","city":"Araettarigol","coordinates":{"lat":"37.5337","long":"128.8341"}},