[{"country":"ht","city":"Abacou","coordinates":{"lat":"18.0380556","long":"-73.7925"}},{"country":"ht","city":"Abeille","coordinates":{"lat":"18.7666667","long":"-72.0166667"}},{"country":"ht","city":"Abeille","coordinates":{"lat":"18.5641667","long":"-73.8463889"}},{"country":"ht","city":"Abicot","coordinates":{"lat":"18.85","long":"-73.0166667"}},{"country":"ht","city":"Aboni","coordinates":{"lat":"18.45","long":"-72.5833333"}},{"country":"ht","city":"Abord","coordinates":{"lat":"19.6833333","long":"-72.25"}},{"country":"ht","city":"Abraham","coordinates":{"lat":"18.4666667","long":"-73.25"}},{"country":"ht","city":"Abraham","coordinates":{"lat":"18.4197222","long":"-72.8141667"}},{"country":"ht","city":"Abricot","coordinates":{"lat":"19.8222222","long":"-73.1333333"}},{"country":"ht","city":"Abricot","coordinates":{"lat":"19.0666667","long":"-72.0833333"}},{"country":"ht","city":"Abricot","coordinates":{"lat":"18.3833333","long":"-73.4666667"}},{"country":"ht","city":"Abricot","coordinates":{"lat":"19.15","long":"-71.7833333"}},{"country":"ht","city":"Abricot","coordinates":{"lat":"18.85","long":"-73.0166667"}},{"country":"ht","city":"Abricot","coordinates":{"lat":"18.2833333","long":"-72.6833333"}},{"country":"ht","city":"Abricots","coordinates":{"lat":"18.5","long":"-73.7833333"}},{"country":"ht","city":"Abrio","coordinates":{"lat":"19.0666667","long":"-72.1166667"}},{"country":"ht","city":"Acabouille","coordinates":{"lat":"19.4","long":"-72.1833333"}},{"country":"ht","city":"Acacia","coordinates":{"lat":"19.3666667","long":"-72.1333333"}},{"country":"ht","city":"Acajou","coordinates":{"lat":"19.5333333","long":"-71.7166667"}},{"country":"ht","city":"Acelin","coordinates":{"lat":"18.6166667","long":"-74.4"}},{"country":"ht","city":"Achien","coordinates":{"lat":"19.05","long":"-72.4666667"}},{"country":"ht","city":"Achille","coordinates":{"lat":"18.2833333","long":"-73.9166667"}},{"country":"ht","city":"Acul","coordinates":{"lat":"18.4166667","long":"-72.9"}},{"country":"ht","city":"Acul Basse Terre","coordinates":{"lat":"19.2166667","long":"-72.6"}},{"country":"ht","city":"Acul Connu","coordinates":{"lat":"19.5333333","long":"-72.0666667"}},{"country":"ht","city":"Acul des Pins","coordinates":{"lat":"19.5","long":"-71.8"}},{"country":"ht","city":"Acul des Savannes","coordinates":{"lat":"18.4666667","long":"-73.4333333"}},{"country":"ht","city":"Acul Dipson","coordinates":{"lat":"19.2166667","long":"-72.6"}},{"country":"ht","city":"Acul du Nord","coordinates":{"lat":"19.6833333","long":"-72.3166667"}},{"country":"ht","city":"Acul Samedi","coordinates":{"lat":"19.5166667","long":"-71.8833333"}},{"country":"ht","city":"Adam","coordinates":{"lat":"18.2333333","long":"-73.7166667"}},{"country":"ht","city":"Adelin","coordinates":{"lat":"19.8138889","long":"-73.1569444"}},{"country":"ht","city":"Adieu au Monde","coordinates":{"lat":"18.2333333","long":"-72.2166667"}},{"country":"ht","city":"Adino","coordinates":{"lat":"19.5666667","long":"-72.7"}},{"country":"ht","city":"Adiomoune","coordinates":{"lat":"18.2333333","long":"-72.2166667"}},{"country":"ht","city":"Adjoux","coordinates":{"lat":"19.2666667","long":"-72.6"}},{"country":"ht","city":"Adonis","coordinates":{"lat":"18.3","long":"-73.1666667"}},{"country":"ht","city":"Agar","coordinates":{"lat":"18.2333333","long":"-73.7666667"}},{"country":"ht","city":"Agard","coordinates":{"lat":"18.2333333","long":"-73.7666667"}},{"country":"ht","city":"Agathe","coordinates":{"lat":"20.0166667","long":"-72.7333333"}},{"country":"ht","city":"Aguahedionde","coordinates":{"lat":"19.1333333","long":"-71.9"}},{"country":"ht","city":"Aguamite","coordinates":{"lat":"19.3","long":"-71.9"}},{"country":"ht","city":"Aidon","coordinates":{"lat":"18.3","long":"-73.3833333"}},{"country":"ht","city":"Aimable","coordinates":{"lat":"18.1666667","long":"-73.8666667"}},{"country":"ht","city":"Alantrara","coordinates":{"lat":"18.2166667","long":"-71.9166667"}},{"country":"ht","city":"Alazar","coordinates":{"lat":"19.4333333","long":"-72.2833333"}},{"country":"ht","city":"Albèrie","coordinates":{"lat":"18.5044444","long":"-73.8869444"}},{"country":"ht","city":"Albert Derina","coordinates":{"lat":"19.2833333","long":"-71.7833333"}},{"country":"ht","city":"Albery","coordinates":{"lat":"18.5044444","long":"-73.8869444"}},{"country":"ht","city":"Alegre","coordinates":{"lat":"18.3333333","long":"-73.2833333"}},{"country":"ht","city":"Aleman","coordinates":{"lat":"18.3666667","long":"-72.95"}},{"country":"ht","city":"Alhadère","coordinates":{"lat":"19.35","long":"-72.4"}},{"country":"ht","city":"Ali","coordinates":{"lat":"19.4833333","long":"-71.7666667"}},{"country":"ht","city":"Allaïe","coordinates":{"lat":"19.0166667","long":"-72.4166667"}},{"country":"ht","city":"Alma","coordinates":{"lat":"18.7833333","long":"-72.8666667"}},{"country":"ht","city":"Almaçenes","coordinates":{"lat":"19.9036111","long":"-73.1961111"}},{"country":"ht","city":"Almagenes","coordinates":{"lat":"19.9036111","long":"-73.1961111"}},{"country":"ht","city":"Almerac","coordinates":{"lat":"19.5833333","long":"-72.5833333"}},{"country":"ht","city":"Altary","coordinates":{"lat":"19.1","long":"-72.3833333"}},{"country":"ht","city":"Altian","coordinates":{"lat":"18.2833333","long":"-73.5333333"}},{"country":"ht","city":"Amandier","coordinates":{"lat":"19.5833333","long":"-72.35"}},{"country":"ht","city":"Ambroise","coordinates":{"lat":"18.8","long":"-72.1833333"}},{"country":"ht","city":"Amerry","coordinates":{"lat":"18.9166667","long":"-72.4666667"}},{"country":"ht","city":"Amuscat","coordinates":{"lat":"19.7","long":"-72.7"}},{"country":"ht","city":"Anacius","coordinates":{"lat":"19.6833333","long":"-73.2166667"}},{"country":"ht","city":"Anadère","coordinates":{"lat":"18.3333333","long":"-73.8"}},{"country":"ht","city":"Anadi","coordinates":{"lat":"19.55","long":"-72.2333333"}},{"country":"ht","city":"Anais","coordinates":{"lat":"18.55","long":"-74.3"}},{"country":"ht","city":"Ananas","coordinates":{"lat":"19.2333333","long":"-72.3333333"}},{"country":"ht","city":"Ananas","coordinates":{"lat":"18.95","long":"-71.9333333"}},{"country":"ht","city":"Ancelin","coordinates":{"lat":"19.6666667","long":"-72.25"}},{"country":"ht","city":"Ancelin","coordinates":{"lat":"19.5166667","long":"-72.0"}},{"country":"ht","city":"André","coordinates":{"lat":"19.5333333","long":"-72.6"}},{"country":"ht","city":"André","coordinates":{"lat":"18.9358333","long":"-72.5602778"}},{"country":"ht","city":"André Libre","coordinates":{"lat":"18.4666667","long":"-72.2333333"}},{"country":"ht","city":"Andremise","coordinates":{"lat":"19.7","long":"-73.4"}},{"country":"ht","city":"Andro","coordinates":{"lat":"18.9358333","long":"-72.5602778"}},{"country":"ht","city":"Ange","coordinates":{"lat":"19.05","long":"-72.5166667"}},{"country":"ht","city":"Anger","coordinates":{"lat":"19.05","long":"-72.5166667"}},{"country":"ht","city":"Angibeau","coordinates":{"lat":"18.5030556","long":"-72.4252778"}},{"country":"ht","city":"Anglade","coordinates":{"lat":"18.25","long":"-73.5333333"}},{"country":"ht","city":"Anglais","coordinates":{"lat":"18.3333333","long":"-74.1666667"}},{"country":"ht","city":"Angot","coordinates":{"lat":"19.6666667","long":"-71.8"}},{"country":"ht","city":"Anne","coordinates":{"lat":"18.2708333","long":"-72.3688889"}},{"country":"ht","city":"Anneau","coordinates":{"lat":"18.9","long":"-72.3"}},{"country":"ht","city":"Anneau","coordinates":{"lat":"19.0333333","long":"-72.2"}},{"country":"ht","city":"Annette","coordinates":{"lat":"18.4333333","long":"-74.0666667"}},{"country":"ht","city":"Annivain","coordinates":{"lat":"19.4666667","long":"-72.5333333"}},{"country":"ht","city":"Annivert","coordinates":{"lat":"19.4666667","long":"-72.5333333"}},{"country":"ht","city":"Anoter","coordinates":{"lat":"18.5833333","long":"-74.25"}},{"country":"ht","city":"Anse à Chat","coordinates":{"lat":"19.6166667","long":"-73.35"}},{"country":"ht","city":"Anse à Cochon","coordinates":{"lat":"18.6666667","long":"-74.15"}},{"country":"ht","city":"Anse à Cochon","coordinates":{"lat":"18.15","long":"-71.8666667"}},{"country":"ht","city":"Anse à Cochons","coordinates":{"lat":"18.15","long":"-71.8666667"}},{"country":"ht","city":"Anse à Foleur","coordinates":{"lat":"19.9","long":"-72.6166667"}},{"country":"ht","city":"Anse-à-Foleur","coordinates":{"lat":"19.9","long":"-72.6166667"}},{"country":"ht","city":"Anse à Galet","coordinates":{"lat":"18.8316667","long":"-72.8641667"}},{"country":"ht","city":"Anse à Galets","coordinates":{"lat":"18.8316667","long":"-72.8641667"}},{"country":"ht","city":"Anse à Joseph","coordinates":{"lat":"19.6333333","long":"-73.2833333"}},{"country":"ht","city":"Anse a Louis","coordinates":{"lat":"18.2166667","long":"-74.05"}},{"country":"ht","city":"Anse à Maçon","coordinates":{"lat":"18.5833333","long":"-73.7333333"}},{"country":"ht","city":"Anse-à-Pitre","coordinates":{"lat":"18.05","long":"-71.75"}},{"country":"ht","city":"Anse-à-Pitres","coordinates":{"lat":"18.05","long":"-71.75"}},{"country":"ht","city":"Anse à Proux","coordinates":{"lat":"18.5166667","long":"-74.4166667"}},{"country":"ht","city":"Anse-à-Veau","coordinates":{"lat":"18.5166667","long":"-73.35"}},{"country":"ht","city":"Anse Canot","coordinates":{"lat":"18.0666667","long":"-73.6"}},{"country":"ht","city":"Anse d'Azur","coordinates":{"lat":"18.6666667","long":"-74.15"}},{"country":"ht","city":"Anse d'Hainault","coordinates":{"lat":"18.5","long":"-74.45"}},{"country":"ht","city":"Anse du Clerc","coordinates":{"lat":"18.65","long":"-74.2833333"}},{"country":"ht","city":"Anse du Nord","coordinates":{"lat":"18.6666667","long":"-73.7666667"}},{"country":"ht","city":"Anse Galets","coordinates":{"lat":"18.8316667","long":"-72.8641667"}},{"country":"ht","city":"Anse Joseph","coordinates":{"lat":"18.6333333","long":"-74.35"}},{"country":"ht","city":"Anselin","coordinates":{"lat":"19.6666667","long":"-72.25"}},{"country":"ht","city":"Anse Louis","coordinates":{"lat":"18.2166667","long":"-74.05"}},{"country":"ht","city":"Anse Mapay","coordinates":{"lat":"18.3833333","long":"-74.4"}},{"country":"ht","city":"Anse Pirogue","coordinates":{"lat":"19.0352778","long":"-72.8136111"}},{"country":"ht","city":"Anse Pitres","coordinates":{"lat":"18.05","long":"-71.75"}},{"country":"ht","city":"Anse Robert","coordinates":{"lat":"19.6333333","long":"-73.3833333"}},{"country":"ht","city":"Anse Rouge","coordinates":{"lat":"19.6333333","long":"-73.05"}},{"country":"ht","city":"Anses à Pitre","coordinates":{"lat":"18.05","long":"-71.75"}},{"country":"ht","city":"Anses-a-Pîtres","coordinates":{"lat":"18.05","long":"-71.75"}},{"country":"ht","city":"Antage","coordinates":{"lat":"19.7666667","long":"-72.3666667"}},{"country":"ht","city":"Antoine","coordinates":{"lat":"18.1263889","long":"-73.9011111"}},{"country":"ht","city":"Anuscat","coordinates":{"lat":"19.7","long":"-72.7"}},{"country":"ht","city":"Apollon","coordinates":{"lat":"19.7166667","long":"-72.7"}},{"country":"ht","city":"Appolion","coordinates":{"lat":"19.2833333","long":"-71.95"}},{"country":"ht","city":"Aquier","coordinates":{"lat":"18.4","long":"-73.8"}},{"country":"ht","city":"Aquin","coordinates":{"lat":"18.2833333","long":"-73.4"}},{"country":"ht","city":"Arboite","coordinates":{"lat":"18.2666667","long":"-72.6833333"}},{"country":"ht","city":"Arcachon","coordinates":{"lat":"18.5333333","long":"-72.4"}},{"country":"ht","city":"Arcadien","coordinates":{"lat":"19.85","long":"-73.2666667"}},{"country":"ht","city":"Arcahaie","coordinates":{"lat":"19.8166667","long":"-72.9166667"}},{"country":"ht","city":"Arcahaie","coordinates":{"lat":"18.7694444","long":"-72.5125"}},{"country":"ht","city":"Archaie","coordinates":{"lat":"18.7694444","long":"-72.5125"}},{"country":"ht","city":"Archin","coordinates":{"lat":"18.9833333","long":"-72.5833333"}},{"country":"ht","city":"Areguy","coordinates":{"lat":"18.3066667","long":"-72.5566667"}},{"country":"ht","city":"Arena","coordinates":{"lat":"19.7333333","long":"-72.6333333"}},{"country":"ht","city":"Argan","coordinates":{"lat":"18.4","long":"-73.6"}},{"country":"ht","city":"Argent","coordinates":{"lat":"18.3333333","long":"-74.2166667"}},{"country":"ht","city":"Aria","coordinates":{"lat":"19.7333333","long":"-72.4166667"}},{"country":"ht","city":"Aricourt","coordinates":{"lat":"19.6166667","long":"-72.05"}},{"country":"ht","city":"Armand","coordinates":{"lat":"19.55","long":"-72.3666667"}},{"country":"ht","city":"Arnaud","coordinates":{"lat":"18.9913889","long":"-72.3477778"}},{"country":"ht","city":"Arnaud","coordinates":{"lat":"18.45","long":"-73.3833333"}},{"country":"ht","city":"Arnauld","coordinates":{"lat":"18.9166667","long":"-72.3"}},{"country":"ht","city":"Arniquet","coordinates":{"lat":"18.1166667","long":"-73.9166667"}},{"country":"ht","city":"Arnold","coordinates":{"lat":"18.4","long":"-72.45"}},{"country":"ht","city":"Arnoux","coordinates":{"lat":"18.4","long":"-73.0166667"}},{"country":"ht","city":"Artaud","coordinates":{"lat":"19.65","long":"-71.75"}},{"country":"ht","city":"Asile","coordinates":{"lat":"18.3833333","long":"-73.4166667"}},{"country":"ht","city":"Astraile","coordinates":{"lat":"19.8311111","long":"-73.0772222"}},{"country":"ht","city":"Astrie","coordinates":{"lat":"18.3666667","long":"-73.3666667"}},{"country":"ht","city":"Atelcoup","coordinates":{"lat":"19.0","long":"-71.8166667"}},{"country":"ht","city":"Atraile","coordinates":{"lat":"19.7352778","long":"-73.0102778"}},{"country":"ht","city":"Atrelle","coordinates":{"lat":"19.7333333","long":"-73.0666667"}},{"country":"ht","city":"Attis","coordinates":{"lat":"18.3166667","long":"-73.4166667"}},{"country":"ht","city":"Aubain","coordinates":{"lat":"18.35","long":"-73.5833333"}},{"country":"ht","city":"Au Bas","coordinates":{"lat":"18.5833333","long":"-73.7"}},{"country":"ht","city":"Aubeque","coordinates":{"lat":"19.65","long":"-72.8666667"}},{"country":"ht","city":"Aubert","coordinates":{"lat":"19.9166667","long":"-72.8333333"}},{"country":"ht","city":"Au Bery","coordinates":{"lat":"18.4833333","long":"-72.3833333"}},{"country":"ht","city":"Aubile","coordinates":{"lat":"19.4333333","long":"-71.95"}},{"country":"ht","city":"Aubin","coordinates":{"lat":"18.3","long":"-74.1166667"}},{"country":"ht","city":"Aubry","coordinates":{"lat":"18.5463889","long":"-72.5891667"}},{"country":"ht","city":"Au Cadet","coordinates":{"lat":"18.4666667","long":"-72.25"}},{"country":"ht","city":"Au Centre","coordinates":{"lat":"18.45","long":"-73.9666667"}},{"country":"ht","city":"Au Codot","coordinates":{"lat":"18.4333333","long":"-72.0166667"}},{"country":"ht","city":"Audate","coordinates":{"lat":"19.6166667","long":"-72.4166667"}},{"country":"ht","city":"Auditon","coordinates":{"lat":"18.9175","long":"-72.6216667"}},{"country":"ht","city":"Audouin","coordinates":{"lat":"19.8833333","long":"-72.8333333"}},{"country":"ht","city":"Au Fouk","coordinates":{"lat":"18.3166667","long":"-72.9666667"}},{"country":"ht","city":"Augier","coordinates":{"lat":"18.9666667","long":"-72.7166667"}},{"country":"ht","city":"Auguste","coordinates":{"lat":"19.5666667","long":"-72.5666667"}},{"country":"ht","city":"Auguste","coordinates":{"lat":"18.7166667","long":"-72.4333333"}},{"country":"ht","city":"Auguste","coordinates":{"lat":"18.25","long":"-72.4"}},{"country":"ht","city":"Au Large","coordinates":{"lat":"18.8833333","long":"-71.85"}},{"country":"ht","city":"Aumond","coordinates":{"lat":"18.7913889","long":"-72.2177778"}},{"country":"ht","city":"Aumont","coordinates":{"lat":"18.7913889","long":"-72.2177778"}},{"country":"ht","city":"Au Parc","coordinates":{"lat":"18.7208333","long":"-72.8358333"}},{"country":"ht","city":"Au Pig","coordinates":{"lat":"18.9333333","long":"-72.1833333"}},{"country":"ht","city":"Au Saut","coordinates":{"lat":"18.4666667","long":"-73.4666667"}},{"country":"ht","city":"Au Silence","coordinates":{"lat":"18.3666667","long":"-72.35"}},{"country":"ht","city":"Au Source Nord","coordinates":{"lat":"19.3333333","long":"-72.6833333"}},{"country":"ht","city":"Au Source Sud","coordinates":{"lat":"19.3333333","long":"-72.6833333"}},{"country":"ht","city":"Austin","coordinates":{"lat":"18.8063889","long":"-72.5233333"}},{"country":"ht","city":"Au Tuf","coordinates":{"lat":"18.2808333","long":"-72.6677778"}},{"country":"ht","city":"Aux Bagues","coordinates":{"lat":"19.6833333","long":"-72.3833333"}},{"country":"ht","city":"Aux Cayes","coordinates":{"lat":"18.2","long":"-73.75"}},{"country":"ht","city":"Aux Figuiers","coordinates":{"lat":"18.4","long":"-72.25"}},{"country":"ht","city":"Aux Figuiers","coordinates":{"lat":"18.3166667","long":"-74.1666667"}},{"country":"ht","city":"Aux Fins","coordinates":{"lat":"18.4461111","long":"-73.5641667"}},{"country":"ht","city":"Aux Palmistes","coordinates":{"lat":"20.0166667","long":"-72.7333333"}},{"country":"ht","city":"Aux Palmistes","coordinates":{"lat":"18.0666667","long":"-73.6"}},{"country":"ht","city":"Aux Pièges","coordinates":{"lat":"18.65","long":"-71.8333333"}},{"country":"ht","city":"Aux Pins","coordinates":{"lat":"18.4461111","long":"-73.5641667"}},{"country":"ht","city":"Aux Plaines","coordinates":{"lat":"20.0166667","long":"-72.6666667"}},{"country":"ht","city":"Aux Plumettes","coordinates":{"lat":"18.3","long":"-71.8166667"}},{"country":"ht","city":"Aux Ravines","coordinates":{"lat":"18.05","long":"-73.85"}},{"country":"ht","city":"Avocar","coordinates":{"lat":"19.6047222","long":"-72.7838889"}},{"country":"ht","city":"Avocat","coordinates":{"lat":"19.2166667","long":"-72.3333333"}},{"country":"ht","city":"Avocats","coordinates":{"lat":"18.2666667","long":"-72.45"}},{"country":"ht","city":"Avon","coordinates":{"lat":"18.9166667","long":"-72.2666667"}},{"country":"ht","city":"Avoyée","coordinates":{"lat":"18.6833333","long":"-72.0666667"}},{"country":"ht","city":"Avril","coordinates":{"lat":"20.0166667","long":"-72.7333333"}},{"country":"ht","city":"Avril","coordinates":{"lat":"18.6333333","long":"-74.2"}},{"country":"ht","city":"Avril","coordinates":{"lat":"19.6666667","long":"-72.5666667"}},{"country":"ht","city":"Azoi","coordinates":{"lat":"18.45","long":"-74.1666667"}},{"country":"ht","city":"Azor","coordinates":{"lat":"19.2833333","long":"-72.3666667"}},{"country":"ht","city":"Azor","coordinates":{"lat":"18.7166667","long":"-71.9833333"}},{"country":"ht","city":"Babe","coordinates":{"lat":"19.1","long":"-72.6666667"}},{"country":"ht","city":"Baber","coordinates":{"lat":"19.7130556","long":"-72.2286111"}},{"country":"ht","city":"Babin","coordinates":{"lat":"18.6333333","long":"-74.2666667"}},{"country":"ht","city":"Babin","coordinates":{"lat":"19.5833333","long":"-72.5"}},{"country":"ht","city":"Babino","coordinates":{"lat":"18.5","long":"-74.3666667"}},{"country":"ht","city":"Baboquette","coordinates":{"lat":"18.6333333","long":"-73.6833333"}},{"country":"ht","city":"Babou","coordinates":{"lat":"19.05","long":"-72.3333333"}},{"country":"ht","city":"Bacannan","coordinates":{"lat":"19.5833333","long":"-72.1333333"}},{"country":"ht","city":"Bacardère d'Lom","coordinates":{"lat":"18.4575","long":"-72.9455556"}},{"country":"ht","city":"Bac à Soude","coordinates":{"lat":"19.4","long":"-72.1"}},{"country":"ht","city":"Bac Bois","coordinates":{"lat":"18.2094444","long":"-72.9880556"}},{"country":"ht","city":"Bac d'Aquin","coordinates":{"lat":"19.2333333","long":"-72.6333333"}},{"country":"ht","city":"Bachelier","coordinates":{"lat":"19.0833333","long":"-72.3333333"}},{"country":"ht","city":"Bachette","coordinates":{"lat":"19.0166667","long":"-72.65"}},{"country":"ht","city":"Bacilier","coordinates":{"lat":"18.3666667","long":"-74.15"}},{"country":"ht","city":"Bacillier","coordinates":{"lat":"18.3666667","long":"-74.15"}},{"country":"ht","city":"Baconnois","coordinates":{"lat":"18.5166667","long":"-73.4333333"}},{"country":"ht","city":"Badaud","coordinates":{"lat":"18.3833333","long":"-72.0333333"}},{"country":"ht","city":"Badeau","coordinates":{"lat":"18.3333333","long":"-72.0"}},{"country":"ht","city":"Baden","coordinates":{"lat":"19.6666667","long":"-72.7166667"}},{"country":"ht","city":"Baden","coordinates":{"lat":"18.8833333","long":"-73.2666667"}},{"country":"ht","city":"Bader","coordinates":{"lat":"18.5166667","long":"-72.3833333"}},{"country":"ht","city":"Badette","coordinates":{"lat":"18.5166667","long":"-72.4333333"}},{"country":"ht","city":"Badin","coordinates":{"lat":"19.6666667","long":"-72.3833333"}},{"country":"ht","city":"Badio","coordinates":{"lat":"18.3833333","long":"-72.3333333"}},{"country":"ht","city":"Bado","coordinates":{"lat":"19.8333333","long":"-72.5833333"}},{"country":"ht","city":"Badon Marchand","coordinates":{"lat":"19.5","long":"-72.65"}},{"country":"ht","city":"Badot","coordinates":{"lat":"19.8333333","long":"-72.5833333"}},{"country":"ht","city":"Bagro","coordinates":{"lat":"18.95","long":"-72.5166667"}},{"country":"ht","city":"Baguette","coordinates":{"lat":"19.7666667","long":"-72.9833333"}},{"country":"ht","city":"Baguette","coordinates":{"lat":"18.1933333","long":"-72.5511111"}},{"country":"ht","city":"Baguidy","coordinates":{"lat":"19.7166667","long":"-72.3666667"}},{"country":"ht","city":"Bahon","coordinates":{"lat":"18.3666667","long":"-73.2166667"}},{"country":"ht","city":"Bahon","coordinates":{"lat":"19.4666667","long":"-72.1166667"}},{"country":"ht","city":"Bahoruco","coordinates":{"lat":"18.45","long":"-73.2666667"}},{"country":"ht","city":"Baie Bouvard","coordinates":{"lat":"19.5330556","long":"-72.8166667"}},{"country":"ht","city":"Baie de Haine","coordinates":{"lat":"19.6627778","long":"-73.2094444"}},{"country":"ht","city":"Baie de Henne","coordinates":{"lat":"19.6627778","long":"-73.2094444"}},{"country":"ht","city":"Baie d'Orange","coordinates":{"lat":"18.2791667","long":"-72.2208333"}},{"country":"ht","city":"Baie du Parc","coordinates":{"lat":"18.7208333","long":"-72.8358333"}},{"country":"ht","city":"Bail","coordinates":{"lat":"19.4333333","long":"-72.1166667"}},{"country":"ht","city":"Baille","coordinates":{"lat":"18.8994444","long":"-72.3544444"}},{"country":"ht","city":"Baille","coordinates":{"lat":"18.4333333","long":"-72.8333333"}},{"country":"ht","city":"Baille Tourrible","coordinates":{"lat":"19.0166667","long":"-72.0666667"}},{"country":"ht","city":"Baillo","coordinates":{"lat":"19.4166667","long":"-72.3166667"}},{"country":"ht","city":"Bailly","coordinates":{"lat":"19.1333333","long":"-71.9833333"}},{"country":"ht","city":"Bailly","coordinates":{"lat":"19.5666667","long":"-72.3666667"}},{"country":"ht","city":"Bainet","coordinates":{"lat":"18.1847222","long":"-72.7513889"}},{"country":"ht","city":"Baiseur","coordinates":{"lat":"19.6666667","long":"-73.2"}},{"country":"ht","city":"Baja","coordinates":{"lat":"19.4666667","long":"-71.7166667"}},{"country":"ht","city":"Bajardeau","coordinates":{"lat":"19.6833333","long":"-72.4"}},{"country":"ht","city":"Bajaux","coordinates":{"lat":"18.9125","long":"-72.1961111"}},{"country":"ht","city":"Bake","coordinates":{"lat":"18.3666667","long":"-72.25"}},{"country":"ht","city":"Balai","coordinates":{"lat":"18.9","long":"-72.2666667"}},{"country":"ht","city":"Balai Rasé","coordinates":{"lat":"18.0666667","long":"-73.5833333"}},{"country":"ht","city":"Balais","coordinates":{"lat":"18.3","long":"-74.05"}},{"country":"ht","city":"Balan","coordinates":{"lat":"19.7105556","long":"-72.2083333"}},{"country":"ht","city":"Balan","coordinates":{"lat":"18.5675","long":"-72.0691667"}},{"country":"ht","city":"Balandier","coordinates":{"lat":"18.5833333","long":"-74.4"}},{"country":"ht","city":"Balandrie","coordinates":{"lat":"18.9766667","long":"-72.0927778"}},{"country":"ht","city":"Balangnin","coordinates":{"lat":"18.2833333","long":"-73.1166667"}},{"country":"ht","city":"Balanier","coordinates":{"lat":"19.2833333","long":"-71.9333333"}},{"country":"ht","city":"Balantier","coordinates":{"lat":"19.9166667","long":"-72.7"}},{"country":"ht","city":"Balatier","coordinates":{"lat":"19.8666667","long":"-72.7333333"}},{"country":"ht","city":"Balbas","coordinates":{"lat":"18.5833333","long":"-72.1833333"}},{"country":"ht","city":"Baliane","coordinates":{"lat":"18.3166667","long":"-72.9833333"}},{"country":"ht","city":"Baliares","coordinates":{"lat":"19.3166667","long":"-72.1333333"}},{"country":"ht","city":"Balice","coordinates":{"lat":"18.0316667","long":"-73.8608333"}},{"country":"ht","city":"Balifoudray","coordinates":{"lat":"19.15","long":"-72.6333333"}},{"country":"ht","city":"Balisaille","coordinates":{"lat":"18.4841667","long":"-72.05"}},{"country":"ht","city":"Balissage","coordinates":{"lat":"19.3666667","long":"-71.9"}},{"country":"ht","city":"Balix","coordinates":{"lat":"18.05","long":"-73.85"}},{"country":"ht","city":"Balizier","coordinates":{"lat":"18.65","long":"-74.2833333"}},{"country":"ht","city":"Ballade","coordinates":{"lat":"19.8833333","long":"-72.8166667"}},{"country":"ht","city":"Balladere","coordinates":{"lat":"18.8669444","long":"-71.7630556"}},{"country":"ht","city":"Balliote","coordinates":{"lat":"19.4166667","long":"-71.7166667"}},{"country":"ht","city":"Balliotte","coordinates":{"lat":"19.4166667","long":"-71.7"}},{"country":"ht","city":"Ballis","coordinates":{"lat":"18.0316667","long":"-73.8608333"}},{"country":"ht","city":"Ballon","coordinates":{"lat":"19.6833333","long":"-72.5666667"}},{"country":"ht","city":"Balotte","coordinates":{"lat":"19.5","long":"-72.4166667"}},{"country":"ht","city":"Balou","coordinates":{"lat":"18.3833333","long":"-73.55"}},{"country":"ht","city":"Baltazar","coordinates":{"lat":"19.25","long":"-71.8333333"}},{"country":"ht","city":"Balthazar","coordinates":{"lat":"19.25","long":"-71.8333333"}},{"country":"ht","city":"Balthazar","coordinates":{"lat":"18.4166667","long":"-73.4333333"}},{"country":"ht","city":"Bambi","coordinates":{"lat":"19.6333333","long":"-72.55"}},{"country":"ht","city":"Bambou","coordinates":{"lat":"19.75","long":"-72.85"}},{"country":"ht","city":"Bambou","coordinates":{"lat":"19.05","long":"-72.3333333"}},{"country":"ht","city":"Bambou","coordinates":{"lat":"18.5333333","long":"-74.1833333"}},{"country":"ht","city":"Bambou","coordinates":{"lat":"18.2166667","long":"-73.7666667"}},{"country":"ht","city":"Bambou","coordinates":{"lat":"18.2333333","long":"-72.8166667"}},{"country":"ht","city":"Bambou la Selle","coordinates":{"lat":"19.8833333","long":"-72.9166667"}},{"country":"ht","city":"Bambou Ligros","coordinates":{"lat":"19.8666667","long":"-72.6"}},{"country":"ht","city":"Bambou Rigaud","coordinates":{"lat":"19.15","long":"-72.4333333"}},{"country":"ht","city":"Bamby","coordinates":{"lat":"18.4","long":"-73.0"}},{"country":"ht","city":"Banane","coordinates":{"lat":"18.15","long":"-71.7666667"}},{"country":"ht","city":"Bananier","coordinates":{"lat":"19.8091667","long":"-73.02"}},{"country":"ht","city":"Bananier","coordinates":{"lat":"18.4333333","long":"-74.4166667"}},{"country":"ht","city":"Bananier Colas","coordinates":{"lat":"19.8666667","long":"-72.9333333"}},{"country":"ht","city":"Bananne","coordinates":{"lat":"18.15","long":"-71.7666667"}},{"country":"ht","city":"Banard","coordinates":{"lat":"18.45","long":"-72.5833333"}},{"country":"ht","city":"Bangouinyote","coordinates":{"lat":"19.7616667","long":"-73.0330556"}},{"country":"ht","city":"Bangoule","coordinates":{"lat":"18.8333333","long":"-71.9833333"}},{"country":"ht","city":"Banique","coordinates":{"lat":"19.0833333","long":"-72.7"}},{"country":"ht","city":"Banlieu","coordinates":{"lat":"18.3833333","long":"-73.4166667"}},{"country":"ht","city":"Banne Roche","coordinates":{"lat":"18.2941667","long":"-72.7133333"}},{"country":"ht","city":"Banos","coordinates":{"lat":"18.9466667","long":"-72.3425"}},{"country":"ht","city":"Baptiste","coordinates":{"lat":"19.4333333","long":"-72.3166667"}},{"country":"ht","city":"Baptiste","coordinates":{"lat":"18.7980556","long":"-71.7836111"}},{"country":"ht","city":"Baptiste","coordinates":{"lat":"18.3666667","long":"-73.3166667"}},{"country":"ht","city":"Baptiste","coordinates":{"lat":"19.45","long":"-71.75"}},{"country":"ht","city":"Baptiste","coordinates":{"lat":"18.7166667","long":"-71.9833333"}},{"country":"ht","city":"Baptiste","coordinates":{"lat":"18.3","long":"-73.2833333"}},{"country":"ht","city":"Baptiste","coordinates":{"lat":"18.1833333","long":"-72.7666667"}},{"country":"ht","city":"Baptiste Boyer","coordinates":{"lat":"18.3166667","long":"-72.5333333"}},{"country":"ht","city":"Baque","coordinates":{"lat":"18.3666667","long":"-72.25"}},{"country":"ht","city":"Baquet","coordinates":{"lat":"18.4166667","long":"-73.3333333"}},{"country":"ht","city":"Barada","coordinates":{"lat":"19.4833333","long":"-72.3666667"}},{"country":"ht","city":"Baradaires","coordinates":{"lat":"18.4825","long":"-73.6386111"}},{"country":"ht","city":"Barade","coordinates":{"lat":"19.35","long":"-72.4833333"}},{"country":"ht","city":"Barade","coordinates":{"lat":"19.5833333","long":"-72.3833333"}},{"country":"ht","city":"Baradères","coordinates":{"lat":"18.4825","long":"-73.6386111"}},{"country":"ht","city":"Barado","coordinates":{"lat":"18.4166667","long":"-72.0666667"}},{"country":"ht","city":"Barage","coordinates":{"lat":"19.2","long":"-72.5166667"}},{"country":"ht","city":"Baranque","coordinates":{"lat":"18.8","long":"-71.7666667"}},{"country":"ht","city":"Baraque","coordinates":{"lat":"19.0333333","long":"-72.0333333"}},{"country":"ht","city":"Barasa","coordinates":{"lat":"18.6833333","long":"-71.9833333"}},{"country":"ht","city":"Barassa","coordinates":{"lat":"18.6333333","long":"-72.0"}},{"country":"ht","city":"Barassart","coordinates":{"lat":"18.3333333","long":"-72.1333333"}},{"country":"ht","city":"Barateau","coordinates":{"lat":"19.6833333","long":"-72.7666667"}},{"country":"ht","city":"Barbanc","coordinates":{"lat":"18.8333333","long":"-72.5333333"}},{"country":"ht","city":"Barbancourt","coordinates":{"lat":"18.8333333","long":"-72.5333333"}},{"country":"ht","city":"Barbeau","coordinates":{"lat":"18.2833333","long":"-72.8666667"}},{"country":"ht","city":"Barbe","coordinates":{"lat":"19.0","long":"-72.55"}},{"country":"ht","city":"Barbe","coordinates":{"lat":"18.4333333","long":"-72.3833333"}},{"country":"ht","city":"Barbe Pangnol","coordinates":{"lat":"19.8122222","long":"-73.0866667"}},{"country":"ht","city":"Barbe Pangnol","coordinates":{"lat":"18.1","long":"-71.7666667"}},{"country":"ht","city":"Barbes Espagnol","coordinates":{"lat":"19.8438889","long":"-73.07"}},{"country":"ht","city":"Barbin","coordinates":{"lat":"18.8333333","long":"-72.2666667"}},{"country":"ht","city":"Barbois","coordinates":{"lat":"18.1041667","long":"-73.8913889"}},{"country":"ht","city":"Barbot","coordinates":{"lat":"18.4666667","long":"-72.55"}},{"country":"ht","city":"Barcadère","coordinates":{"lat":"19.5891667","long":"-72.9675"}},{"country":"ht","city":"Barcadère","coordinates":{"lat":"18.2166667","long":"-73.7166667"}},{"country":"ht","city":"Barcadère Trompe","coordinates":{"lat":"19.5333333","long":"-72.85"}},{"country":"ht","city":"Bareau","coordinates":{"lat":"18.2341667","long":"-72.7275"}},{"country":"ht","city":"Barestyl","coordinates":{"lat":"19.2666667","long":"-71.8666667"}},{"country":"ht","city":"Baret","coordinates":{"lat":"18.4166667","long":"-72.9166667"}},{"country":"ht","city":"Baria","coordinates":{"lat":"19.25","long":"-72.5"}},{"country":"ht","city":"Bariadele","coordinates":{"lat":"18.5166667","long":"-74.45"}},{"country":"ht","city":"Bariadeles","coordinates":{"lat":"18.5166667","long":"-74.45"}},{"country":"ht","city":"Bariadelle","coordinates":{"lat":"18.5166667","long":"-74.45"}},{"country":"ht","city":"Baribou","coordinates":{"lat":"18.5166667","long":"-72.2166667"}},{"country":"ht","city":"Barnard","coordinates":{"lat":"18.5833333","long":"-73.8166667"}},{"country":"ht","city":"Barnate","coordinates":{"lat":"18.3166667","long":"-73.8166667"}},{"country":"ht","city":"Barois","coordinates":{"lat":"18.2666667","long":"-71.9333333"}},{"country":"ht","city":"Baron","coordinates":{"lat":"19.2333333","long":"-72.2333333"}},{"country":"ht","city":"Baroncy","coordinates":{"lat":"19.35","long":"-72.0666667"}},{"country":"ht","city":"Baroney","coordinates":{"lat":"19.35","long":"-72.0666667"}},{"country":"ht","city":"Barony","coordinates":{"lat":"19.7113889","long":"-72.1261111"}},{"country":"ht","city":"Barot","coordinates":{"lat":"18.7333333","long":"-72.1"}},{"country":"ht","city":"Barque","coordinates":{"lat":"19.8","long":"-72.4666667"}},{"country":"ht","city":"Barque Borgne","coordinates":{"lat":"19.8166667","long":"-72.5"}},{"country":"ht","city":"Barrade","coordinates":{"lat":"19.3833333","long":"-72.5"}},{"country":"ht","city":"Barrage","coordinates":{"lat":"18.4333333","long":"-72.8833333"}},{"country":"ht","city":"Barranque","coordinates":{"lat":"19.0166667","long":"-71.8666667"}},{"country":"ht","city":"Barrasa","coordinates":{"lat":"18.6833333","long":"-71.9833333"}},{"country":"ht","city":"Barreau","coordinates":{"lat":"18.4833333","long":"-73.4"}},{"country":"ht","city":"Barreau","coordinates":{"lat":"18.85","long":"-72.4166667"}},{"country":"ht","city":"Barreau","coordinates":{"lat":"18.2333333","long":"-72.7666667"}},{"country":"ht","city":"Barre BÅuf","coordinates":{"lat":"19.8333333","long":"-72.5"}},{"country":"ht","city":"Barre de Henne","coordinates":{"lat":"19.75","long":"-72.35"}},{"country":"ht","city":"Barrère","coordinates":{"lat":"18.3833333","long":"-72.5"}},{"country":"ht","city":"Barret","coordinates":{"lat":"18.35","long":"-72.3666667"}},{"country":"ht","city":"Barrière André","coordinates":{"lat":"18.1863889","long":"-72.6794444"}},{"country":"ht","city":"Barrière","coordinates":{"lat":"18.3666667","long":"-72.2166667"}},{"country":"ht","city":"Barrière Batin","coordinates":{"lat":"18.4166667","long":"-72.6166667"}},{"country":"ht","city":"Barrière Battant","coordinates":{"lat":"19.7","long":"-72.65"}},{"country":"ht","city":"Barrière Battant","coordinates":{"lat":"19.6166667","long":"-72.2"}},{"country":"ht","city":"Barrière Battant","coordinates":{"lat":"18.4","long":"-72.9666667"}},{"country":"ht","city":"Barrière Blanche","coordinates":{"lat":"19.7","long":"-72.3166667"}},{"country":"ht","city":"Barrière Bouteille","coordinates":{"lat":"19.75","long":"-72.2130556"}},{"country":"ht","city":"Barrière Fer","coordinates":{"lat":"18.6","long":"-72.3166667"}},{"country":"ht","city":"Barrière Gaule","coordinates":{"lat":"18.85","long":"-71.9666667"}},{"country":"ht","city":"Barrière Jeudi","coordinates":{"lat":"18.4333333","long":"-72.6333333"}},{"country":"ht","city":"Barrière Jeudy","coordinates":{"lat":"18.4333333","long":"-72.6333333"}},{"country":"ht","city":"Barrière Roche","coordinates":{"lat":"18.3833333","long":"-72.3833333"}},{"country":"ht","city":"Barrière Rouge","coordinates":{"lat":"19.8666667","long":"-72.6166667"}},{"country":"ht","city":"Barrois","coordinates":{"lat":"19.5166667","long":"-72.1"}},{"country":"ht","city":"Barthauld","coordinates":{"lat":"18.3333333","long":"-74.1"}},{"country":"ht","city":"Barthelemy","coordinates":{"lat":"18.1666667","long":"-73.8833333"}},{"country":"ht","city":"Barthoid","coordinates":{"lat":"18.3166667","long":"-73.45"}},{"country":"ht","city":"Basan","coordinates":{"lat":"18.6091667","long":"-72.3263889"}},{"country":"ht","city":"Basane","coordinates":{"lat":"19.05","long":"-72.35"}},{"country":"ht","city":"Bas Bessin","coordinates":{"lat":"18.4133333","long":"-73.675"}},{"country":"ht","city":"Bas Boen","coordinates":{"lat":"18.5666667","long":"-72.15"}},{"country":"ht","city":"Bas Bouc","coordinates":{"lat":"19.15","long":"-72.4333333"}},{"country":"ht","city":"Bas Canal","coordinates":{"lat":"19.7166667","long":"-72.1333333"}},{"country":"ht","city":"Bas Chauta","coordinates":{"lat":"18.3111111","long":"-72.2947222"}},{"country":"ht","city":"Bas Cimetière","coordinates":{"lat":"19.5833333","long":"-72.45"}},{"country":"ht","city":"Bas Conte","coordinates":{"lat":"19.1666667","long":"-72.35"}},{"country":"ht","city":"Bas de Sainte-Anne","coordinates":{"lat":"19.8166667","long":"-72.65"}},{"country":"ht","city":"Bas de Sault","coordinates":{"lat":"19.45","long":"-72.3166667"}},{"country":"ht","city":"Bas de Saut","coordinates":{"lat":"19.45","long":"-72.3166667"}},{"country":"ht","city":"Bas des Nègres","coordinates":{"lat":"19.6333333","long":"-73.3333333"}},{"country":"ht","city":"Bas Duble","coordinates":{"lat":"18.3666667","long":"-72.5666667"}},{"country":"ht","city":"Bas Dufort","coordinates":{"lat":"18.2666667","long":"-73.5666667"}},{"country":"ht","city":"Bas du Four","coordinates":{"lat":"19.75","long":"-72.3333333"}},{"country":"ht","city":"Bas du Saut","coordinates":{"lat":"19.45","long":"-72.3166667"}},{"country":"ht","city":"Bas Fond Caracol","coordinates":{"lat":"19.55","long":"-72.1166667"}},{"country":"ht","city":"Bas Fourrien","coordinates":{"lat":"19.0333333","long":"-72.25"}},{"country":"ht","city":"Bas Gaudou","coordinates":{"lat":"18.2666667","long":"-72.7833333"}},{"country":"ht","city":"Bas Gougeon","coordinates":{"lat":"18.4166667","long":"-72.4333333"}},{"country":"ht","city":"Basie","coordinates":{"lat":"18.4333333","long":"-74.4666667"}},{"country":"ht","city":"Basil","coordinates":{"lat":"19.4166667","long":"-72.4666667"}},{"country":"ht","city":"Bas Jacob","coordinates":{"lat":"19.1666667","long":"-71.9333333"}},{"country":"ht","city":"Bas Laleau","coordinates":{"lat":"18.4","long":"-72.0"}},{"country":"ht","city":"Bas La Serre","coordinates":{"lat":"18.2833333","long":"-72.1833333"}},{"country":"ht","city":"Bas La Source","coordinates":{"lat":"19.7166667","long":"-72.8166667"}},{"country":"ht","city":"Bas Lavoute","coordinates":{"lat":"18.3161111","long":"-72.5266667"}},{"country":"ht","city":"Bas la Voute","coordinates":{"lat":"18.3322222","long":"-72.4752778"}},{"country":"ht","city":"Bas Limbé","coordinates":{"lat":"19.8","long":"-72.3833333"}},{"country":"ht","city":"Bas Madame","coordinates":{"lat":"19.5166667","long":"-72.3666667"}},{"country":"ht","city":"Bas Madeleine","coordinates":{"lat":"19.4833333","long":"-71.9"}},{"country":"ht","city":"Bas Mahotière","coordinates":{"lat":"19.7833333","long":"-72.9666667"}},{"country":"ht","city":"Bas Matel","coordinates":{"lat":"18.4166667","long":"-72.6166667"}},{"country":"ht","city":"Bas Peroux","coordinates":{"lat":"19.5833333","long":"-72.7"}},{"country":"ht","city":"Bas Petavie","coordinates":{"lat":"18.2333333","long":"-72.35"}},{"country":"ht","city":"Bas Pinal","coordinates":{"lat":"19.3666667","long":"-72.1"}},{"country":"ht","city":"Basquet","coordinates":{"lat":"18.2833333","long":"-72.55"}},{"country":"ht","city":"Bas Sainte Anne","coordinates":{"lat":"19.8166667","long":"-72.65"}},{"country":"ht","city":"Bassainthe","coordinates":{"lat":"19.7","long":"-72.5666667"}},{"country":"ht","city":"Bassan","coordinates":{"lat":"18.6091667","long":"-72.3263889"}},{"country":"ht","city":"Basse","coordinates":{"lat":"18.8166667","long":"-71.8166667"}},{"country":"ht","city":"Basse","coordinates":{"lat":"18.2455556","long":"-72.7319444"}},{"country":"ht","city":"Basse Bleu","coordinates":{"lat":"19.7833333","long":"-73.1333333"}},{"country":"ht","city":"Basse Matador","coordinates":{"lat":"18.45","long":"-74.3833333"}},{"country":"ht","city":"Basse Mory","coordinates":{"lat":"18.9830556","long":"-72.3738889"}},{"country":"ht","city":"Basse Terre","coordinates":{"lat":"20.0","long":"-72.7166667"}},{"country":"ht","city":"Basse Terre","coordinates":{"lat":"19.2166667","long":"-72.6"}},{"country":"ht","city":"Basse Terre","coordinates":{"lat":"18.2833333","long":"-73.3166667"}},{"country":"ht","city":"Basse Thomonde","coordinates":{"lat":"19.0166667","long":"-71.9333333"}},{"country":"ht","city":"Bassin","coordinates":{"lat":"19.8","long":"-72.75"}},{"country":"ht","city":"Bassin","coordinates":{"lat":"19.4833333","long":"-72.6666667"}},{"country":"ht","city":"Bassin","coordinates":{"lat":"19.3833333","long":"-72.0"}},{"country":"ht","city":"Bassin","coordinates":{"lat":"18.4","long":"-72.8666667"}},{"country":"ht","city":"Bassin","coordinates":{"lat":"18.1388889","long":"-73.8933333"}},{"country":"ht","city":"Bassin","coordinates":{"lat":"18.35","long":"-72.5166667"}},{"country":"ht","city":"Bassin BÅuf","coordinates":{"lat":"18.4302778","long":"-72.5708333"}},{"country":"ht","city":"Bassin Bleu","coordinates":{"lat":"19.7833333","long":"-72.8"}},{"country":"ht","city":"Bassin Bleu","coordinates":{"lat":"18.3666667","long":"-73.1166667"}},{"country":"ht","city":"Bassin Bleu","coordinates":{"lat":"18.2352778","long":"-72.5986111"}},{"country":"ht","city":"Bassin Caïman","coordinates":{"lat":"18.2833333","long":"-73.1833333"}},{"country":"ht","city":"Bassin Caïman","coordinates":{"lat":"18.2536111","long":"-72.5358333"}},{"country":"ht","city":"Bassin Caimann","coordinates":{"lat":"18.2536111","long":"-72.5358333"}},{"country":"ht","city":"Bassin Cannotte","coordinates":{"lat":"19.7666667","long":"-72.8333333"}},{"country":"ht","city":"Bassin Cheval","coordinates":{"lat":"20.0666667","long":"-72.8833333"}},{"country":"ht","city":"Bassin Cheval","coordinates":{"lat":"19.35","long":"-72.25"}},{"country":"ht","city":"Bassin Cheval","coordinates":{"lat":"19.3333333","long":"-72.2"}},{"country":"ht","city":"Bassin Chevel","coordinates":{"lat":"20.0666667","long":"-72.8833333"}},{"country":"ht","city":"Bassin Citron","coordinates":{"lat":"19.6666667","long":"-72.8833333"}},{"country":"ht","city":"Bassin Coco","coordinates":{"lat":"19.1833333","long":"-71.8"}},{"country":"ht","city":"Bassin Dessources","coordinates":{"lat":"19.4333333","long":"-72.6166667"}},{"country":"ht","city":"Bassin Laurent","coordinates":{"lat":"19.3666667","long":"-72.2833333"}},{"country":"ht","city":"Bassin Laurent","coordinates":{"lat":"19.6166667","long":"-72.4666667"}},{"country":"ht","city":"Bassin Long","coordinates":{"lat":"19.6666667","long":"-73.15"}},{"country":"ht","city":"Bassin Longue","coordinates":{"lat":"19.6936111","long":"-73.1005556"}},{"country":"ht","city":"Bassin Makanda","coordinates":{"lat":"19.45","long":"-72.1833333"}},{"country":"ht","city":"Bassin Mambo","coordinates":{"lat":"19.6166667","long":"-72.1333333"}},{"country":"ht","city":"Bassin Medor","coordinates":{"lat":"18.4333333","long":"-72.1833333"}},{"country":"ht","city":"Bassin Pian","coordinates":{"lat":"18.25","long":"-72.1833333"}},{"country":"ht","city":"Bassin Pois Doux","coordinates":{"lat":"19.5833333","long":"-72.45"}},{"country":"ht","city":"Bassin Prince","coordinates":{"lat":"18.25","long":"-72.1333333"}},{"country":"ht","city":"Bassin Soleil","coordinates":{"lat":"19.1666667","long":"-71.9666667"}},{"country":"ht","city":"Bassin Tournin","coordinates":{"lat":"19.9166667","long":"-72.7"}},{"country":"ht","city":"Bassin Tournin","coordinates":{"lat":"19.5166667","long":"-71.9666667"}},{"country":"ht","city":"Bassin Visite","coordinates":{"lat":"18.75","long":"-71.8833333"}},{"country":"ht","city":"Bas Solé","coordinates":{"lat":"18.6666667","long":"-72.1166667"}},{"country":"ht","city":"Bas Tessert","coordinates":{"lat":"18.2333333","long":"-72.35"}},{"country":"ht","city":"Bas Thomas","coordinates":{"lat":"18.25","long":"-72.3333333"}},{"country":"ht","city":"Bastia","coordinates":{"lat":"18.8833333","long":"-72.4166667"}},{"country":"ht","city":"Bastien","coordinates":{"lat":"19.05","long":"-72.5"}},{"country":"ht","city":"Bastien","coordinates":{"lat":"18.95","long":"-72.0666667"}},{"country":"ht","city":"Batador","coordinates":{"lat":"19.6166667","long":"-71.8333333"}},{"country":"ht","city":"Bataille","coordinates":{"lat":"18.9619444","long":"-72.5563889"}},{"country":"ht","city":"Batais","coordinates":{"lat":"18.3","long":"-74.05"}},{"country":"ht","city":"Batardo","coordinates":{"lat":"19.4833333","long":"-72.6"}},{"country":"ht","city":"Bateille","coordinates":{"lat":"19.2","long":"-72.1666667"}},{"country":"ht","city":"Batey","coordinates":{"lat":"18.95","long":"-71.9"}},{"country":"ht","city":"Batier","coordinates":{"lat":"18.9","long":"-71.8"}},{"country":"ht","city":"Batin","coordinates":{"lat":"18.85","long":"-72.4166667"}},{"country":"ht","city":"Batisaille","coordinates":{"lat":"18.4833333","long":"-72.0833333"}},{"country":"ht","city":"Bativia","coordinates":{"lat":"18.3333333","long":"-74.15"}},{"country":"ht","city":"Batolme","coordinates":{"lat":"18.9666667","long":"-72.55"}},{"country":"ht","city":"Battaille","coordinates":{"lat":"19.75","long":"-72.35"}},{"country":"ht","city":"Battey","coordinates":{"lat":"18.95","long":"-71.9"}},{"country":"ht","city":"Bauber","coordinates":{"lat":"19.7130556","long":"-72.2286111"}},{"country":"ht","city":"Baubère","coordinates":{"lat":"19.5833333","long":"-72.2666667"}},{"country":"ht","city":"Baubin","coordinates":{"lat":"18.6833333","long":"-72.0"}},{"country":"ht","city":"Baucher","coordinates":{"lat":"19.3666667","long":"-72.3166667"}},{"country":"ht","city":"Baudin","coordinates":{"lat":"19.9333333","long":"-72.7833333"}},{"country":"ht","city":"Baudin","coordinates":{"lat":"19.65","long":"-72.2333333"}},{"country":"ht","city":"Baudin","coordinates":{"lat":"18.3077778","long":"-72.7002778"}},{"country":"ht","city":"Baudin","coordinates":{"lat":"18.2666667","long":"-72.7333333"}},{"country":"ht","city":"Baudouin","coordinates":{"lat":"18.3","long":"-73.05"}},{"country":"ht","city":"Bauduy","coordinates":{"lat":"18.5166667","long":"-72.2166667"}},{"country":"ht","city":"Baugé","coordinates":{"lat":"19.6","long":"-72.4"}},{"country":"ht","city":"Baupant","coordinates":{"lat":"18.4166667","long":"-72.5166667"}},{"country":"ht","city":"Baussan","coordinates":{"lat":"18.5055556","long":"-72.4044444"}},{"country":"ht","city":"Bauvais","coordinates":{"lat":"18.45","long":"-72.2"}},{"country":"ht","city":"Bauvrai","coordinates":{"lat":"19.5833333","long":"-72.55"}},{"country":"ht","city":"Bauzan","coordinates":{"lat":"18.25","long":"-73.85"}},{"country":"ht","city":"Baval","coordinates":{"lat":"18.35","long":"-74.1833333"}},{"country":"ht","city":"Baveux","coordinates":{"lat":"19.0166667","long":"-72.5333333"}},{"country":"ht","city":"Bayacou","coordinates":{"lat":"19.5833333","long":"-72.5166667"}},{"country":"ht","city":"Bayado","coordinates":{"lat":"18.4833333","long":"-73.4833333"}},{"country":"ht","city":"Bay-Alliance","coordinates":{"lat":"18.5","long":"-73.9"}},{"country":"ht","city":"Bayard","coordinates":{"lat":"18.55","long":"-74.2833333"}},{"country":"ht","city":"Bayard","coordinates":{"lat":"18.4422222","long":"-72.1536111"}},{"country":"ht","city":"Bayas","coordinates":{"lat":"18.8333333","long":"-72.0666667"}},{"country":"ht","city":"Bayau","coordinates":{"lat":"19.8166667","long":"-72.4333333"}},{"country":"ht","city":"Baycite","coordinates":{"lat":"19.05","long":"-72.05"}},{"country":"ht","city":"Baye","coordinates":{"lat":"19.5","long":"-72.0166667"}},{"country":"ht","city":"Bayelle","coordinates":{"lat":"18.7180556","long":"-72.4422222"}},{"country":"ht","city":"Bayer","coordinates":{"lat":"19.5166667","long":"-72.1833333"}},{"country":"ht","city":"Bayere","coordinates":{"lat":"18.3833333","long":"-72.9"}},{"country":"ht","city":"Bayeu","coordinates":{"lat":"19.8166667","long":"-72.4333333"}},{"country":"ht","city":"Bayeux","coordinates":{"lat":"18.6833333","long":"-73.7333333"}},{"country":"ht","city":"Bayeux","coordinates":{"lat":"19.8166667","long":"-72.4333333"}},{"country":"ht","city":"Bayon","coordinates":{"lat":"19.7833333","long":"-72.3833333"}},{"country":"ht","city":"Bayonnais","coordinates":{"lat":"19.4166667","long":"-72.4833333"}},{"country":"ht","city":"Bayonnette","coordinates":{"lat":"18.2166667","long":"-72.85"}},{"country":"ht","city":"Bazarin","coordinates":{"lat":"18.3833333","long":"-74.4166667"}},{"country":"ht","city":"Bazelais","coordinates":{"lat":"18.5238889","long":"-72.5488889"}},{"country":"ht","city":"Bazila","coordinates":{"lat":"19.4166667","long":"-72.5"}},{"country":"ht","city":"Bazilan","coordinates":{"lat":"19.75","long":"-72.4666667"}},{"country":"ht","city":"Bazil","coordinates":{"lat":"19.4","long":"-72.4333333"}},{"country":"ht","city":"Bazile","coordinates":{"lat":"19.35","long":"-71.9"}},{"country":"ht","city":"Bazile","coordinates":{"lat":"18.3025","long":"-72.7047222"}},{"country":"ht","city":"Bazin","coordinates":{"lat":"19.8166667","long":"-73.1666667"}},{"country":"ht","city":"Bazin","coordinates":{"lat":"19.7333333","long":"-72.35"}},{"country":"ht","city":"Bazin","coordinates":{"lat":"18.2333333","long":"-72.5833333"}},{"country":"ht","city":"Bazin Reignier","coordinates":{"lat":"18.2666667","long":"-73.8833333"}},{"country":"ht","city":"Bazou","coordinates":{"lat":"19.7166667","long":"-72.6833333"}},{"country":"ht","city":"Béanos","coordinates":{"lat":"18.3333333","long":"-71.9333333"}},{"country":"ht","city":"Béansine","coordinates":{"lat":"18.4333333","long":"-74.3833333"}},{"country":"ht","city":"Béatre","coordinates":{"lat":"18.4","long":"-72.8333333"}},{"country":"ht","city":"Beaubrun","coordinates":{"lat":"19.7666667","long":"-72.6"}},{"country":"ht","city":"Beaucalin","coordinates":{"lat":"18.6","long":"-74.2"}},{"country":"ht","city":"Beauchamp","coordinates":{"lat":"19.75","long":"-73.0166667"}},{"country":"ht","city":"Beau Champ","coordinates":{"lat":"19.8166667","long":"-72.9833333"}},{"country":"ht","city":"Beauclos","coordinates":{"lat":"18.2333333","long":"-73.9666667"}},{"country":"ht","city":"Beaudin","coordinates":{"lat":"19.4666667","long":"-72.3833333"}},{"country":"ht","city":"Beaudois","coordinates":{"lat":"19.7333333","long":"-72.7166667"}},{"country":"ht","city":"Beaudouin","coordinates":{"lat":"18.3833333","long":"-73.3166667"}},{"country":"ht","city":"Beaudouin","coordinates":{"lat":"18.1166667","long":"-73.8666667"}},{"country":"ht","city":"Beaudrouin","coordinates":{"lat":"18.5833333","long":"-74.0833333"}},{"country":"ht","city":"Beaudry","coordinates":{"lat":"18.3833333","long":"-72.8833333"}},{"country":"ht","city":"Beaufort","coordinates":{"lat":"19.15","long":"-72.4833333"}},{"country":"ht","city":"Beaufrin","coordinates":{"lat":"18.5744444","long":"-73.9869444"}},{"country":"ht","city":"Beaugé","coordinates":{"lat":"18.55","long":"-72.1333333"}},{"country":"ht","city":"Beauger","coordinates":{"lat":"18.55","long":"-72.1333333"}},{"country":"ht","city":"Beaujoin","coordinates":{"lat":"19.6166667","long":"-72.2833333"}},{"country":"ht","city":"Beaujoint","coordinates":{"lat":"19.5","long":"-72.1666667"}},{"country":"ht","city":"Beaulier","coordinates":{"lat":"18.1666667","long":"-73.9666667"}},{"country":"ht","city":"Beaulieu","coordinates":{"lat":"19.9","long":"-72.65"}},{"country":"ht","city":"Beaulieu","coordinates":{"lat":"19.5333333","long":"-72.1833333"}},{"country":"ht","city":"Beaulieu","coordinates":{"lat":"18.14","long":"-73.9594444"}},{"country":"ht","city":"Beaumond","coordinates":{"lat":"19.7666667","long":"-72.65"}},{"country":"ht","city":"Beaumont","coordinates":{"lat":"19.9166667","long":"-72.7166667"}},{"country":"ht","city":"Beaumont","coordinates":{"lat":"19.4833333","long":"-72.4833333"}},{"country":"ht","city":"Beaumont","coordinates":{"lat":"18.4833333","long":"-73.9666667"}},{"country":"ht","city":"Beau Père","coordinates":{"lat":"18.9333333","long":"-72.2"}},{"country":"ht","city":"Beau Seigneur","coordinates":{"lat":"19.7166667","long":"-72.8666667"}},{"country":"ht","city":"Beauséjour","coordinates":{"lat":"19.8166667","long":"-72.8"}},{"country":"ht","city":"Beauséjour","coordinates":{"lat":"19.5","long":"-72.5333333"}},{"country":"ht","city":"Beau Séjour","coordinates":{"lat":"18.4202778","long":"-72.5347222"}},{"country":"ht","city":"Beauséjour","coordinates":{"lat":"18.4666667","long":"-72.6"}},{"country":"ht","city":"Beau Soleil","coordinates":{"lat":"19.6666667","long":"-72.4166667"}},{"country":"ht","city":"Beautesse","coordinates":{"lat":"19.6666667","long":"-73.2666667"}},{"country":"ht","city":"Beauvais","coordinates":{"lat":"19.8","long":"-73.2166667"}},{"country":"ht","city":"Beauvais","coordinates":{"lat":"18.45","long":"-72.2"}},{"country":"ht","city":"Beauvoir","coordinates":{"lat":"19.7333333","long":"-72.7166667"}},{"country":"ht","city":"Beauvoir","coordinates":{"lat":"18.7666667","long":"-72.2333333"}},{"country":"ht","city":"Bébé","coordinates":{"lat":"19.6666667","long":"-73.3166667"}},{"country":"ht","city":"Bécanta","coordinates":{"lat":"19.3","long":"-72.3666667"}},{"country":"ht","city":"Bedan","coordinates":{"lat":"19.6","long":"-71.85"}},{"country":"ht","city":"Bédime","coordinates":{"lat":"18.3833333","long":"-73.4"}},{"country":"ht","city":"Bedine","coordinates":{"lat":"18.9","long":"-71.9"}},{"country":"ht","city":"Bedo","coordinates":{"lat":"18.2833333","long":"-73.65"}},{"country":"ht","city":"Bedoret","coordinates":{"lat":"19.5833333","long":"-72.45"}},{"country":"ht","city":"Bedou","coordinates":{"lat":"19.4833333","long":"-71.7"}},{"country":"ht","city":"Bedouet","coordinates":{"lat":"19.4333333","long":"-72.3"}},{"country":"ht","city":"Bedouet","coordinates":{"lat":"18.8333333","long":"-72.25"}},{"country":"ht","city":"Began Nabé","coordinates":{"lat":"19.1833333","long":"-72.0166667"}},{"country":"ht","city":"Béké","coordinates":{"lat":"18.9663889","long":"-72.4930556"}},{"country":"ht","city":"Belac","coordinates":{"lat":"18.4830556","long":"-72.6641667"}},{"country":"ht","city":"Belad","coordinates":{"lat":"18.3333333","long":"-74.1666667"}},{"country":"ht","city":"Bel Air","coordinates":{"lat":"19.0","long":"-72.6166667"}},{"country":"ht","city":"Bel Air","coordinates":{"lat":"18.9","long":"-72.1666667"}},{"country":"ht","city":"Belair","coordinates":{"lat":"18.3833333","long":"-73.4"}},{"country":"ht","city":"Belair","coordinates":{"lat":"19.5833333","long":"-72.3166667"}},{"country":"ht","city":"Bel Air","coordinates":{"lat":"19.7538889","long":"-72.2130556"}},{"country":"ht","city":"Belair","coordinates":{"lat":"19.8666667","long":"-72.5833333"}},{"country":"ht","city":"Belair","coordinates":{"lat":"18.35","long":"-72.9"}},{"country":"ht","city":"Bel-Air","coordinates":{"lat":"18.3833333","long":"-72.0833333"}},{"country":"ht","city":"Bel Air","coordinates":{"lat":"18.4","long":"-72.55"}},{"country":"ht","city":"Bel Air","coordinates":{"lat":"18.0855556","long":"-73.8455556"}},{"country":"ht","city":"Bel-Air","coordinates":{"lat":"18.3166667","long":"-73.15"}},{"country":"ht","city":"Belair","coordinates":{"lat":"18.3166667","long":"-73.3833333"}},{"country":"ht","city":"Bel-Air","coordinates":{"lat":"18.2166667","long":"-72.6666667"}},{"country":"ht","city":"Bel Air","coordinates":{"lat":"18.2666667","long":"-72.05"}},{"country":"ht","city":"Belair","coordinates":{"lat":"18.3294444","long":"-72.5052778"}},{"country":"ht","city":"Bélance","coordinates":{"lat":"19.45","long":"-72.6333333"}},{"country":"ht","city":"Bélancourt","coordinates":{"lat":"18.35","long":"-73.8833333"}},{"country":"ht","city":"Beland","coordinates":{"lat":"18.3166667","long":"-72.1"}},{"country":"ht","city":"Belange","coordinates":{"lat":"19.1166667","long":"-72.5166667"}},{"country":"ht","city":"Belanger","coordinates":{"lat":"18.7333333","long":"-72.4333333"}},{"country":"ht","city":"Belangnin","coordinates":{"lat":"18.4666667","long":"-72.3"}},{"country":"ht","city":"Bel Arbre","coordinates":{"lat":"18.2","long":"-73.85"}},{"country":"ht","city":"BelÅuf","coordinates":{"lat":"19.7","long":"-72.5833333"}},{"country":"ht","city":"Belbède","coordinates":{"lat":"18.9122222","long":"-72.2397222"}},{"country":"ht","city":"Béléo","coordinates":{"lat":"18.35","long":"-74.2166667"}},{"country":"ht","city":"Belery","coordinates":{"lat":"19.5333333","long":"-71.9666667"}},{"country":"ht","city":"Bel Fond","coordinates":{"lat":"18.4741667","long":"-72.0663889"}},{"country":"ht","city":"Belgarde","coordinates":{"lat":"18.3166667","long":"-73.2666667"}},{"country":"ht","city":"Béliard","coordinates":{"lat":"19.6666667","long":"-72.1"}},{"country":"ht","city":"Bélier","coordinates":{"lat":"19.8666667","long":"-72.8333333"}},{"country":"ht","city":"Bélier","coordinates":{"lat":"19.5833333","long":"-72.3833333"}},{"country":"ht","city":"Bélizaire","coordinates":{"lat":"19.7666667","long":"-72.8833333"}},{"country":"ht","city":"Bélizaire","coordinates":{"lat":"19.5833333","long":"-72.4833333"}},{"country":"ht","city":"Bélizaire","coordinates":{"lat":"18.2333333","long":"-73.95"}},{"country":"ht","city":"Beljote","coordinates":{"lat":"19.4166667","long":"-71.7"}},{"country":"ht","city":"Bellade","coordinates":{"lat":"18.3","long":"-73.1333333"}},{"country":"ht","city":"Belladent","coordinates":{"lat":"18.2833333","long":"-74.1666667"}},{"country":"ht","city":"Belladère","coordinates":{"lat":"18.8669444","long":"-71.7630556"}},{"country":"ht","city":"Bellance","coordinates":{"lat":"19.1166667","long":"-72.4833333"}},{"country":"ht","city":"Bellance","coordinates":{"lat":"18.4333333","long":"-73.9833333"}},{"country":"ht","city":"Bellande","coordinates":{"lat":"19.6833333","long":"-72.55"}},{"country":"ht","city":"Bellangé","coordinates":{"lat":"19.1166667","long":"-72.5166667"}},{"country":"ht","city":"Bellanger","coordinates":{"lat":"18.7333333","long":"-72.4333333"}},{"country":"ht","city":"Bellanger","coordinates":{"lat":"18.3333333","long":"-74.35"}},{"country":"ht","city":"Bellanton","coordinates":{"lat":"18.5833333","long":"-72.2"}},{"country":"ht","city":"Bellard","coordinates":{"lat":"18.4833333","long":"-72.2166667"}},{"country":"ht","city":"Belle Anse","coordinates":{"lat":"19.45","long":"-72.2166667"}},{"country":"ht","city":"Belle-Anse","coordinates":{"lat":"18.2372222","long":"-72.0655556"}},{"country":"ht","city":"Belle Blade","coordinates":{"lat":"18.7333333","long":"-71.8666667"}},{"country":"ht","city":"Belle Branche","coordinates":{"lat":"19.1","long":"-71.95"}},{"country":"ht","city":"Bellecone","coordinates":{"lat":"18.3666667","long":"-72.8833333"}},{"country":"ht","city":"Belle Dent","coordinates":{"lat":"18.2833333","long":"-74.1666667"}},{"country":"ht","city":"Belle Épée","coordinates":{"lat":"18.9930556","long":"-72.1830556"}},{"country":"ht","city":"Belle Fontaine","coordinates":{"lat":"18.3666667","long":"-72.3166667"}},{"country":"ht","city":"Belle Fortune","coordinates":{"lat":"18.4333333","long":"-72.4833333"}},{"country":"ht","city":"Bellegarde","coordinates":{"lat":"18.3166667","long":"-73.1333333"}},{"country":"ht","city":"Belle Hôtesse","coordinates":{"lat":"19.45","long":"-72.4666667"}},{"country":"ht","city":"Belle Hôtesse","coordinates":{"lat":"18.4","long":"-73.1166667"}},{"country":"ht","city":"Belle Hôtesse","coordinates":{"lat":"19.7166667","long":"-72.35"}},{"country":"ht","city":"Belle Hôtesse","coordinates":{"lat":"18.3166667","long":"-73.5166667"}},{"country":"ht","city":"Belle Maison","coordinates":{"lat":"18.5666667","long":"-74.35"}},{"country":"ht","city":"Belle Platon","coordinates":{"lat":"18.9166667","long":"-73.1666667"}},{"country":"ht","city":"Belle Roche","coordinates":{"lat":"18.45","long":"-73.2666667"}},{"country":"ht","city":"Belle Roche","coordinates":{"lat":"18.2333333","long":"-72.3"}},{"country":"ht","city":"Bellery","coordinates":{"lat":"19.5","long":"-71.9333333"}},{"country":"ht","city":"Belle Terre","coordinates":{"lat":"18.7666667","long":"-71.8333333"}},{"country":"ht","city":"Belle-Tête","coordinates":{"lat":"19.5333333","long":"-72.0666667"}},{"country":"ht","city":"Belle Tete","coordinates":{"lat":"19.5333333","long":"-72.0833333"}},{"country":"ht","city":"Bellevue","coordinates":{"lat":"19.75","long":"-73.1333333"}},{"country":"ht","city":"Bellevue","coordinates":{"lat":"19.0666667","long":"-72.6333333"}},{"country":"ht","city":"Bellevue","coordinates":{"lat":"18.8833333","long":"-72.1333333"}},{"country":"ht","city":"Bellevue","coordinates":{"lat":"18.35","long":"-73.3833333"}},{"country":"ht","city":"Bellevue","coordinates":{"lat":"19.4666667","long":"-72.1166667"}},{"country":"ht","city":"Bellevue","coordinates":{"lat":"19.4833333","long":"-72.3"}},{"country":"ht","city":"Bellevue","coordinates":{"lat":"18.35","long":"-72.6833333"}},{"country":"ht","city":"Belle Vue","coordinates":{"lat":"18.2","long":"-73.85"}},{"country":"ht","city":"Bellevue","coordinates":{"lat":"18.2833333","long":"-73.5333333"}},{"country":"ht","city":"Bellevue","coordinates":{"lat":"18.1997222","long":"-72.5780556"}},{"country":"ht","city":"Bellevue la Montagne","coordinates":{"lat":"18.4666667","long":"-72.2833333"}},{"country":"ht","city":"Bellevue Laolair","coordinates":{"lat":"19.0833333","long":"-72.4333333"}},{"country":"ht","city":"Bellon","coordinates":{"lat":"18.8833333","long":"-72.35"}},{"country":"ht","city":"Bellonton","coordinates":{"lat":"18.5833333","long":"-72.2"}},{"country":"ht","city":"Bellote","coordinates":{"lat":"18.1038889","long":"-73.875"}},{"country":"ht","city":"Bellote","coordinates":{"lat":"18.3166667","long":"-72.3833333"}},{"country":"ht","city":"Belloteste","coordinates":{"lat":"18.3838889","long":"-73.6566667"}},{"country":"ht","city":"Belly","coordinates":{"lat":"19.7","long":"-73.4"}},{"country":"ht","city":"Belly","coordinates":{"lat":"18.8","long":"-72.4333333"}},{"country":"ht","city":"Belly","coordinates":{"lat":"18.1833333","long":"-73.8666667"}},{"country":"ht","city":"Belo","coordinates":{"lat":"18.45","long":"-72.3333333"}},{"country":"ht","city":"Belo","coordinates":{"lat":"18.1833333","long":"-72.5833333"}},{"country":"ht","city":"Beloc","coordinates":{"lat":"18.3769444","long":"-72.5894444"}},{"country":"ht","city":"Belol","coordinates":{"lat":"18.4830556","long":"-72.6641667"}},{"country":"ht","city":"Beloten","coordinates":{"lat":"19.7166667","long":"-72.3333333"}},{"country":"ht","city":"Bélotte","coordinates":{"lat":"18.9","long":"-72.05"}},{"country":"ht","city":"Bel Platon","coordinates":{"lat":"18.7833333","long":"-72.8666667"}},{"country":"ht","city":"Belsue","coordinates":{"lat":"18.3166667","long":"-74.1"}},{"country":"ht","city":"Belval","coordinates":{"lat":"18.5166667","long":"-72.6166667"}},{"country":"ht","city":"Belvedere","coordinates":{"lat":"18.2833333","long":"-72.3833333"}},{"country":"ht","city":"Belvo","coordinates":{"lat":"18.2666667","long":"-72.3333333"}},{"country":"ht","city":"Belzanine","coordinates":{"lat":"18.5333333","long":"-74.2666667"}},{"country":"ht","city":"Bénaco","coordinates":{"lat":"18.95","long":"-72.15"}},{"country":"ht","city":"Ben","coordinates":{"lat":"19.5666667","long":"-72.0666667"}},{"country":"ht","city":"Bence","coordinates":{"lat":"19.4166667","long":"-72.0666667"}},{"country":"ht","city":"Benêche","coordinates":{"lat":"19.0166667","long":"-71.9333333"}},{"country":"ht","city":"Bénéfice","coordinates":{"lat":"19.4333333","long":"-72.0833333"}},{"country":"ht","city":"Benest","coordinates":{"lat":"19.4333333","long":"-71.75"}},{"country":"ht","city":"Bénitier","coordinates":{"lat":"18.9833333","long":"-72.6833333"}},{"country":"ht","city":"Bénitier","coordinates":{"lat":"18.9","long":"-72.5786111"}},{"country":"ht","city":"Benjamin","coordinates":{"lat":"19.75","long":"-72.8166667"}},{"country":"ht","city":"Benjamin","coordinates":{"lat":"19.15","long":"-72.1833333"}},{"country":"ht","city":"Benjamin","coordinates":{"lat":"19.5666667","long":"-72.5"}},{"country":"ht","city":"Benjamin","coordinates":{"lat":"18.2333333","long":"-74.05"}},{"country":"ht","city":"Benoil","coordinates":{"lat":"19.2666667","long":"-72.25"}},{"country":"ht","city":"Benoit","coordinates":{"lat":"18.2666667","long":"-74.1"}},{"country":"ht","city":"Benoît","coordinates":{"lat":"18.2","long":"-72.8"}},{"country":"ht","city":"Bento","coordinates":{"lat":"18.9666667","long":"-72.0666667"}},{"country":"ht","city":"Bêque","coordinates":{"lat":"18.2166667","long":"-74.0166667"}},{"country":"ht","city":"Béra","coordinates":{"lat":"19.4333333","long":"-71.7"}},{"country":"ht","city":"Bera","coordinates":{"lat":"18.2833333","long":"-73.65"}},{"country":"ht","city":"Bérard","coordinates":{"lat":"19.2166667","long":"-72.55"}},{"country":"ht","city":"Bérard","coordinates":{"lat":"19.65","long":"-72.2"}},{"country":"ht","city":"Béraud","coordinates":{"lat":"18.2","long":"-73.8666667"}},{"country":"ht","city":"Béraud","coordinates":{"lat":"18.2936111","long":"-72.7563889"}},{"country":"ht","city":"Bérault","coordinates":{"lat":"18.5083333","long":"-72.4944444"}},{"country":"ht","city":"Bérault","coordinates":{"lat":"18.2","long":"-73.8666667"}},{"country":"ht","city":"Bercera","coordinates":{"lat":"19.6166667","long":"-71.9666667"}},{"country":"ht","city":"Bercerie","coordinates":{"lat":"18.75","long":"-71.8"}},{"country":"ht","city":"Bercery","coordinates":{"lat":"19.6166667","long":"-71.9666667"}},{"country":"ht","city":"Bercy","coordinates":{"lat":"18.75","long":"-72.45"}},{"country":"ht","city":"Bercy","coordinates":{"lat":"18.3666667","long":"-73.6666667"}},{"country":"ht","city":"Bercy","coordinates":{"lat":"18.3833333","long":"-72.4166667"}},{"country":"ht","city":"Bereau","coordinates":{"lat":"18.2833333","long":"-72.7666667"}},{"country":"ht","city":"Béreau","coordinates":{"lat":"18.3047222","long":"-72.7416667"}},{"country":"ht","city":"Béré","coordinates":{"lat":"18.25","long":"-73.6166667"}},{"country":"ht","city":"Béret","coordinates":{"lat":"18.4333333","long":"-73.6666667"}},{"country":"ht","city":"Bérette","coordinates":{"lat":"18.3744444","long":"-73.6683333"}},{"country":"ht","city":"Bergaine","coordinates":{"lat":"19.5","long":"-71.8833333"}},{"country":"ht","city":"Bergat","coordinates":{"lat":"18.3333333","long":"-73.7166667"}},{"country":"ht","city":"Bergeotte","coordinates":{"lat":"18.4333333","long":"-72.5333333"}},{"country":"ht","city":"Bergerac","coordinates":{"lat":"18.1211111","long":"-73.9291667"}},{"country":"ht","city":"Bergeraud","coordinates":{"lat":"18.2333333","long":"-73.75"}},{"country":"ht","city":"Berger","coordinates":{"lat":"19.9166667","long":"-72.7"}},{"country":"ht","city":"Berger","coordinates":{"lat":"19.4833333","long":"-72.2833333"}},{"country":"ht","city":"Berger","coordinates":{"lat":"18.1513889","long":"-73.9288889"}},{"country":"ht","city":"Bergereau","coordinates":{"lat":"18.2333333","long":"-73.75"}},{"country":"ht","city":"Béril","coordinates":{"lat":"18.6166667","long":"-74.3"}},{"country":"ht","city":"Berjin","coordinates":{"lat":"18.2497222","long":"-72.7416667"}},{"country":"ht","city":"Berken","coordinates":{"lat":"18.4333333","long":"-73.1166667"}},{"country":"ht","city":"Berlin","coordinates":{"lat":"18.8166667","long":"-72.1666667"}},{"country":"ht","city":"Berlotte","coordinates":{"lat":"18.1","long":"-73.8666667"}},{"country":"ht","city":"Berly","coordinates":{"lat":"18.5666667","long":"-74.3666667"}},{"country":"ht","city":"Berly","coordinates":{"lat":"18.4166667","long":"-72.3833333"}},{"country":"ht","city":"Bernaco","coordinates":{"lat":"19.0","long":"-72.0333333"}},{"country":"ht","city":"Bernadel","coordinates":{"lat":"18.3","long":"-73.1333333"}},{"country":"ht","city":"Bernado","coordinates":{"lat":"19.7333333","long":"-72.7666667"}},{"country":"ht","city":"Bernagousse","coordinates":{"lat":"18.5158333","long":"-73.8294444"}},{"country":"ht","city":"Bernaleau","coordinates":{"lat":"18.25","long":"-72.8"}},{"country":"ht","city":"Bernard","coordinates":{"lat":"19.7333333","long":"-72.9"}},{"country":"ht","city":"Bernard","coordinates":{"lat":"19.0333333","long":"-72.4333333"}},{"country":"ht","city":"Bernard","coordinates":{"lat":"19.2","long":"-72.15"}},{"country":"ht","city":"Bernard","coordinates":{"lat":"18.4333333","long":"-74.4333333"}},{"country":"ht","city":"Bernard","coordinates":{"lat":"19.5666667","long":"-72.4833333"}},{"country":"ht","city":"Bernard","coordinates":{"lat":"19.3833333","long":"-71.7833333"}},{"country":"ht","city":"Bernard","coordinates":{"lat":"18.3333333","long":"-72.1666667"}},{"country":"ht","city":"Bernard","coordinates":{"lat":"18.0666667","long":"-73.65"}},{"country":"ht","city":"Bernaud","coordinates":{"lat":"19.7166667","long":"-72.35"}},{"country":"ht","city":"Bernice","coordinates":{"lat":"19.5166667","long":"-72.2666667"}},{"country":"ht","city":"Beroit","coordinates":{"lat":"18.25","long":"-72.8333333"}},{"country":"ht","city":"Bérondi","coordinates":{"lat":"19.5833333","long":"-71.8666667"}},{"country":"ht","city":"Bérot","coordinates":{"lat":"18.4927778","long":"-72.4475"}},{"country":"ht","city":"Berou","coordinates":{"lat":"19.3166667","long":"-72.1166667"}},{"country":"ht","city":"Berrard","coordinates":{"lat":"19.1666667","long":"-72.3833333"}},{"country":"ht","city":"Berret","coordinates":{"lat":"18.4","long":"-73.65"}},{"country":"ht","city":"Berrin","coordinates":{"lat":"19.65","long":"-72.5166667"}},{"country":"ht","city":"Berrouette","coordinates":{"lat":"18.4","long":"-72.4833333"}},{"country":"ht","city":"Berry","coordinates":{"lat":"18.1905556","long":"-72.8786111"}},{"country":"ht","city":"Berry","coordinates":{"lat":"18.3055556","long":"-72.2630556"}},{"country":"ht","city":"Berthaud","coordinates":{"lat":"18.5333333","long":"-74.0333333"}},{"country":"ht","city":"Berthé","coordinates":{"lat":"18.5","long":"-73.3833333"}},{"country":"ht","city":"Berthe","coordinates":{"lat":"18.5166667","long":"-72.2666667"}},{"country":"ht","city":"Berthol","coordinates":{"lat":"18.2666667","long":"-73.0166667"}},{"country":"ht","city":"Berthol","coordinates":{"lat":"19.5333333","long":"-72.0333333"}},{"country":"ht","city":"Bertin","coordinates":{"lat":"19.65","long":"-72.5166667"}},{"country":"ht","city":"Bertrand","coordinates":{"lat":"19.1666667","long":"-72.65"}},{"country":"ht","city":"Bertrand","coordinates":{"lat":"18.3666667","long":"-73.45"}},{"country":"ht","city":"Bertrand","coordinates":{"lat":"19.6666667","long":"-72.4"}},{"country":"ht","city":"Bertrand","coordinates":{"lat":"18.4333333","long":"-71.9666667"}},{"country":"ht","city":"Bertrand","coordinates":{"lat":"18.2833333","long":"-73.75"}},{"country":"ht","city":"Bertrand Trouin","coordinates":{"lat":"19.2","long":"-72.6666667"}},{"country":"ht","city":"Bertrang","coordinates":{"lat":"19.2","long":"-72.6666667"}},{"country":"ht","city":"Bertrend","coordinates":{"lat":"18.45","long":"-71.95"}},{"country":"ht","city":"Besace","coordinates":{"lat":"18.3166667","long":"-72.8666667"}},{"country":"ht","city":"Beseau","coordinates":{"lat":"18.3166667","long":"-72.8666667"}},{"country":"ht","city":"Besson","coordinates":{"lat":"18.4133333","long":"-73.675"}},{"country":"ht","city":"Bête","coordinates":{"lat":"18.4333333","long":"-72.3333333"}},{"country":"ht","city":"Bétel","coordinates":{"lat":"18.7833333","long":"-72.3833333"}},{"country":"ht","city":"Béthel","coordinates":{"lat":"18.5666667","long":"-73.6166667"}},{"country":"ht","city":"Béticher","coordinates":{"lat":"18.4166667","long":"-72.8166667"}},{"country":"ht","city":"Betrouze","coordinates":{"lat":"18.5833333","long":"-74.1166667"}},{"country":"ht","city":"Beucard","coordinates":{"lat":"18.35","long":"-73.1666667"}},{"country":"ht","city":"Beudet","coordinates":{"lat":"18.6038889","long":"-72.2216667"}},{"country":"ht","city":"Beyer","coordinates":{"lat":"19.0","long":"-72.6166667"}},{"country":"ht","city":"Beyotte","coordinates":{"lat":"19.5","long":"-71.7666667"}},{"country":"ht","city":"Bezia","coordinates":{"lat":"18.45","long":"-73.1666667"}},{"country":"ht","city":"Bezin","coordinates":{"lat":"18.4833333","long":"-73.1666667"}},{"country":"ht","city":"Bézin","coordinates":{"lat":"18.3","long":"-73.9166667"}},{"country":"ht","city":"Biaou","coordinates":{"lat":"19.4166667","long":"-72.2833333"}},{"country":"ht","city":"Biari","coordinates":{"lat":"19.7333333","long":"-72.8333333"}},{"country":"ht","city":"Biasou","coordinates":{"lat":"19.4166667","long":"-72.2833333"}},{"country":"ht","city":"Biassou","coordinates":{"lat":"19.1","long":"-71.7166667"}},{"country":"ht","city":"Biassou","coordinates":{"lat":"19.4833333","long":"-72.0"}},{"country":"ht","city":"Bicara","coordinates":{"lat":"19.35","long":"-71.9333333"}},{"country":"ht","city":"Bichotte","coordinates":{"lat":"18.3166667","long":"-72.5833333"}},{"country":"ht","city":"Biclair","coordinates":{"lat":"19.7166667","long":"-72.25"}},{"country":"ht","city":"Bicloire","coordinates":{"lat":"19.6166667","long":"-72.1"}},{"country":"ht","city":"Bidal","coordinates":{"lat":"18.85","long":"-71.8333333"}},{"country":"ht","city":"Bidone","coordinates":{"lat":"19.15","long":"-72.55"}},{"country":"ht","city":"Bidoret","coordinates":{"lat":"19.5833333","long":"-72.4166667"}},{"country":"ht","city":"Bidouze","coordinates":{"lat":"18.3666667","long":"-73.3333333"}},{"country":"ht","city":"Bien Aimé","coordinates":{"lat":"19.7","long":"-72.8"}},{"country":"ht","city":"Bien Aimé","coordinates":{"lat":"18.7302778","long":"-72.1958333"}},{"country":"ht","city":"Bien Compté","coordinates":{"lat":"20.0333333","long":"-72.7333333"}},{"country":"ht","city":"Bienfaisant","coordinates":{"lat":"18.5513889","long":"-73.8552778"}},{"country":"ht","city":"Bien Placé","coordinates":{"lat":"18.9","long":"-72.25"}},{"country":"ht","city":"Bien Placé","coordinates":{"lat":"18.75","long":"-72.1666667"}},{"country":"ht","city":"Bievenue","coordinates":{"lat":"18.3666667","long":"-72.3"}},{"country":"ht","city":"Bigaille","coordinates":{"lat":"18.9666667","long":"-71.9166667"}},{"country":"ht","city":"Bigandie","coordinates":{"lat":"19.4333333","long":"-71.95"}},{"country":"ht","city":"Bigeon","coordinates":{"lat":"19.1333333","long":"-72.45"}},{"country":"ht","city":"Bigo","coordinates":{"lat":"19.6666667","long":"-72.6333333"}},{"country":"ht","city":"Bigonet","coordinates":{"lat":"18.4341667","long":"-72.6338889"}},{"country":"ht","city":"Bigoney","coordinates":{"lat":"18.4341667","long":"-72.6338889"}},{"country":"ht","city":"Bigot","coordinates":{"lat":"19.4333333","long":"-72.6666667"}},{"country":"ht","city":"Bigot","coordinates":{"lat":"19.6833333","long":"-72.5833333"}},{"country":"ht","city":"Bigot","coordinates":{"lat":"18.2133333","long":"-72.8363889"}},{"country":"ht","city":"Bijon","coordinates":{"lat":"19.3","long":"-72.4333333"}},{"country":"ht","city":"Bijou","coordinates":{"lat":"19.2833333","long":"-72.4333333"}},{"country":"ht","city":"Biley","coordinates":{"lat":"19.6333333","long":"-72.15"}},{"country":"ht","city":"Billard","coordinates":{"lat":"18.4666667","long":"-73.4"}},{"country":"ht","city":"Billiard","coordinates":{"lat":"18.25","long":"-73.8833333"}},{"country":"ht","city":"Billiguy","coordinates":{"lat":"19.25","long":"-72.2166667"}},{"country":"ht","city":"Billiot","coordinates":{"lat":"19.65","long":"-72.5333333"}},{"country":"ht","city":"Billo","coordinates":{"lat":"19.65","long":"-72.5333333"}},{"country":"ht","city":"Bimani","coordinates":{"lat":"19.0666667","long":"-72.5666667"}},{"country":"ht","city":"Bimba","coordinates":{"lat":"19.6833333","long":"-72.5333333"}},{"country":"ht","city":"Bina","coordinates":{"lat":"18.5833333","long":"-73.6833333"}},{"country":"ht","city":"Binaud","coordinates":{"lat":"18.5166667","long":"-72.65"}},{"country":"ht","city":"Bineau Blanche","coordinates":{"lat":"18.4333333","long":"-72.9333333"}},{"country":"ht","city":"Bineau Noire","coordinates":{"lat":"18.4333333","long":"-72.9166667"}},{"country":"ht","city":"Binguy","coordinates":{"lat":"19.7166667","long":"-72.3833333"}},{"country":"ht","city":"Bino","coordinates":{"lat":"19.05","long":"-72.25"}},{"country":"ht","city":"Binot","coordinates":{"lat":"19.7166667","long":"-72.6"}},{"country":"ht","city":"Binot","coordinates":{"lat":"18.4833333","long":"-72.6333333"}},{"country":"ht","city":"Binto","coordinates":{"lat":"18.1333333","long":"-73.9333333"}},{"country":"ht","city":"Bintorrible","coordinates":{"lat":"19.0333333","long":"-71.9166667"}},{"country":"ht","city":"Bique","coordinates":{"lat":"18.9666667","long":"-72.4"}},{"country":"ht","city":"Biquette","coordinates":{"lat":"18.95","long":"-72.4"}},{"country":"ht","city":"Biron","coordinates":{"lat":"18.2","long":"-72.8333333"}},{"country":"ht","city":"Bisanneau","coordinates":{"lat":"19.45","long":"-71.7"}},{"country":"ht","city":"Biscagne","coordinates":{"lat":"19.5838889","long":"-72.8758333"}},{"country":"ht","city":"Biscaillant","coordinates":{"lat":"18.3225","long":"-72.5077778"}},{"country":"ht","city":"Biscaye","coordinates":{"lat":"19.7666667","long":"-72.7"}},{"country":"ht","city":"Bissainthe","coordinates":{"lat":"18.85","long":"-71.95"}},{"country":"ht","city":"Bissaintique","coordinates":{"lat":"19.4","long":"-72.1833333"}},{"country":"ht","city":"Bissaitique","coordinates":{"lat":"19.4","long":"-72.1833333"}},{"country":"ht","city":"Bisserette","coordinates":{"lat":"18.2166667","long":"-73.15"}},{"country":"ht","city":"Biston","coordinates":{"lat":"18.4013889","long":"-73.5680556"}},{"country":"ht","city":"Bistouri","coordinates":{"lat":"18.3105556","long":"-72.9144444"}},{"country":"ht","city":"Bistouri","coordinates":{"lat":"18.3283333","long":"-72.9225"}},{"country":"ht","city":"Bitoche","coordinates":{"lat":"18.4166667","long":"-74.35"}},{"country":"ht","city":"Biton","coordinates":{"lat":"18.9833333","long":"-71.9"}},{"country":"ht","city":"Bivac","coordinates":{"lat":"19.5833333","long":"-72.75"}},{"country":"ht","city":"Bizarre","coordinates":{"lat":"18.45","long":"-73.1666667"}},{"country":"ht","city":"Bizoron","coordinates":{"lat":"18.5333333","long":"-72.3833333"}},{"country":"ht","city":"Bizoton","coordinates":{"lat":"19.75","long":"-72.45"}},{"country":"ht","city":"Bizoton","coordinates":{"lat":"18.5333333","long":"-72.3833333"}},{"country":"ht","city":"Black","coordinates":{"lat":"18.2666667","long":"-73.5"}},{"country":"ht","city":"Blain","coordinates":{"lat":"19.2","long":"-72.5333333"}},{"country":"ht","city":"Blain","coordinates":{"lat":"19.5333333","long":"-72.4666667"}},{"country":"ht","city":"Blaise","coordinates":{"lat":"19.4333333","long":"-72.3166667"}},{"country":"ht","city":"Blaise","coordinates":{"lat":"19.5333333","long":"-72.1333333"}},{"country":"ht","city":"Blaise","coordinates":{"lat":"18.3333333","long":"-73.1333333"}},{"country":"ht","city":"Blaise","coordinates":{"lat":"18.3411111","long":"-72.9461111"}},{"country":"ht","city":"Blanchard","coordinates":{"lat":"18.8833333","long":"-72.3333333"}},{"country":"ht","city":"Blanchard","coordinates":{"lat":"18.85","long":"-72.2666667"}},{"country":"ht","city":"Blanchard","coordinates":{"lat":"18.5233333","long":"-72.1036111"}},{"country":"ht","city":"Blancherd","coordinates":{"lat":"18.6","long":"-72.3166667"}},{"country":"ht","city":"Blanchon","coordinates":{"lat":"18.8333333","long":"-72.2"}},{"country":"ht","city":"Blanco","coordinates":{"lat":"19.1","long":"-72.3666667"}},{"country":"ht","city":"Blancon","coordinates":{"lat":"18.8333333","long":"-72.2"}},{"country":"ht","city":"Blandin","coordinates":{"lat":"19.55","long":"-72.1666667"}},{"country":"ht","city":"Bleau","coordinates":{"lat":"18.7","long":"-71.8666667"}},{"country":"ht","city":"Bleck","coordinates":{"lat":"18.2166667","long":"-71.85"}},{"country":"ht","city":"Blecke","coordinates":{"lat":"18.2166667","long":"-71.85"}},{"country":"ht","city":"Bleu","coordinates":{"lat":"19.6666667","long":"-72.4333333"}},{"country":"ht","city":"Blockauss","coordinates":{"lat":"18.35","long":"-72.2"}},{"country":"ht","city":"Blockauss","coordinates":{"lat":"18.2669444","long":"-72.7108333"}},{"country":"ht","city":"Blockhauss","coordinates":{"lat":"18.2669444","long":"-72.7108333"}},{"country":"ht","city":"Blodin","coordinates":{"lat":"19.6","long":"-72.0"}},{"country":"ht","city":"Blond","coordinates":{"lat":"19.5","long":"-71.7833333"}},{"country":"ht","city":"Blondeau","coordinates":{"lat":"19.65","long":"-72.4"}},{"country":"ht","city":"Blondin","coordinates":{"lat":"19.6","long":"-72.0"}},{"country":"ht","city":"Blondin","coordinates":{"lat":"18.1663889","long":"-73.9222222"}},{"country":"ht","city":"Blondine","coordinates":{"lat":"19.6166667","long":"-72.0"}},{"country":"ht","city":"Blondo","coordinates":{"lat":"18.6833333","long":"-71.9"}},{"country":"ht","city":"Blondos","coordinates":{"lat":"18.6833333","long":"-71.9"}},{"country":"ht","city":"Blonnin","coordinates":{"lat":"19.8666667","long":"-72.7833333"}},{"country":"ht","city":"Bobe","coordinates":{"lat":"19.1166667","long":"-72.6333333"}},{"country":"ht","city":"Bobis","coordinates":{"lat":"18.4036111","long":"-73.5877778"}},{"country":"ht","city":"Bobo","coordinates":{"lat":"19.7","long":"-72.45"}},{"country":"ht","city":"Bocaba","coordinates":{"lat":"19.2666667","long":"-71.9"}},{"country":"ht","city":"Boca","coordinates":{"lat":"19.45","long":"-72.5"}},{"country":"ht","city":"Bocage","coordinates":{"lat":"18.8333333","long":"-72.2166667"}},{"country":"ht","city":"Boc Banic","coordinates":{"lat":"19.05","long":"-71.75"}},{"country":"ht","city":"Boc Banique","coordinates":{"lat":"19.05","long":"-71.75"}},{"country":"ht","city":"Boclo","coordinates":{"lat":"18.2166667","long":"-73.9666667"}},{"country":"ht","city":"Boco","coordinates":{"lat":"18.3666667","long":"-73.0833333"}},{"country":"ht","city":"Boco","coordinates":{"lat":"18.3166667","long":"-74.1666667"}},{"country":"ht","city":"Bocozel","coordinates":{"lat":"19.2166667","long":"-72.6333333"}},{"country":"ht","city":"Bocozell","coordinates":{"lat":"19.2166667","long":"-72.6333333"}},{"country":"ht","city":"Bocozelle","coordinates":{"lat":"19.2166667","long":"-72.6333333"}},{"country":"ht","city":"Bodarie","coordinates":{"lat":"18.2666667","long":"-71.9"}},{"country":"ht","city":"Bodary","coordinates":{"lat":"18.25","long":"-72.3333333"}},{"country":"ht","city":"Bodasse","coordinates":{"lat":"19.7333333","long":"-72.5833333"}},{"country":"ht","city":"Bodian","coordinates":{"lat":"18.91","long":"-72.2127778"}},{"country":"ht","city":"Bodin","coordinates":{"lat":"19.6","long":"-72.55"}},{"country":"ht","city":"Bodin","coordinates":{"lat":"19.65","long":"-71.8833333"}},{"country":"ht","city":"Bodin","coordinates":{"lat":"18.3077778","long":"-72.7002778"}},{"country":"ht","city":"Bodin","coordinates":{"lat":"18.27","long":"-72.5713889"}},{"country":"ht","city":"Bodonique","coordinates":{"lat":"18.4","long":"-73.7"}},{"country":"ht","city":"Bodor","coordinates":{"lat":"18.2125","long":"-72.6683333"}},{"country":"ht","city":"Boduy","coordinates":{"lat":"18.8","long":"-72.0166667"}},{"country":"ht","city":"Body","coordinates":{"lat":"18.5","long":"-73.5333333"}},{"country":"ht","city":"Boen","coordinates":{"lat":"18.5666667","long":"-72.1333333"}},{"country":"ht","city":"Bofort","coordinates":{"lat":"19.1833333","long":"-72.4166667"}},{"country":"ht","city":"Bohon","coordinates":{"lat":"19.4666667","long":"-72.1166667"}},{"country":"ht","city":"Boidine","coordinates":{"lat":"18.4719444","long":"-72.1472222"}},{"country":"ht","city":"Boidine","coordinates":{"lat":"18.3333333","long":"-73.2666667"}},{"country":"ht","city":"Boileau","coordinates":{"lat":"18.2833333","long":"-73.65"}},{"country":"ht","city":"Boineau","coordinates":{"lat":"18.4533333","long":"-73.6805556"}},{"country":"ht","city":"Boirond","coordinates":{"lat":"18.2833333","long":"-73.4166667"}},{"country":"ht","city":"Bois Baraille","coordinates":{"lat":"19.2333333","long":"-72.3"}},{"country":"ht","city":"Bois Bayard","coordinates":{"lat":"18.2313889","long":"-72.4941667"}},{"country":"ht","city":"Bois Blanc","coordinates":{"lat":"19.35","long":"-72.5833333"}},{"country":"ht","city":"Bois Blanc","coordinates":{"lat":"19.1833333","long":"-71.7166667"}},{"country":"ht","city":"Bois Blanc","coordinates":{"lat":"19.5333333","long":"-72.0833333"}},{"country":"ht","city":"Bois Blanc","coordinates":{"lat":"18.5333333","long":"-72.1333333"}},{"country":"ht","city":"Bois Blanc","coordinates":{"lat":"18.2833333","long":"-73.4333333"}},{"country":"ht","city":"Bois","coordinates":{"lat":"18.9461111","long":"-72.5038889"}},{"country":"ht","city":"Bois Boulalile","coordinates":{"lat":"18.45","long":"-72.1833333"}},{"country":"ht","city":"Bois Boulé","coordinates":{"lat":"19.6","long":"-72.6666667"}},{"country":"ht","city":"Bois Boulé","coordinates":{"lat":"18.4344444","long":"-73.6019444"}},{"country":"ht","city":"Bois Boutou","coordinates":{"lat":"18.05","long":"-73.5833333"}},{"country":"ht","city":"Bois Brûlé","coordinates":{"lat":"18.7833333","long":"-72.8833333"}},{"country":"ht","city":"Bois Cabrit","coordinates":{"lat":"18.4","long":"-73.1833333"}},{"country":"ht","city":"Bois Caché","coordinates":{"lat":"18.4833333","long":"-72.35"}},{"country":"ht","city":"Bois Capable","coordinates":{"lat":"18.3833333","long":"-72.4333333"}},{"country":"ht","city":"Bois Carré","coordinates":{"lat":"19.1166667","long":"-72.45"}},{"country":"ht","city":"Bois Carré","coordinates":{"lat":"18.4333333","long":"-72.6833333"}},{"country":"ht","city":"Bois Cassé","coordinates":{"lat":"18.2802778","long":"-72.5208333"}},{"country":"ht","city":"Bois Cerceuil","coordinates":{"lat":"18.3313889","long":"-72.5586111"}},{"country":"ht","city":"Bois Cercueil","coordinates":{"lat":"18.35","long":"-72.5666667"}},{"country":"ht","city":"Bois Chadeque","coordinates":{"lat":"18.2333333","long":"-71.9333333"}},{"country":"ht","city":"Bois Chandel","coordinates":{"lat":"19.1","long":"-72.5166667"}},{"country":"ht","city":"Bois Chandel","coordinates":{"lat":"18.45","long":"-72.9333333"}},{"country":"ht","city":"Bois Chandelle","coordinates":{"lat":"20.05","long":"-72.9166667"}},{"country":"ht","city":"Bois Chandelle","coordinates":{"lat":"18.45","long":"-71.95"}},{"country":"ht","city":"Bois Chèche","coordinates":{"lat":"19.3166667","long":"-72.1833333"}},{"country":"ht","city":"Bois Chrétien","coordinates":{"lat":"19.45","long":"-72.2833333"}},{"country":"ht","city":"Bois Clair","coordinates":{"lat":"18.3333333","long":"-74.0333333"}},{"country":"ht","city":"Bois Cochon","coordinates":{"lat":"18.7669444","long":"-71.8155556"}},{"country":"ht","city":"Bois Cochon","coordinates":{"lat":"19.3666667","long":"-72.0166667"}},{"country":"ht","city":"Bois Cochon","coordinates":{"lat":"18.4666667","long":"-72.3666667"}},{"country":"ht","city":"Bois Cochon","coordinates":{"lat":"18.3333333","long":"-74.1833333"}},{"country":"ht","city":"Bois Cochon","coordinates":{"lat":"18.3233333","long":"-72.7180556"}},{"country":"ht","city":"Bois Codéine","coordinates":{"lat":"18.25","long":"-71.7666667"}},{"country":"ht","city":"Bois Codine","coordinates":{"lat":"18.25","long":"-71.7666667"}},{"country":"ht","city":"Bois Cola","coordinates":{"lat":"18.4666667","long":"-72.6"}},{"country":"ht","city":"Bois Comte","coordinates":{"lat":"19.1666667","long":"-72.35"}},{"country":"ht","city":"Bois Conte","coordinates":{"lat":"18.2911111","long":"-72.0516667"}},{"country":"ht","city":"Bois Couleuvres","coordinates":{"lat":"19.2833333","long":"-71.9333333"}},{"country":"ht","city":"Bois Coupet","coordinates":{"lat":"18.3833333","long":"-72.1333333"}},{"country":"ht","city":"Bois Crabe","coordinates":{"lat":"18.4141667","long":"-72.6819444"}},{"country":"ht","city":"Bois d'Avril","coordinates":{"lat":"18.45","long":"-72.3333333"}},{"country":"ht","city":"Bois d'Eau","coordinates":{"lat":"19.7666667","long":"-72.4166667"}},{"country":"ht","city":"Bois Debois","coordinates":{"lat":"18.3","long":"-72.7666667"}},{"country":"ht","city":"Bois Debout","coordinates":{"lat":"19.3666667","long":"-72.4166667"}},{"country":"ht","city":"Bois Debout","coordinates":{"lat":"18.5","long":"-73.7833333"}},{"country":"ht","city":"Bois Debout","coordinates":{"lat":"18.3833333","long":"-72.0666667"}},{"country":"ht","city":"Bois Debout","coordinates":{"lat":"18.2666667","long":"-72.2833333"}},{"country":"ht","city":"Bois de Chêne","coordinates":{"lat":"19.65","long":"-72.8"}},{"country":"ht","city":"Bois de Chêne","coordinates":{"lat":"18.2666667","long":"-74.1"}},{"country":"ht","city":"Bois Dehors","coordinates":{"lat":"19.3333333","long":"-72.65"}},{"country":"ht","city":"Bois Délai","coordinates":{"lat":"18.35","long":"-74.1166667"}},{"country":"ht","city":"Bois de Lance","coordinates":{"lat":"19.2333333","long":"-72.35"}},{"country":"ht","city":"Bois de Lance","coordinates":{"lat":"19.15","long":"-72.3166667"}},{"country":"ht","city":"Bois de Lance","coordinates":{"lat":"19.4166667","long":"-72.05"}},{"country":"ht","city":"Bois de Lance","coordinates":{"lat":"18.3166667","long":"-72.0166667"}},{"country":"ht","city":"Bois de Laurence","coordinates":{"lat":"19.3166667","long":"-71.8833333"}},{"country":"ht","city":"Bois de Lenthel","coordinates":{"lat":"18.2666667","long":"-72.1833333"}},{"country":"ht","city":"Bois Dentelle","coordinates":{"lat":"18.2666667","long":"-72.15"}},{"country":"ht","city":"Bois des Hommes","coordinates":{"lat":"18.3166667","long":"-72.05"}},{"country":"ht","city":"Bois Dêtre","coordinates":{"lat":"18.4666667","long":"-72.0833333"}},{"country":"ht","city":"Bois d'Homme","coordinates":{"lat":"19.5666667","long":"-72.5"}},{"country":"ht","city":"Bois d'Huis","coordinates":{"lat":"19.5483333","long":"-72.7597222"}},{"country":"ht","city":"Bois Dimanche","coordinates":{"lat":"19.5166667","long":"-72.1166667"}},{"country":"ht","city":"Boisdine","coordinates":{"lat":"18.3333333","long":"-73.3333333"}},{"country":"ht","city":"Bois D'ohme","coordinates":{"lat":"18.8152778","long":"-72.91"}},{"country":"ht","city":"Bois d'Orme","coordinates":{"lat":"19.3","long":"-71.9666667"}},{"country":"ht","city":"Bois d'Orme","coordinates":{"lat":"19.5666667","long":"-72.5"}},{"country":"ht","city":"Bois d'Orme","coordinates":{"lat":"18.4666667","long":"-72.4166667"}},{"country":"ht","city":"Bois d'Orme","coordinates":{"lat":"18.2166667","long":"-73.1833333"}},{"country":"ht","city":"Bois d'Orme","coordinates":{"lat":"18.1833333","long":"-71.7833333"}},{"country":"ht","city":"Bois Dumay","coordinates":{"lat":"18.4833333","long":"-72.1833333"}},{"country":"ht","city":"Bois Dune","coordinates":{"lat":"18.75","long":"-72.2"}},{"country":"ht","city":"Bois Duval","coordinates":{"lat":"18.6333333","long":"-74.3166667"}},{"country":"ht","city":"Boise Dine","coordinates":{"lat":"18.8166667","long":"-71.8333333"}},{"country":"ht","city":"Boise Sec","coordinates":{"lat":"18.5333333","long":"-74.0666667"}},{"country":"ht","city":"Bois Étienne","coordinates":{"lat":"19.1166667","long":"-72.6166667"}},{"country":"ht","city":"Bois Galette","coordinates":{"lat":"18.5166667","long":"-72.0833333"}},{"country":"ht","city":"Bois Gamelle","coordinates":{"lat":"19.4","long":"-71.8666667"}},{"country":"ht","city":"Bois Gariman","coordinates":{"lat":"18.5833333","long":"-72.1333333"}},{"country":"ht","city":"Bois Geneste","coordinates":{"lat":"18.4833333","long":"-74.0166667"}},{"country":"ht","city":"Bois Georges","coordinates":{"lat":"19.4","long":"-71.9833333"}},{"country":"ht","city":"Bois Gérard","coordinates":{"lat":"18.4247222","long":"-73.5622222"}},{"country":"ht","city":"Bois Gérard","coordinates":{"lat":"18.3","long":"-73.9"}},{"country":"ht","city":"Bois Guèpe","coordinates":{"lat":"19.1833333","long":"-71.6833333"}},{"country":"ht","city":"Bois Jaune","coordinates":{"lat":"18.8","long":"-71.85"}},{"country":"ht","city":"Bois Jaune","coordinates":{"lat":"19.4666667","long":"-72.0833333"}},{"country":"ht","city":"Bois Jeanay","coordinates":{"lat":"18.4","long":"-72.8166667"}},{"country":"ht","city":"Bois Joli","coordinates":{"lat":"18.9538889","long":"-72.05"}},{"country":"ht","city":"Bois Joly","coordinates":{"lat":"18.9538889","long":"-72.05"}},{"country":"ht","city":"Bois Joly","coordinates":{"lat":"19.6833333","long":"-72.55"}},{"country":"ht","city":"Bois Jour","coordinates":{"lat":"19.1833333","long":"-72.4833333"}},{"country":"ht","city":"Bois Jumeau","coordinates":{"lat":"19.4833333","long":"-72.2833333"}},{"country":"ht","city":"Bois La Haut","coordinates":{"lat":"18.4166667","long":"-72.6833333"}},{"country":"ht","city":"Bois Lambert","coordinates":{"lat":"18.5333333","long":"-74.0166667"}},{"country":"ht","city":"Bois Lame","coordinates":{"lat":"18.3522222","long":"-72.1258333"}},{"country":"ht","city":"Bois Lance","coordinates":{"lat":"18.7833333","long":"-71.8166667"}},{"country":"ht","city":"Bois Lance","coordinates":{"lat":"18.4","long":"-72.0666667"}},{"country":"ht","city":"Bois Landry","coordinates":{"lat":"18.1833333","long":"-73.8333333"}},{"country":"ht","city":"Bois l'Anse","coordinates":{"lat":"18.5","long":"-74.2833333"}},{"country":"ht","city":"Bois Larue","coordinates":{"lat":"18.2597222","long":"-72.5186111"}},{"country":"ht","city":"Bois Laurence","coordinates":{"lat":"19.3166667","long":"-71.8833333"}},{"country":"ht","city":"Bois l'Autre Bord","coordinates":{"lat":"18.4833333","long":"-72.0666667"}},{"country":"ht","city":"Bois La Ville","coordinates":{"lat":"19.1666667","long":"-72.5333333"}},{"country":"ht","city":"Bois Léger","coordinates":{"lat":"18.5713889","long":"-72.1233333"}},{"country":"ht","city":"Bois l'Église","coordinates":{"lat":"19.6333333","long":"-71.9666667"}},{"country":"ht","city":"Bois Lére","coordinates":{"lat":"19.05","long":"-72.75"}},{"country":"ht","city":"Bois l'État","coordinates":{"lat":"19.1","long":"-72.6333333"}},{"country":"ht","city":"Bois l'État","coordinates":{"lat":"18.7333333","long":"-72.1666667"}},{"country":"ht","city":"Bois l'État","coordinates":{"lat":"18.7833333","long":"-72.3666667"}},{"country":"ht","city":"Bois l'État","coordinates":{"lat":"18.25","long":"-73.7166667"}},{"country":"ht","city":"Bois l'État","coordinates":{"lat":"18.1833333","long":"-72.6666667"}},{"country":"ht","city":"Bois Louroux","coordinates":{"lat":"19.5333333","long":"-71.9"}},{"country":"ht","city":"Bois Maçon","coordinates":{"lat":"18.4666667","long":"-72.3666667"}},{"country":"ht","city":"Bois Magot","coordinates":{"lat":"19.0666667","long":"-72.1666667"}},{"country":"ht","city":"Bois Mahot","coordinates":{"lat":"18.4166667","long":"-74.2833333"}},{"country":"ht","city":"Bois Major","coordinates":{"lat":"18.8","long":"-71.85"}},{"country":"ht","city":"Bois Marchand","coordinates":{"lat":"19.4833333","long":"-72.6666667"}},{"country":"ht","city":"Bois Marguerite","coordinates":{"lat":"18.25","long":"-74.1"}},{"country":"ht","city":"Bois Marie","coordinates":{"lat":"19.2333333","long":"-72.4666667"}},{"country":"ht","city":"Bois Marie","coordinates":{"lat":"19.2333333","long":"-71.7666667"}},{"country":"ht","city":"Bois Marseille","coordinates":{"lat":"18.7333333","long":"-72.1666667"}},{"country":"ht","city":"Bois Martin","coordinates":{"lat":"18.7333333","long":"-71.9333333"}},{"country":"ht","city":"Bois Michel","coordinates":{"lat":"19.1333333","long":"-72.3166667"}},{"country":"ht","city":"Bois Miel","coordinates":{"lat":"18.8166667","long":"-71.8833333"}},{"country":"ht","city":"Bois Milot","coordinates":{"lat":"19.8666667","long":"-72.9166667"}},{"country":"ht","city":"Bois Misquette","coordinates":{"lat":"18.4833333","long":"-74.0"}},{"country":"ht","city":"Bois Mouton","coordinates":{"lat":"19.5666667","long":"-71.9166667"}},{"country":"ht","city":"Bois Mulet","coordinates":{"lat":"18.3833333","long":"-74.2666667"}},{"country":"ht","city":"Bois Nago","coordinates":{"lat":"19.4","long":"-71.8"}},{"country":"ht","city":"Boisneau","coordinates":{"lat":"18.4533333","long":"-73.6805556"}},{"country":"ht","city":"Bois Negesse","coordinates":{"lat":"19.05","long":"-72.1"}},{"country":"ht","city":"Bois Nègre Marron","coordinates":{"lat":"18.8902778","long":"-72.55"}},{"country":"ht","city":"Bois Négresse","coordinates":{"lat":"18.3644444","long":"-71.7669444"}},{"country":"ht","city":"Bois Neptune","coordinates":{"lat":"18.6666667","long":"-71.8666667"}},{"country":"ht","city":"Bois Neuf","coordinates":{"lat":"18.9461111","long":"-72.5038889"}},{"country":"ht","city":"Bois Neuf","coordinates":{"lat":"19.15","long":"-72.3166667"}},{"country":"ht","city":"Bois Neuf","coordinates":{"lat":"18.4188889","long":"-73.55"}},{"country":"ht","city":"Bois-Neuf","coordinates":{"lat":"18.5666667","long":"-73.5833333"}},{"country":"ht","city":"Bois Neuf","coordinates":{"lat":"18.6166667","long":"-74.0"}},{"country":"ht","city":"Bois Neuf","coordinates":{"lat":"19.75","long":"-72.5333333"}},{"country":"ht","city":"Bois Neuf","coordinates":{"lat":"19.35","long":"-71.7833333"}},{"country":"ht","city":"Bois Neuf","coordinates":{"lat":"18.3666667","long":"-71.9166667"}},{"country":"ht","city":"Bois-Neuf","coordinates":{"lat":"18.3833333","long":"-71.9"}},{"country":"ht","city":"Bois Neuf","coordinates":{"lat":"18.5333333","long":"-72.2666667"}},{"country":"ht","city":"Bois Neut","coordinates":{"lat":"19.15","long":"-72.3166667"}},{"country":"ht","city":"Bois Nicolas","coordinates":{"lat":"18.5858333","long":"-72.1497222"}},{"country":"ht","city":"Bois Noir","coordinates":{"lat":"19.5833333","long":"-72.5166667"}},{"country":"ht","city":"Bois Pangnol","coordinates":{"lat":"19.5166667","long":"-72.5166667"}},{"country":"ht","city":"Bois Pangnol","coordinates":{"lat":"18.2666667","long":"-73.9333333"}},{"country":"ht","city":"Bois Paul","coordinates":{"lat":"18.45","long":"-72.2166667"}},{"country":"ht","city":"Bois Paul","coordinates":{"lat":"18.3238889","long":"-72.0711111"}},{"country":"ht","city":"Bois Pérignon","coordinates":{"lat":"18.1833333","long":"-73.8333333"}},{"country":"ht","city":"Bois Pérou","coordinates":{"lat":"19.0833333","long":"-72.3"}},{"country":"ht","city":"Bois Pignon","coordinates":{"lat":"19.5166667","long":"-72.45"}},{"country":"ht","city":"Bois Pin","coordinates":{"lat":"19.4666667","long":"-72.2666667"}},{"country":"ht","city":"Bois-Pin","coordinates":{"lat":"18.75","long":"-71.8166667"}},{"country":"ht","city":"Bois Pin","coordinates":{"lat":"18.85","long":"-71.9"}},{"country":"ht","city":"Bois-Pin","coordinates":{"lat":"18.4","long":"-73.9666667"}},{"country":"ht","city":"Bois Pin","coordinates":{"lat":"19.4833333","long":"-72.0333333"}},{"country":"ht","city":"Bois Pin","coordinates":{"lat":"18.4333333","long":"-71.9666667"}},{"country":"ht","city":"Bois Pin","coordinates":{"lat":"18.3666667","long":"-74.0166667"}},{"country":"ht","city":"Bois Pin","coordinates":{"lat":"18.2666667","long":"-72.1166667"}},{"country":"ht","city":"Bois Pin Boule","coordinates":{"lat":"18.3833333","long":"-74.0833333"}},{"country":"ht","city":"Bois Pindri","coordinates":{"lat":"19.3333333","long":"-71.9333333"}},{"country":"ht","city":"Bois Pin Gommé","coordinates":{"lat":"18.7833333","long":"-71.8"}},{"country":"ht","city":"Boispin Guêpe","coordinates":{"lat":"19.1833333","long":"-71.6833333"}},{"country":"ht","city":"Bois Pin Jean Noël","coordinates":{"lat":"18.3333333","long":"-72.2666667"}},{"country":"ht","city":"Bois Pin L'Orage","coordinates":{"lat":"18.9166667","long":"-71.8"}},{"country":"ht","city":"Bois Pin Marron","coordinates":{"lat":"18.3333333","long":"-72.1833333"}},{"country":"ht","city":"Bois Pin Nègre","coordinates":{"lat":"18.9333333","long":"-71.85"}},{"country":"ht","city":"Bois Pinpince","coordinates":{"lat":"18.3166667","long":"-72.2"}},{"country":"ht","city":"Bois Pin Pose","coordinates":{"lat":"18.9333333","long":"-71.8166667"}},{"country":"ht","city":"Bois Pins","coordinates":{"lat":"18.8666667","long":"-71.8833333"}},{"country":"ht","city":"Bois Pins","coordinates":{"lat":"18.3502778","long":"-72.0755556"}},{"country":"ht","city":"Bois Pin Tombé","coordinates":{"lat":"18.4166667","long":"-72.2333333"}},{"country":"ht","city":"Bois Piquant","coordinates":{"lat":"18.45","long":"-74.1833333"}},{"country":"ht","city":"Bois Pourri","coordinates":{"lat":"19.7333333","long":"-73.3166667"}},{"country":"ht","city":"Bois Poux","coordinates":{"lat":"19.4166667","long":"-71.8166667"}},{"country":"ht","city":"Bois Riou","coordinates":{"lat":"19.7666667","long":"-72.3666667"}},{"country":"ht","city":"Bois Rond","coordinates":{"lat":"18.3333333","long":"-73.35"}},{"country":"ht","city":"Boisrond","coordinates":{"lat":"18.35","long":"-73.8333333"}},{"country":"ht","city":"Bois Rouge","coordinates":{"lat":"19.9166667","long":"-72.8333333"}},{"country":"ht","city":"Bois Rouge","coordinates":{"lat":"18.7833333","long":"-71.9"}},