[{"country":"sa","city":"Aalia","coordinates":{"lat":"19.619748","long":"41.971411"}},{"country":"sa","city":"Aba ad Dud","coordinates":{"lat":"27.025827","long":"44.073113"}},{"country":"sa","city":"Aba al Hiran","coordinates":{"lat":"27.051129","long":"40.948246"}},{"country":"sa","city":"Aba al Kibash","coordinates":{"lat":"24.797022","long":"46.430446"}},{"country":"sa","city":"Aba ar Ruwath","coordinates":{"lat":"30.456319","long":"42.005962"}},{"country":"sa","city":"Aba as Su`ud","coordinates":{"lat":"17.466667","long":"44.1"}},{"country":"sa","city":"Abab","coordinates":{"lat":"25.25","long":"44.6"}},{"country":"sa","city":"Ab-ad-Dud","coordinates":{"lat":"27.025827","long":"44.073113"}},{"country":"sa","city":"Abalah","coordinates":{"lat":"18.733333","long":"42.266667"}},{"country":"sa","city":"Abal Dud","coordinates":{"lat":"27.025827","long":"44.073113"}},{"country":"sa","city":"Abaqaiq","coordinates":{"lat":"25.937103","long":"49.677613"}},{"country":"sa","city":"Abarahee at Taybi","coordinates":{"lat":"23.966667","long":"45.033333"}},{"country":"sa","city":"Abar el-Shifaiya","coordinates":{"lat":"23.822608","long":"39.135681"}},{"country":"sa","city":"Aba Sa`ud","coordinates":{"lat":"17.466667","long":"44.1"}},{"country":"sa","city":"`Abassah","coordinates":{"lat":"21.131878","long":"40.581478"}},{"country":"sa","city":"`Abd al Mutliq","coordinates":{"lat":"23.922197","long":"46.955926"}},{"country":"sa","city":"Abd Mutliq","coordinates":{"lat":"23.922197","long":"46.955926"}},{"country":"sa","city":"Abha","coordinates":{"lat":"18.216389","long":"42.505278"}},{"country":"sa","city":"Abhur al Janubiyah","coordinates":{"lat":"21.68231","long":"39.096272"}},{"country":"sa","city":"Abi `Arish","coordinates":{"lat":"16.968872","long":"42.832512"}},{"country":"sa","city":"Abkayk","coordinates":{"lat":"25.937103","long":"49.677613"}},{"country":"sa","city":"Abqaik","coordinates":{"lat":"25.937103","long":"49.677613"}},{"country":"sa","city":"Abqaiq","coordinates":{"lat":"25.937103","long":"49.677613"}},{"country":"sa","city":"Abqayq","coordinates":{"lat":"25.937103","long":"49.677613"}},{"country":"sa","city":"Abraqiyah","coordinates":{"lat":"24.491944","long":"46.035"}},{"country":"sa","city":"`Absiya","coordinates":{"lat":"17.264653","long":"43.118969"}},{"country":"sa","city":"`Absiyah","coordinates":{"lat":"17.264653","long":"43.118969"}},{"country":"sa","city":"Abu `Alaq","coordinates":{"lat":"24.816667","long":"38.783333"}},{"country":"sa","city":"Abu al `Arish","coordinates":{"lat":"16.968872","long":"42.832512"}},{"country":"sa","city":"Abu al Kibash","coordinates":{"lat":"24.817948","long":"46.474234"}},{"country":"sa","city":"Abu al Qa`a'id","coordinates":{"lat":"17.271367","long":"42.607708"}},{"country":"sa","city":"Abu al Qa`ayid","coordinates":{"lat":"17.271367","long":"42.607708"}},{"country":"sa","city":"Abu an Na`am","coordinates":{"lat":"25.228056","long":"38.828333"}},{"country":"sa","city":"Abu `Arish","coordinates":{"lat":"16.968872","long":"42.832512"}},{"country":"sa","city":"Abu ar Radif","coordinates":{"lat":"16.618547","long":"43.131197"}},{"country":"sa","city":"Abu `Ashirah","coordinates":{"lat":"24.531944","long":"43.582222"}},{"country":"sa","city":"Abu as Suwadi","coordinates":{"lat":"19.45","long":"40.916667"}},{"country":"sa","city":"Abu at Tuyur","coordinates":{"lat":"17.159321","long":"42.499816"}},{"country":"sa","city":"Abu Dhiba","coordinates":{"lat":"23.198874","long":"39.55367"}},{"country":"sa","city":"Abu Diba`","coordinates":{"lat":"23.198874","long":"39.55367"}},{"country":"sa","city":"Abu Diha`","coordinates":{"lat":"23.198874","long":"39.55367"}},{"country":"sa","city":"Abu Duba`","coordinates":{"lat":"23.198874","long":"39.55367"}},{"country":"sa","city":"Abu Duda","coordinates":{"lat":"20.566667","long":"39.6"}},{"country":"sa","city":"Abu Dudah","coordinates":{"lat":"20.566667","long":"39.6"}},{"country":"sa","city":"Abu es Suadi","coordinates":{"lat":"19.45","long":"40.916667"}},{"country":"sa","city":"Abu Hadriya","coordinates":{"lat":"27.333333","long":"48.966667"}},{"country":"sa","city":"Abu Hadriya Camp","coordinates":{"lat":"27.333333","long":"48.966667"}},{"country":"sa","city":"Abu Hadriyah","coordinates":{"lat":"27.333333","long":"48.966667"}},{"country":"sa","city":"Abu Hajar A`la","coordinates":{"lat":"16.680925","long":"43.021126"}},{"country":"sa","city":"Abu Hajar al A`la","coordinates":{"lat":"16.680925","long":"43.021126"}},{"country":"sa","city":"Abu Hajar Ula","coordinates":{"lat":"16.682521","long":"43.055643"}},{"country":"sa","city":"Abu Hanash","coordinates":{"lat":"19.366667","long":"40.983333"}},{"country":"sa","city":"Abu Hanesh","coordinates":{"lat":"19.366667","long":"40.983333"}},{"country":"sa","city":"Abu Hasani","coordinates":{"lat":"21.730556","long":"39.783333"}},{"country":"sa","city":"Abu Hathrah","coordinates":{"lat":"17.916667","long":"43.383333"}},{"country":"sa","city":"Abu Hisani","coordinates":{"lat":"21.730556","long":"39.783333"}},{"country":"sa","city":"Abu `Irwah","coordinates":{"lat":"21.647778","long":"39.705556"}},{"country":"sa","city":"Abu Jassa","coordinates":{"lat":"25.866667","long":"44.216667"}},{"country":"sa","city":"Abu Jilal","coordinates":{"lat":"25.143952","long":"43.482521"}},{"country":"sa","city":"Abu Jissah","coordinates":{"lat":"25.866667","long":"44.216667"}},{"country":"sa","city":"Abu Jusaysah","coordinates":{"lat":"25.521774","long":"42.671132"}},{"country":"sa","city":"Abu Khusayfa'","coordinates":{"lat":"25.764784","long":"45.849252"}},{"country":"sa","city":"Abu Kirsh","coordinates":{"lat":"16.683333","long":"43.033333"}},{"country":"sa","city":"Abul Kabash","coordinates":{"lat":"24.817948","long":"46.474234"}},{"country":"sa","city":"Abu Makhruq","coordinates":{"lat":"24.783056","long":"46.635278"}},{"country":"sa","city":"Abu Maragh","coordinates":{"lat":"21.529512","long":"39.791099"}},{"country":"sa","city":"Abu Ma`raj","coordinates":{"lat":"17.203004","long":"42.915172"}},{"country":"sa","city":"Abu Ma`rij","coordinates":{"lat":"17.203004","long":"42.915172"}},{"country":"sa","city":"Abu Markha","coordinates":{"lat":"25.116667","long":"38.25"}},{"country":"sa","city":"Abu Markhah","coordinates":{"lat":"25.116667","long":"38.25"}},{"country":"sa","city":"Abu Marwa","coordinates":{"lat":"25.866667","long":"43.4"}},{"country":"sa","city":"Abu Marwah","coordinates":{"lat":"25.866667","long":"43.4"}},{"country":"sa","city":"Abumnura","coordinates":{"lat":"17.05","long":"42.883333"}},{"country":"sa","city":"Abu Nakhla","coordinates":{"lat":"24.983333","long":"44.716667"}},{"country":"sa","city":"Abu Nakhlah","coordinates":{"lat":"24.983333","long":"44.716667"}},{"country":"sa","city":"Abu Qa`ar","coordinates":{"lat":"28.384341","long":"45.957103"}},{"country":"sa","city":"Abu Qirfah","coordinates":{"lat":"21.772513","long":"39.679223"}},{"country":"sa","city":"Abu Radif","coordinates":{"lat":"16.618547","long":"43.131197"}},{"country":"sa","city":"Abu Rijum","coordinates":{"lat":"24.057316","long":"45.036145"}},{"country":"sa","city":"Abu Rubaiq","coordinates":{"lat":"23.728596","long":"39.75434"}},{"country":"sa","city":"Abu Rubayq","coordinates":{"lat":"23.728596","long":"39.75434"}},{"country":"sa","city":"Abu Rukab","coordinates":{"lat":"25.105726","long":"43.461992"}},{"country":"sa","city":"Abu Salama","coordinates":{"lat":"27.15","long":"35.783333"}},{"country":"sa","city":"Abu Salma","coordinates":{"lat":"27.15","long":"35.783333"}},{"country":"sa","city":"Abu Sawr","coordinates":{"lat":"29.032006","long":"44.422762"}},{"country":"sa","city":"Abu Sha`ib","coordinates":{"lat":"21.581341","long":"39.701447"}},{"country":"sa","city":"Abu Shaibana","coordinates":{"lat":"23.877029","long":"38.368889"}},{"country":"sa","city":"Abu Shaitana","coordinates":{"lat":"23.877029","long":"38.368889"}},{"country":"sa","city":"Abu Shauk","coordinates":{"lat":"20.016667","long":"42.6"}},{"country":"sa","city":"Abu Shauk","coordinates":{"lat":"20.883333","long":"39.366667"}},{"country":"sa","city":"Abu Shawk","coordinates":{"lat":"20.016667","long":"42.6"}},{"country":"sa","city":"Abu Shawk","coordinates":{"lat":"20.883333","long":"39.366667"}},{"country":"sa","city":"Abu Shaytanah","coordinates":{"lat":"23.877029","long":"38.368889"}},{"country":"sa","city":"Abu Sheitana","coordinates":{"lat":"23.877029","long":"38.368889"}},{"country":"sa","city":"Abu Shu`ayb","coordinates":{"lat":"21.581341","long":"39.701447"}},{"country":"sa","city":"Abu Sidayrah","coordinates":{"lat":"24.442778","long":"43.658056"}},{"country":"sa","city":"Abu Sulal","coordinates":{"lat":"22.633889","long":"41.3675"}},{"country":"sa","city":"Abu Talh","coordinates":{"lat":"25.426704","long":"42.8343"}},{"country":"sa","city":"Abu Tutah","coordinates":{"lat":"28.825872","long":"45.12515"}},{"country":"sa","city":"Abu `Urwah","coordinates":{"lat":"21.647778","long":"39.705556"}},{"country":"sa","city":"Abyar `Ali","coordinates":{"lat":"24.413283","long":"39.538306"}},{"country":"sa","city":"Ac-Chafe","coordinates":{"lat":"27.076955","long":"43.023196"}},{"country":"sa","city":"A`dabi","coordinates":{"lat":"17.233368","long":"42.941897"}},{"country":"sa","city":"Adaim","coordinates":{"lat":"26.183333","long":"44"}},{"country":"sa","city":"Adan","coordinates":{"lat":"25.852066","long":"44.226865"}},{"country":"sa","city":"Adaya","coordinates":{"lat":"17.165189","long":"42.550134"}},{"country":"sa","city":"Ad Da`abah","coordinates":{"lat":"20.25","long":"41.3"}},{"country":"sa","city":"Ad Dabbah","coordinates":{"lat":"25.993851","long":"44.136475"}},{"country":"sa","city":"Ad Dabbah","coordinates":{"lat":"21.723011","long":"39.84055"}},{"country":"sa","city":"Ad Dabbiyat al Janubiyat","coordinates":{"lat":"25.377127","long":"45.356365"}},{"country":"sa","city":"Ad Dabbiyat ash Shamaliyat","coordinates":{"lat":"25.411231","long":"45.324975"}},{"country":"sa","city":"Ad Dab`iyah","coordinates":{"lat":"24.098063","long":"47.171935"}},{"country":"sa","city":"Ad Dab`iyah","coordinates":{"lat":"30.062778","long":"40.116944"}},{"country":"sa","city":"Ad Dadiyah","coordinates":{"lat":"24.271389","long":"43.533333"}},{"country":"sa","city":"Ad Daff","coordinates":{"lat":"22.094503","long":"39.319371"}},{"country":"sa","city":"Ad Dafinah","coordinates":{"lat":"23.303562","long":"41.994897"}},{"country":"sa","city":"Ad Dafinan","coordinates":{"lat":"23.303562","long":"41.994897"}},{"country":"sa","city":"Ad Dagharir","coordinates":{"lat":"16.677648","long":"42.959213"}},{"country":"sa","city":"Ad Dahinah","coordinates":{"lat":"25.578728","long":"45.280929"}},{"country":"sa","city":"Ad Dahis","coordinates":{"lat":"18.057951","long":"42.990021"}},{"country":"sa","city":"Ad Dahlah","coordinates":{"lat":"25.930647","long":"43.671731"}},{"country":"sa","city":"Ad Dahw","coordinates":{"lat":"20.11195","long":"42.655341"}},{"country":"sa","city":"Ad Dahya'","coordinates":{"lat":"21.286667","long":"40.276667"}},{"country":"sa","city":"Ad Dakhilah","coordinates":{"lat":"25.624991","long":"45.570333"}},{"country":"sa","city":"Ad Dal`ah","coordinates":{"lat":"25.978727","long":"43.965196"}},{"country":"sa","city":"Ad Dalfa`ah","coordinates":{"lat":"26.320405","long":"43.675886"}},{"country":"sa","city":"Ad Dam","coordinates":{"lat":"20.468604","long":"44.78716"}},{"country":"sa","city":"Ad Dammam","coordinates":{"lat":"26.434417","long":"50.103263"}},{"country":"sa","city":"Ad Damthi","coordinates":{"lat":"25.381944","long":"44.461389"}},{"country":"sa","city":"Ad Darah","coordinates":{"lat":"27.002188","long":"41.447176"}},{"country":"sa","city":"Ad Dar al Bayda'","coordinates":{"lat":"24.562099","long":"46.763425"}},{"country":"sa","city":"Ad Dar al Bayda'","coordinates":{"lat":"21.366667","long":"40.333333"}},{"country":"sa","city":"Ad Dar as Sufla","coordinates":{"lat":"18.216667","long":"42.55"}},{"country":"sa","city":"Ad Darb","coordinates":{"lat":"18.028956","long":"43.120606"}},{"country":"sa","city":"Ad Darb","coordinates":{"lat":"17.72285","long":"42.252614"}},{"country":"sa","city":"Ad Dath","coordinates":{"lat":"25.579821","long":"43.15944"}},{"country":"sa","city":"Ad Dathir","coordinates":{"lat":"24.926764","long":"40.120063"}},{"country":"sa","city":"Ad Dawadami","coordinates":{"lat":"24.507719","long":"44.392367"}},{"country":"sa","city":"Ad Dawadimi","coordinates":{"lat":"24.507719","long":"44.392367"}},{"country":"sa","city":"Ad Dawh","coordinates":{"lat":"21.54978","long":"39.641518"}},{"country":"sa","city":"Ad Dawh al Kabir","coordinates":{"lat":"21.556276","long":"39.657903"}},{"country":"sa","city":"Ad Dawh as Saghir","coordinates":{"lat":"21.54978","long":"39.641518"}},{"country":"sa","city":"Ad Dawqah","coordinates":{"lat":"19.600942","long":"40.918492"}},{"country":"sa","city":"Ad Dhid","coordinates":{"lat":"18.05","long":"42.733333"}},{"country":"sa","city":"Ad Digayik","coordinates":{"lat":"19.26761","long":"42.074294"}},{"country":"sa","city":"Ad Dihalah","coordinates":{"lat":"25.401886","long":"43.408321"}},{"country":"sa","city":"Ad Dihasiyah","coordinates":{"lat":"21.435768","long":"40.532939"}},{"country":"sa","city":"Ad Dihwah","coordinates":{"lat":"24.181489","long":"45.886133"}},{"country":"sa","city":"Ad Dilam","coordinates":{"lat":"23.991459","long":"47.162655"}},{"country":"sa","city":"Ad Dilaymiyah","coordinates":{"lat":"26.029465","long":"43.276529"}},{"country":"sa","city":"Ad Dimasah","coordinates":{"lat":"26.424749","long":"42.214209"}},{"country":"sa","city":"Ad Dirah","coordinates":{"lat":"24.634444","long":"46.708056"}},{"country":"sa","city":"Ad Dir`iyah","coordinates":{"lat":"26.223494","long":"42.517913"}},{"country":"sa","city":"Ad Dir`iyah","coordinates":{"lat":"24.741835","long":"46.572477"}},{"country":"sa","city":"Ad Diriyah","coordinates":{"lat":"25.213016","long":"44.220632"}},{"country":"sa","city":"Ad Dirs","coordinates":{"lat":"21.761065","long":"39.876672"}},{"country":"sa","city":"Ad Du`abah","coordinates":{"lat":"20.25","long":"41.3"}},{"country":"sa","city":"Ad Dubay`ah","coordinates":{"lat":"24.098063","long":"47.171935"}},{"country":"sa","city":"Ad Dubayjah","coordinates":{"lat":"24.968672","long":"45.755396"}},{"country":"sa","city":"Ad Dubayyah","coordinates":{"lat":"22.424722","long":"39.446111"}},{"country":"sa","city":"Ad Dubbat","coordinates":{"lat":"24.670556","long":"46.723333"}},{"country":"sa","city":"Ad Dubiyah","coordinates":{"lat":"25.6","long":"45.766667"}},{"country":"sa","city":"Ad Duhu","coordinates":{"lat":"23.815925","long":"39.650145"}},{"country":"sa","city":"Ad Dulaymiyah","coordinates":{"lat":"26.029465","long":"43.276529"}},{"country":"sa","city":"Ad Dulu`","coordinates":{"lat":"24.768889","long":"39.540833"}},{"country":"sa","city":"Ad Dumayriyah","coordinates":{"lat":"23.988158","long":"40.369986"}},{"country":"sa","city":"Ad Duqah","coordinates":{"lat":"19.600942","long":"40.918492"}},{"country":"sa","city":"Ad Dur","coordinates":{"lat":"21.818635","long":"39.758802"}},{"country":"sa","city":"Ad Durayhamiyah","coordinates":{"lat":"24.588611","long":"46.693056"}},{"country":"sa","city":"Ad Duray`iyah","coordinates":{"lat":"16.584167","long":"42.843056"}},{"country":"sa","city":"Ad Dur`iyah","coordinates":{"lat":"16.584167","long":"42.843056"}},{"country":"sa","city":"Ad Duwadami","coordinates":{"lat":"24.507719","long":"44.392367"}},{"country":"sa","city":"Ad Duwayd","coordinates":{"lat":"30.227745","long":"42.330583"}},{"country":"sa","city":"Ad Duwayhirah","coordinates":{"lat":"26.206204","long":"44.313187"}},{"country":"sa","city":"A`dhabi","coordinates":{"lat":"17.233368","long":"42.941897"}},{"country":"sa","city":"Adhaim","coordinates":{"lat":"26.59045","long":"42.470893"}},{"country":"sa","city":"Adh Dhabiyah","coordinates":{"lat":"25.6","long":"45.766667"}},{"country":"sa","city":"Adh Dhagharir","coordinates":{"lat":"16.677648","long":"42.959213"}},{"country":"sa","city":"Adh Dhanbah","coordinates":{"lat":"17.879166","long":"42.570741"}},{"country":"sa","city":"Adh Dharma","coordinates":{"lat":"24.607049","long":"46.12611"}},{"country":"sa","city":"Adh Dhibah","coordinates":{"lat":"21.046111","long":"40.703333"}},{"country":"sa","city":"Adh Dhibiyah","coordinates":{"lat":"26.062009","long":"43.161887"}},{"country":"sa","city":"Adh Dhibiyah","coordinates":{"lat":"24.505033","long":"45.967125"}},{"country":"sa","city":"Adh Dhirwayin","coordinates":{"lat":"20.5","long":"45.583333"}},{"country":"sa","city":"`Adimah ash Shamran","coordinates":{"lat":"19.716667","long":"41.933333"}},{"country":"sa","city":"`Adimat ash Shumran","coordinates":{"lat":"19.716667","long":"41.933333"}},{"country":"sa","city":"`Afif","coordinates":{"lat":"23.906503","long":"42.91724"}},{"country":"sa","city":"Aftara","coordinates":{"lat":"24.568056","long":"44.052222"}},{"country":"sa","city":"Ahad al Masarihah","coordinates":{"lat":"16.709845","long":"42.955002"}},{"country":"sa","city":"Ahad Marrat","coordinates":{"lat":"18.184528","long":"42.560166"}},{"country":"sa","city":"Ahlab-ad-Dud","coordinates":{"lat":"27.025827","long":"44.073113"}},{"country":"sa","city":"Ahl al Ash`af","coordinates":{"lat":"17.863257","long":"43.377871"}},{"country":"sa","city":"Ahl Dhuwaiyan","coordinates":{"lat":"20.5","long":"45.583333"}},{"country":"sa","city":"Ahl Hanaish","coordinates":{"lat":"20.466667","long":"45.583333"}},{"country":"sa","city":"Ahl Hunaysh","coordinates":{"lat":"20.466667","long":"45.583333"}},{"country":"sa","city":"Ahl Muhammad","coordinates":{"lat":"20.483333","long":"45.6"}},{"country":"sa","city":"Ahl Sufran","coordinates":{"lat":"17.942206","long":"43.309743"}},{"country":"sa","city":"Ahl Zurqan","coordinates":{"lat":"17.962283","long":"43.36364"}},{"country":"sa","city":"`Ainah","coordinates":{"lat":"17.983333","long":"42.266667"}},{"country":"sa","city":"`Ain","coordinates":{"lat":"19","long":"42.883333"}},{"country":"sa","city":"Ainain","coordinates":{"lat":"27.011222","long":"49.658255"}},{"country":"sa","city":"Ainan","coordinates":{"lat":"27.011222","long":"49.658255"}},{"country":"sa","city":"Ain Dar","coordinates":{"lat":"25.946111","long":"49.424722"}},{"country":"sa","city":"Ain ibn Fuhaid","coordinates":{"lat":"26.774525","long":"44.210791"}},{"country":"sa","city":"Ain Lebdah","coordinates":{"lat":"23.6","long":"45.45"}},{"country":"sa","city":"Ain Rig","coordinates":{"lat":"29.08199","long":"46.638197"}},{"country":"sa","city":"`Ainuna","coordinates":{"lat":"28.094455","long":"35.20027"}},{"country":"sa","city":"`Ajaj","coordinates":{"lat":"24.168006","long":"46.439494"}},{"country":"sa","city":"Ajama","coordinates":{"lat":"19.033333","long":"41.883333"}},{"country":"sa","city":"Ajam","coordinates":{"lat":"26.563242","long":"49.943309"}},{"country":"sa","city":"`Ajam","coordinates":{"lat":"16.783996","long":"43.21782"}},{"country":"sa","city":"Ajam al Qatif","coordinates":{"lat":"26.563242","long":"49.943309"}},{"country":"sa","city":"`Ajibah","coordinates":{"lat":"19.683333","long":"41.95"}},{"country":"sa","city":"`Ajjah","coordinates":{"lat":"18.716074","long":"41.353881"}},{"country":"sa","city":"`Ajmiya","coordinates":{"lat":"24.216667","long":"38.5"}},{"country":"sa","city":"`Ajmiyah","coordinates":{"lat":"24.216667","long":"38.5"}},{"country":"sa","city":"`Ajnuna'","coordinates":{"lat":"28.094455","long":"35.20027"}},{"country":"sa","city":"Ajyad","coordinates":{"lat":"21.420278","long":"39.836667"}},{"country":"sa","city":"`Akar","coordinates":{"lat":"21.659518","long":"40.070754"}},{"country":"sa","city":"`Akaz","coordinates":{"lat":"20.583333","long":"40.966667"}},{"country":"sa","city":"Al `Aba","coordinates":{"lat":"26.747196","long":"49.766821"}},{"country":"sa","city":"Al `Ababid","coordinates":{"lat":"21.334318","long":"40.431994"}},{"country":"sa","city":"`Alabah","coordinates":{"lat":"18.2","long":"42.45"}},{"country":"sa","city":"Al Abar","coordinates":{"lat":"21.094687","long":"39.911417"}},{"country":"sa","city":"Al `Abbas","coordinates":{"lat":"18.666667","long":"42.416667"}},{"country":"sa","city":"Al `Abbasiyah","coordinates":{"lat":"24.474508","long":"45.482854"}},{"country":"sa","city":"Al `Abdaliyah","coordinates":{"lat":"25.910565","long":"43.667518"}},{"country":"sa","city":"Al `Abidiyah","coordinates":{"lat":"17.969576","long":"43.13968"}},{"country":"sa","city":"Al `Abis","coordinates":{"lat":"18.066995","long":"43.16065"}},{"country":"sa","city":"Al Abtiyat","coordinates":{"lat":"26.412222","long":"43.976111"}},{"country":"sa","city":"Al `Adamah","coordinates":{"lat":"26.439167","long":"50.1"}},{"country":"sa","city":"Al `Adan","coordinates":{"lat":"25.848611","long":"44.227778"}},{"country":"sa","city":"Al ad Dahis","coordinates":{"lat":"18.057951","long":"42.990021"}},{"country":"sa","city":"Al ad Daramah","coordinates":{"lat":"17.937564","long":"43.150793"}},{"country":"sa","city":"Al ad Duwayh","coordinates":{"lat":"18.1","long":"42.7"}},{"country":"sa","city":"Al `Adhabah","coordinates":{"lat":"18.089762","long":"42.990267"}},{"country":"sa","city":"Al `Adhar","coordinates":{"lat":"23.981777","long":"47.152743"}},{"country":"sa","city":"Al Adh'dhah","coordinates":{"lat":"18.089762","long":"42.990267"}},{"country":"sa","city":"Al `Adhiriyah","coordinates":{"lat":"27.039167","long":"47.038889"}},{"country":"sa","city":"Al `Adl","coordinates":{"lat":"21.443611","long":"39.856111"}},{"country":"sa","city":"Al `Afus","coordinates":{"lat":"20.066667","long":"41.366667"}},{"country":"sa","city":"Al Agrabiyak","coordinates":{"lat":"26.296667","long":"50.198611"}},{"country":"sa","city":"Al Ahad al Masarihah","coordinates":{"lat":"16.709845","long":"42.955002"}},{"country":"sa","city":"Al Ahmar","coordinates":{"lat":"22.440408","long":"46.190246"}},{"country":"sa","city":"Al `A'id","coordinates":{"lat":"18.15","long":"43.105689"}},{"country":"sa","city":"Al Ajam","coordinates":{"lat":"26.563242","long":"49.943309"}},{"country":"sa","city":"Al Ajfar","coordinates":{"lat":"27.473055","long":"42.991004"}},{"country":"sa","city":"Al Ajfur","coordinates":{"lat":"27.473055","long":"42.991004"}},{"country":"sa","city":"Al `Ajjabat","coordinates":{"lat":"25.251038","long":"44.466639"}},{"country":"sa","city":"Al `Ajrumiyah","coordinates":{"lat":"29.956944","long":"43.081488"}},{"country":"sa","city":"Al `Akarah","coordinates":{"lat":"16.557866","long":"42.94648"}},{"country":"sa","city":"Al-`Akejla","coordinates":{"lat":"31.331764","long":"37.342815"}},{"country":"sa","city":"Al Akhal","coordinates":{"lat":"23.312925","long":"39.857536"}},{"country":"sa","city":"Al Akhdar","coordinates":{"lat":"24.205146","long":"45.103144"}},{"country":"sa","city":"Al `Alawah","coordinates":{"lat":"24.677199","long":"46.017535"}},{"country":"sa","city":"Al `Alayyah","coordinates":{"lat":"19.619748","long":"41.971411"}},{"country":"sa","city":"Al `Allayyah","coordinates":{"lat":"19.619748","long":"41.971411"}},{"country":"sa","city":"Al `Alyan","coordinates":{"lat":"19.925556","long":"41.437778"}},{"country":"sa","city":"Al `Ama'ir","coordinates":{"lat":"19.416667","long":"42.816667"}},{"country":"sa","city":"Al `Amal","coordinates":{"lat":"24.644722","long":"46.720833"}},{"country":"sa","city":"Al Amarah","coordinates":{"lat":"18.122039","long":"42.974536"}},{"country":"sa","city":"Al `Amar","coordinates":{"lat":"23.833333","long":"45.083333"}},{"country":"sa","city":"Al `Amayir","coordinates":{"lat":"19.416667","long":"42.816667"}},{"country":"sa","city":"Al Amghar","coordinates":{"lat":"30.836984","long":"37.954281"}},{"country":"sa","city":"Al Amira","coordinates":{"lat":"20.1","long":"41.433333"}},{"country":"sa","city":"Al `Amirah","coordinates":{"lat":"20.1","long":"41.433333"}},{"country":"sa","city":"Al `Amir","coordinates":{"lat":"18.083333","long":"42.8"}},{"country":"sa","city":"Al Amiriyah","coordinates":{"lat":"24.6075","long":"43.590556"}},{"country":"sa","city":"Al Amlah","coordinates":{"lat":"21.16965","long":"42.715262"}},{"country":"sa","city":"Al `Ammaj","coordinates":{"lat":"24.440221","long":"46.978201"}},{"country":"sa","city":"Al `Ammariya","coordinates":{"lat":"24.803054","long":"46.422568"}},{"country":"sa","city":"Al `Ammariyah","coordinates":{"lat":"24.803054","long":"46.422568"}},{"country":"sa","city":"Al `Amrah","coordinates":{"lat":"18.122039","long":"42.974536"}},{"country":"sa","city":"Al `Amudah","coordinates":{"lat":"25.371219","long":"42.878939"}},{"country":"sa","city":"Al Andalus","coordinates":{"lat":"24.735833","long":"46.771111"}},{"country":"sa","city":"Al an Nanisah","coordinates":{"lat":"18.059375","long":"42.943478"}},{"country":"sa","city":"`Alaqan","coordinates":{"lat":"29.150267","long":"35.402163"}},{"country":"sa","city":"Al `Aqaylah","coordinates":{"lat":"31.331764","long":"37.342815"}},{"country":"sa","city":"Al `Aqiq","coordinates":{"lat":"24.759167","long":"46.615278"}},{"country":"sa","city":"Al `Aqiq","coordinates":{"lat":"20.273584","long":"41.664341"}},{"country":"sa","city":"Al `Aqir","coordinates":{"lat":"25.106502","long":"42.645031"}},{"country":"sa","city":"Al `Aqrabiya","coordinates":{"lat":"26.296667","long":"50.198611"}},{"country":"sa","city":"Al `Aqrabiyah","coordinates":{"lat":"26.296667","long":"50.198611"}},{"country":"sa","city":"Al `Arfajiyah","coordinates":{"lat":"28.037668","long":"42.319019"}},{"country":"sa","city":"Al`Aridah","coordinates":{"lat":"17.039352","long":"43.085903"}},{"country":"sa","city":"Al `Arin","coordinates":{"lat":"18.233333","long":"42.533333"}},{"country":"sa","city":"Al `Arine","coordinates":{"lat":"18.566099","long":"43.390339"}},{"country":"sa","city":"Al `Arja'","coordinates":{"lat":"18.716074","long":"41.353881"}},{"country":"sa","city":"Al Artawi","coordinates":{"lat":"25.378218","long":"44.495612"}},{"country":"sa","city":"Al Artawi ash Shamali","coordinates":{"lat":"26.631544","long":"42.691322"}},{"country":"sa","city":"Al Artawiyah","coordinates":{"lat":"26.505258","long":"45.344373"}},{"country":"sa","city":"Al Asamilah","coordinates":{"lat":"16.867778","long":"42.7575"}},{"country":"sa","city":"Al Asamir","coordinates":{"lat":"25.64364","long":"43.22614"}},{"country":"sa","city":"Al Ash`ariyah","coordinates":{"lat":"24.358417","long":"43.001342"}},{"country":"sa","city":"Al `Ashash","coordinates":{"lat":"21.7","long":"39.9"}},{"country":"sa","city":"Al `Ashayr","coordinates":{"lat":"19.333333","long":"42.05"}},{"country":"sa","city":"Al Ashraf","coordinates":{"lat":"21.513562","long":"39.62042"}},{"country":"sa","city":"Al Ashraf","coordinates":{"lat":"17.863257","long":"43.377871"}},{"country":"sa","city":"Al Ashram","coordinates":{"lat":"18.262678","long":"42.573625"}},{"country":"sa","city":"Al ash Shaykh","coordinates":{"lat":"18.033333","long":"42.933333"}},{"country":"sa","city":"Al `Asibat","coordinates":{"lat":"24.852778","long":"39.378611"}},{"country":"sa","city":"Al `Assafiyah","coordinates":{"lat":"28.268695","long":"38.979144"}},{"country":"sa","city":"Al Assan","coordinates":{"lat":"18.25","long":"42.583333"}},{"country":"sa","city":"Al as Sawat","coordinates":{"lat":"18.116197","long":"42.971453"}},{"country":"sa","city":"Al Astral","coordinates":{"lat":"19.433333","long":"41.733333"}},{"country":"sa","city":"Al `Ataya","coordinates":{"lat":"17.165189","long":"42.550134"}},{"country":"sa","city":"Al `Ateefah","coordinates":{"lat":"19.333333","long":"42.05"}},{"country":"sa","city":"Al Athalah","coordinates":{"lat":"25.295918","long":"43.885346"}},{"country":"sa","city":"Al Athamah","coordinates":{"lat":"20.066667","long":"41.45"}},{"country":"sa","city":"Al Athlah","coordinates":{"lat":"25.295918","long":"43.885346"}},{"country":"sa","city":"Al Athlah","coordinates":{"lat":"27.464237","long":"41.529327"}},{"country":"sa","city":"Al Athlah","coordinates":{"lat":"17.169388","long":"42.52043"}},{"country":"sa","city":"Al at Tafilah","coordinates":{"lat":"17.983333","long":"43.116667"}},{"country":"sa","city":"Al `Attar","coordinates":{"lat":"25.56821","long":"45.638997"}},{"country":"sa","city":"Al at Tawil","coordinates":{"lat":"18.013458","long":"42.954411"}},{"country":"sa","city":"Al `Atyan","coordinates":{"lat":"23.472213","long":"46.829125"}},{"country":"sa","city":"Al `Awajiyah","coordinates":{"lat":"21.44769","long":"40.548422"}},{"country":"sa","city":"Al `Awali","coordinates":{"lat":"24.438117","long":"39.634915"}},{"country":"sa","city":"Al `Awali","coordinates":{"lat":"21.324722","long":"39.89"}},{"country":"sa","city":"Al `Awamiyah","coordinates":{"lat":"26.593611","long":"49.9875"}},{"country":"sa","city":"Al `Awazim","coordinates":{"lat":"22.846134","long":"41.156913"}},{"country":"sa","city":"Al-`Awda","coordinates":{"lat":"25.551642","long":"45.6776"}},{"country":"sa","city":"Al `Awdah","coordinates":{"lat":"25.551642","long":"45.6776"}},{"country":"sa","city":"Al `Awd","coordinates":{"lat":"26.233333","long":"44.1"}},{"country":"sa","city":"Al `Awd","coordinates":{"lat":"25.661111","long":"45.554444"}},{"country":"sa","city":"Al Awjam","coordinates":{"lat":"26.563242","long":"49.943309"}},{"country":"sa","city":"Al Awqair","coordinates":{"lat":"25.644361","long":"50.214533"}},{"country":"sa","city":"Al Awqayr","coordinates":{"lat":"25.644361","long":"50.214533"}},{"country":"sa","city":"Al `Awran","coordinates":{"lat":"17.85","long":"43.4"}},{"country":"sa","city":"Al `Awsajiyah","coordinates":{"lat":"26.064166","long":"44.132192"}},{"country":"sa","city":"Al `Awsajiyah","coordinates":{"lat":"26.816667","long":"41.683333"}},{"country":"sa","city":"Al Awsat","coordinates":{"lat":"24.373056","long":"46.438333"}},{"country":"sa","city":"Al `Awshaziyah","coordinates":{"lat":"24.004817","long":"45.019001"}},{"country":"sa","city":"Al `Awshaziyah","coordinates":{"lat":"26.816667","long":"41.683333"}},{"country":"sa","city":"Al `Ayayyah","coordinates":{"lat":"19.619748","long":"41.971411"}},{"country":"sa","city":"Al `Aydah","coordinates":{"lat":"18.516667","long":"42.183333"}},{"country":"sa","city":"Al `Ayfah","coordinates":{"lat":"17.834222","long":"43.409485"}},{"country":"sa","city":"Al `Ayid","coordinates":{"lat":"18.15","long":"43.105689"}},{"country":"sa","city":"Al `Ayinah","coordinates":{"lat":"19.201667","long":"41.223611"}},{"country":"sa","city":"Al Ayish","coordinates":{"lat":"18.353447","long":"42.842965"}},{"country":"sa","city":"Al `Ayn","coordinates":{"lat":"22.891389","long":"40.583611"}},{"country":"sa","city":"Al `Ayn","coordinates":{"lat":"24.080464","long":"46.86993"}},{"country":"sa","city":"Al `Ayn","coordinates":{"lat":"19","long":"42.883333"}},{"country":"sa","city":"Al `Ayn","coordinates":{"lat":"19.925556","long":"41.437778"}},{"country":"sa","city":"Al `Ayn al Bayda'","coordinates":{"lat":"31.156798","long":"37.626176"}},{"country":"sa","city":"Al `Ays","coordinates":{"lat":"25.063488","long":"38.108743"}},{"country":"sa","city":"Al `Aysh","coordinates":{"lat":"18.353447","long":"42.842965"}},{"country":"sa","city":"Al `Aytaliyah","coordinates":{"lat":"26.565833","long":"47.070805"}},{"country":"sa","city":"Al `Azamiyah","coordinates":{"lat":"24.511944","long":"43.583056"}},{"country":"sa","city":"Al `Azazah","coordinates":{"lat":"18.133333","long":"42.65"}},{"country":"sa","city":"Al `Aziziyah","coordinates":{"lat":"26.178639","long":"50.201062"}},{"country":"sa","city":"Al `Aziziyah","coordinates":{"lat":"24.584167","long":"46.78"}},{"country":"sa","city":"Al `Aziziyah","coordinates":{"lat":"21.404573","long":"39.870718"}},{"country":"sa","city":"Al Ba`a'ith","coordinates":{"lat":"26.025638","long":"41.804102"}},{"country":"sa","city":"`Alba'","coordinates":{"lat":"25.486515","long":"43.846027"}},{"country":"sa","city":"Al Ba`ayith","coordinates":{"lat":"26.025638","long":"41.804102"}},{"country":"sa","city":"Al Bada'i`","coordinates":{"lat":"27.445612","long":"42.981278"}},{"country":"sa","city":"Al Bada'i` al `Ulya","coordinates":{"lat":"25.961056","long":"43.697417"}},{"country":"sa","city":"Al Bada'i` al Wusta","coordinates":{"lat":"25.998346","long":"43.731181"}},{"country":"sa","city":"Al Bad`","coordinates":{"lat":"24.207468","long":"47.274824"}},{"country":"sa","city":"Al Bad`","coordinates":{"lat":"28.474843","long":"35.014729"}},{"country":"sa","city":"Al Bad` al Qadim","coordinates":{"lat":"24.188452","long":"47.267077"}},{"country":"sa","city":"Al Badawi","coordinates":{"lat":"16.633198","long":"42.864934"}},{"country":"sa","city":"Al Badi`ah","coordinates":{"lat":"24.476117","long":"46.405724"}},{"country":"sa","city":"Al Badi`","coordinates":{"lat":"22.021481","long":"46.567451"}},{"country":"sa","city":"Al Badi'","coordinates":{"lat":"23.007222","long":"44.136111"}},{"country":"sa","city":"Al Badi`","coordinates":{"lat":"16.993056","long":"42.773056"}},{"country":"sa","city":"Al Badi'","coordinates":{"lat":"28.474843","long":"35.014729"}},{"country":"sa","city":"Al Badiriyah","coordinates":{"lat":"22.921531","long":"41.637157"}},{"country":"sa","city":"Al Badiyah","coordinates":{"lat":"26.431667","long":"50.096111"}},{"country":"sa","city":"Al Badiyi`","coordinates":{"lat":"30.986126","long":"37.762527"}},{"country":"sa","city":"Al Badr","coordinates":{"lat":"21.3925","long":"39.840556"}},{"country":"sa","city":"Al Bahadah","coordinates":{"lat":"19.6","long":"41.966667"}},{"country":"sa","city":"Al Bahah","coordinates":{"lat":"20.012883","long":"41.467671"}},{"country":"sa","city":"Al Baharah","coordinates":{"lat":"22.941944","long":"41.669444"}},{"country":"sa","city":"Al Bahawal","coordinates":{"lat":"22.429444","long":"39.429444"}},{"country":"sa","city":"Al Ba`id","coordinates":{"lat":"17.05","long":"42.833333"}},{"country":"sa","city":"Al Ba`ja'","coordinates":{"lat":"25.198298","long":"42.224169"}},{"country":"sa","city":"Al Ba`jah","coordinates":{"lat":"25.198298","long":"42.224169"}},{"country":"sa","city":"Al Bakhra'","coordinates":{"lat":"24.166217","long":"46.187597"}},{"country":"sa","city":"Al Bakrah","coordinates":{"lat":"25.930043","long":"42.328448"}},{"country":"sa","city":"Al Balad","coordinates":{"lat":"21.487778","long":"39.193611"}},{"country":"sa","city":"Al Bani Thawr","coordinates":{"lat":"18.35","long":"42.833333"}},{"country":"sa","city":"Al Bani Thur","coordinates":{"lat":"18.35","long":"42.833333"}},{"country":"sa","city":"Al Baqaq","coordinates":{"lat":"19.866667","long":"41.616667"}},{"country":"sa","city":"Al Barabir","coordinates":{"lat":"21.520959","long":"39.632049"}},{"country":"sa","city":"Al Bardiyah","coordinates":{"lat":"24.045465","long":"39.602411"}},{"country":"sa","city":"Al Barik","coordinates":{"lat":"18.933836","long":"41.946215"}},{"country":"sa","city":"Al Barjasiyah","coordinates":{"lat":"26.206204","long":"44.313187"}},{"country":"sa","city":"Al Barkah","coordinates":{"lat":"19.866667","long":"41.583333"}},{"country":"sa","city":"Al Barrah","coordinates":{"lat":"24.916618","long":"45.865366"}},{"country":"sa","city":"Al Barraq","coordinates":{"lat":"19.40306","long":"41.79507"}},{"country":"sa","city":"Al Barraqiyah","coordinates":{"lat":"22.829385","long":"40.424152"}},{"country":"sa","city":"Al Barud","coordinates":{"lat":"26.879218","long":"44.158863"}},{"country":"sa","city":"Al Barud","coordinates":{"lat":"25.081293","long":"44.614681"}},{"country":"sa","city":"Al Barzah","coordinates":{"lat":"21.979643","long":"39.681346"}},{"country":"sa","city":"Al Basam","coordinates":{"lat":"18.056783","long":"43.186396"}},{"country":"sa","city":"Al Basar","coordinates":{"lat":"26.2853","long":"43.869726"}},{"country":"sa","city":"Al Bashir","coordinates":{"lat":"20.035187","long":"41.462636"}},{"country":"sa","city":"Al Basirah","coordinates":{"lat":"23.316667","long":"39.616667"}},{"country":"sa","city":"Al Basiri","coordinates":{"lat":"25.197135","long":"42.302545"}},{"country":"sa","city":"Al Bathah","coordinates":{"lat":"18.066667","long":"42.8"}},{"country":"sa","city":"Al Batra'","coordinates":{"lat":"25.942222","long":"42.953611"}},{"country":"sa","city":"Al Battaliyah","coordinates":{"lat":"25.433333","long":"49.633333"}},{"country":"sa","city":"Al Bawathil","coordinates":{"lat":"24.487433","long":"46.359642"}},{"country":"sa","city":"Al Bayda`","coordinates":{"lat":"22.429885","long":"40.449386"}},{"country":"sa","city":"Al Bayda'","coordinates":{"lat":"30.024722","long":"40.171111"}},{"country":"sa","city":"Al Bazazah","coordinates":{"lat":"23.966667","long":"43.466667"}},{"country":"sa","city":"Al-Bed`","coordinates":{"lat":"28.474843","long":"35.014729"}},{"country":"sa","city":"Al Bi'ar","coordinates":{"lat":"22.65038","long":"39.672646"}},{"country":"sa","city":"Al Bida`","coordinates":{"lat":"28.474843","long":"35.014729"}},{"country":"sa","city":"Al Bid`","coordinates":{"lat":"26.272896","long":"42.353848"}},{"country":"sa","city":"Al Bid`","coordinates":{"lat":"27.543459","long":"40.61636"}},{"country":"sa","city":"Al Bid`","coordinates":{"lat":"28.474843","long":"35.014729"}},{"country":"sa","city":"Al Bidayyi`ah","coordinates":{"lat":"25.407912","long":"42.089124"}},{"country":"sa","city":"Al Bijadiyah","coordinates":{"lat":"24.2","long":"47.2"}},{"country":"sa","city":"Al Bikah","coordinates":{"lat":"20.966667","long":"39.816667"}},{"country":"sa","city":"Al Bilad al Wusta","coordinates":{"lat":"25.307178","long":"46.030604"}},{"country":"sa","city":"Al Biqa`","coordinates":{"lat":"24.388619","long":"38.598842"}},{"country":"sa","city":"Al Bir","coordinates":{"lat":"25.288458","long":"45.955797"}},{"country":"sa","city":"Al Bir","coordinates":{"lat":"26.918871","long":"42.174435"}},{"country":"sa","city":"Al Bi'r","coordinates":{"lat":"28.86989","long":"36.25736"}},{"country":"sa","city":"Al Birk","coordinates":{"lat":"18.21631","long":"41.535933"}},{"country":"sa","city":"Al Biyadi","coordinates":{"lat":"27.107637","long":"42.199769"}},{"country":"sa","city":"Al Bu`aythiyah","coordinates":{"lat":"24.1168","long":"45.089938"}},{"country":"sa","city":"Al Buhrah","coordinates":{"lat":"17.283333","long":"43.166667"}},{"country":"sa","city":"Al Bujaydi","coordinates":{"lat":"21.478092","long":"40.11348"}},{"country":"sa","city":"Al Bukayriyah","coordinates":{"lat":"26.144216","long":"43.65933"}},{"country":"sa","city":"Al Buraik","coordinates":{"lat":"23.533333","long":"46.6"}},{"country":"sa","city":"Al Buraykah","coordinates":{"lat":"21.788195","long":"39.717486"}},{"country":"sa","city":"Al Burayk","coordinates":{"lat":"23.533333","long":"46.6"}},{"country":"sa","city":"Al Burud","coordinates":{"lat":"25.081293","long":"44.614681"}},{"country":"sa","city":"Al Bustan","coordinates":{"lat":"23.277923","long":"39.242996"}},{"country":"sa","city":"Al Butayn","coordinates":{"lat":"24.852222","long":"46.809722"}},{"country":"sa","city":"Al Butayniyat","coordinates":{"lat":"26.412222","long":"43.976111"}},{"country":"sa","city":"Al Butayra'","coordinates":{"lat":"26.412403","long":"45.33281"}},{"country":"sa","city":"Al Buwatah","coordinates":{"lat":"18.088001","long":"43.149562"}},{"country":"sa","city":"Al Buwaybiyah","coordinates":{"lat":"26.869786","long":"47.120247"}},{"country":"sa","city":"Al Buwayridah","coordinates":{"lat":"25.266667","long":"46.1"}},{"country":"sa","city":"Al Daff","coordinates":{"lat":"22.094503","long":"39.319371"}},{"country":"sa","city":"Al Dahrah","coordinates":{"lat":"17.866667","long":"43.383333"}},{"country":"sa","city":"Al Dalham","coordinates":{"lat":"18.046836","long":"42.953777"}},{"country":"sa","city":"Al-Dawadimi","coordinates":{"lat":"24.507719","long":"44.392367"}},{"country":"sa","city":"Al Dawdaf","coordinates":{"lat":"18.116667","long":"42.683333"}},{"country":"sa","city":"Al Dhuhrah","coordinates":{"lat":"18.021934","long":"42.979318"}},{"country":"sa","city":"Al Dibah","coordinates":{"lat":"18.1","long":"42.7"}},{"country":"sa","city":"Al-Dir`iyya","coordinates":{"lat":"24.741835","long":"46.572477"}},{"country":"sa","city":"Al Djufaydiriyya","coordinates":{"lat":"22.283333","long":"46.716667"}},{"country":"sa","city":"Al Duwayh","coordinates":{"lat":"23.710833","long":"44.855278"}},{"country":"sa","city":"Al `Erq","coordinates":{"lat":"19.233333","long":"42.116667"}},{"country":"sa","city":"Al Fadili","coordinates":{"lat":"26.980162","long":"49.174514"}},{"country":"sa","city":"Al Fahd","coordinates":{"lat":"18.659061","long":"42.439999"}},{"country":"sa","city":"Al Fa'ijah","coordinates":{"lat":"19.467778","long":"41.61"}},{"country":"sa","city":"Al Faisaliyah","coordinates":{"lat":"24.486473","long":"46.339053"}},{"country":"sa","city":"Al Fa'iziyah","coordinates":{"lat":"24.654959","long":"46.80268"}},{"country":"sa","city":"Al Fakhiriyah","coordinates":{"lat":"24.641389","long":"46.676944"}},{"country":"sa","city":"Al Fakhriyah","coordinates":{"lat":"24.641389","long":"46.676944"}},{"country":"sa","city":"Al Falah","coordinates":{"lat":"24.796389","long":"46.708889"}},{"country":"sa","city":"Al Falah","coordinates":{"lat":"18.2","long":"42.55"}},{"country":"sa","city":"Al Falt","coordinates":{"lat":"18.233333","long":"42.55"}},{"country":"sa","city":"Al Fanatir","coordinates":{"lat":"27.158611","long":"49.556111"}},{"country":"sa","city":"Al Faqirah","coordinates":{"lat":"23.421667","long":"39.709722"}},{"country":"sa","city":"Al Fara`","coordinates":{"lat":"24.974363","long":"38.061903"}},{"country":"sa","city":"Al Far`ah","coordinates":{"lat":"23.810496","long":"38.876171"}},{"country":"sa","city":"Al Far`ah","coordinates":{"lat":"20.506201","long":"44.733878"}},{"country":"sa","city":"Al Far`ah","coordinates":{"lat":"18.569424","long":"43.215518"}},{"country":"sa","city":"Al Far`ah","coordinates":{"lat":"26.755102","long":"42.761018"}},{"country":"sa","city":"Al Farah","coordinates":{"lat":"19.766667","long":"41.883333"}},{"country":"sa","city":"Al Far`ah","coordinates":{"lat":"21.062786","long":"40.507334"}},{"country":"sa","city":"Al Far`ayn","coordinates":{"lat":"18.142584","long":"42.957292"}},{"country":"sa","city":"Al Farhan","coordinates":{"lat":"18","long":"43.133333"}},{"country":"sa","city":"Al Farhaniyah","coordinates":{"lat":"27.313496","long":"40.936315"}},{"country":"sa","city":"Al Far`iyah","coordinates":{"lat":"22.609852","long":"40.552866"}},{"country":"sa","city":"Al Farrash","coordinates":{"lat":"21.129167","long":"40.605556"}},{"country":"sa","city":"Al Farridah","coordinates":{"lat":"27.163152","long":"46.990458"}},{"country":"sa","city":"Al Farsah","coordinates":{"lat":"20.083333","long":"41.433333"}},{"country":"sa","city":"Al Farshah","coordinates":{"lat":"19.242546","long":"41.246705"}},{"country":"sa","city":"Al Farshah","coordinates":{"lat":"17.266667","long":"42.583333"}},{"country":"sa","city":"Al Faruq","coordinates":{"lat":"24.649444","long":"46.778611"}},{"country":"sa","city":"Al Faruthi","coordinates":{"lat":"25.774436","long":"45.162845"}},{"country":"sa","city":"Al Farwan","coordinates":{"lat":"18.116667","long":"42.666667"}},{"country":"sa","city":"Al Fasl","coordinates":{"lat":"27.032778","long":"49.487778"}},{"country":"sa","city":"Al Fatah","coordinates":{"lat":"21.216667","long":"40.516667"}},{"country":"sa","city":"Al Fatat","coordinates":{"lat":"21.216667","long":"40.516667"}},{"country":"sa","city":"Al Fatihah","coordinates":{"lat":"17.57805","long":"42.626685"}},{"country":"sa","city":"Al Fawwarah","coordinates":{"lat":"26.062778","long":"42.654167"}},{"country":"sa","city":"Al Fawwarah","coordinates":{"lat":"21.832544","long":"40.160931"}},{"country":"sa","city":"Al Fawwaz","coordinates":{"lat":"24.49","long":"46.618056"}},{"country":"sa","city":"Al Faydah","coordinates":{"lat":"24.391706","long":"45.336483"}},{"country":"sa","city":"Al Faydah","coordinates":{"lat":"25.039466","long":"42.382595"}},{"country":"sa","city":"Al Faydah","coordinates":{"lat":"23.721667","long":"44.842778"}},{"country":"sa","city":"Al Faydah","coordinates":{"lat":"26.636504","long":"42.678679"}},{"country":"sa","city":"Al Faydah","coordinates":{"lat":"21.980468","long":"39.389075"}},{"country":"sa","city":"Al Fayd","coordinates":{"lat":"21.571822","long":"39.675535"}},{"country":"sa","city":"Al Fayd","coordinates":{"lat":"18.013648","long":"43.458939"}},{"country":"sa","city":"Al Fayha'","coordinates":{"lat":"24.683333","long":"46.804444"}},{"country":"sa","city":"Al Fayijah","coordinates":{"lat":"19.467778","long":"41.61"}},{"country":"sa","city":"Al Faysaliyah","coordinates":{"lat":"26.388056","long":"50.075278"}},{"country":"sa","city":"Al Faysaliyah","coordinates":{"lat":"24.486473","long":"46.339053"}},{"country":"sa","city":"Al Faysaliyah","coordinates":{"lat":"21.297778","long":"40.421667"}},{"country":"sa","city":"Al Faysaliyah","coordinates":{"lat":"30.979332","long":"41.036584"}},{"country":"sa","city":"Al Faysaliyah","coordinates":{"lat":"29.932904","long":"40.197078"}},{"country":"sa","city":"Al Fayuah","coordinates":{"lat":"19.467778","long":"41.61"}},{"country":"sa","city":"Al Fazz","coordinates":{"lat":"21.981889","long":"39.526115"}},{"country":"sa","city":"Al Firqah","coordinates":{"lat":"21.396885","long":"39.423567"}},{"country":"sa","city":"Al Fiwan","coordinates":{"lat":"28.235361","long":"45.802712"}},{"country":"sa","city":"Al Fiyad","coordinates":{"lat":"30.605348","long":"38.099946"}},{"country":"sa","city":"Al-Fudhul","coordinates":{"lat":"25.366667","long":"49.683333"}},{"country":"sa","city":"Al Fudul","coordinates":{"lat":"25.366667","long":"49.683333"}},{"country":"sa","city":"Al Fukah","coordinates":{"lat":"19.85","long":"41.85"}},{"country":"sa","city":"Al Furay`","coordinates":{"lat":"22.620863","long":"40.560657"}},{"country":"sa","city":"Al Furaysh","coordinates":{"lat":"24.220795","long":"39.285525"}},{"country":"sa","city":"Al Furuthi","coordinates":{"lat":"25.774436","long":"45.162845"}},{"country":"sa","city":"Al Futah","coordinates":{"lat":"24.641389","long":"46.706944"}},{"country":"sa","city":"Al Fu'ur","coordinates":{"lat":"21.220936","long":"40.515585"}},{"country":"sa","city":"Al Fuwayliq","coordinates":{"lat":"24.365068","long":"45.329246"}},{"country":"sa","city":"Al Fuwayliq","coordinates":{"lat":"26.44322","long":"43.253397"}},{"country":"sa","city":"Al Gaback","coordinates":{"lat":"19.283384","long":"42.098671"}},{"country":"sa","city":"Al Garrah","coordinates":{"lat":"19.266799","long":"42.087456"}},{"country":"sa","city":"Al Gattan","coordinates":{"lat":"19.2","long":"42.1"}},{"country":"sa","city":"Al-Getamijje","coordinates":{"lat":"27.677675","long":"41.725918"}},{"country":"sa","city":"Al-Gfejfe","coordinates":{"lat":"27.1","long":"41.266667"}},{"country":"sa","city":"Al Ghabib","coordinates":{"lat":"21.682877","long":"40.141894"}},{"country":"sa","city":"Al Ghabra'","coordinates":{"lat":"19.358551","long":"41.799981"}},{"country":"sa","city":"Al Ghabra'","coordinates":{"lat":"19.490079","long":"41.6446"}},{"country":"sa","city":"Al Ghadir","coordinates":{"lat":"24.774167","long":"46.655556"}},{"country":"sa","city":"Al Ghadya'","coordinates":{"lat":"25.568518","long":"42.713211"}},{"country":"sa","city":"Al Ghaf","coordinates":{"lat":"26.545","long":"43.761667"}},{"country":"sa","city":"Al Ghaff","coordinates":{"lat":"26.545","long":"43.761667"}},{"country":"sa","city":"Al Ghafiyah","coordinates":{"lat":"18.046492","long":"43.988144"}},{"country":"sa","city":"Al Ghamya'","coordinates":{"lat":"27.353058","long":"40.81543"}},{"country":"sa","city":"Al Ghanam","coordinates":{"lat":"21.595116","long":"39.803676"}},{"country":"sa","city":"Al Ghanamiyah","coordinates":{"lat":"24.479044","long":"46.807199"}},{"country":"sa","city":"Al Ghananim","coordinates":{"lat":"22.831388","long":"41.118857"}},{"country":"sa","city":"Al Ghanmiyah","coordinates":{"lat":"24.479044","long":"46.807199"}},{"country":"sa","city":"Al Ghar","coordinates":{"lat":"27.166969","long":"41.570259"}},{"country":"sa","city":"Al Gharif","coordinates":{"lat":"22.439444","long":"39.865278"}},{"country":"sa","city":"Al Gharith","coordinates":{"lat":"21.605","long":"41.878889"}},{"country":"sa","city":"Al Gharrah","coordinates":{"lat":"18.684228","long":"42.98198"}},{"country":"sa","city":"Al Ghassalah","coordinates":{"lat":"21.448056","long":"39.875"}},{"country":"sa","city":"Al Ghat","coordinates":{"lat":"26.545","long":"43.761667"}},{"country":"sa","city":"Al Ghat","coordinates":{"lat":"26.020472","long":"45.002143"}},{"country":"sa","city":"Al Ghat","coordinates":{"lat":"19.55","long":"41.95"}},{"country":"sa","city":"Al Ghaydaniyah","coordinates":{"lat":"25.196321","long":"43.637972"}},{"country":"sa","city":"Al Ghayl","coordinates":{"lat":"22.607597","long":"46.323426"}},{"country":"sa","city":"Al Ghayl","coordinates":{"lat":"17.727351","long":"43.506139"}},{"country":"sa","city":"Al Ghaylanah","coordinates":{"lat":"25.410556","long":"47.2125"}},{"country":"sa","city":"Al Ghaylan","coordinates":{"lat":"18.064892","long":"42.956184"}},{"country":"sa","city":"Al Ghazalah","coordinates":{"lat":"26.788363","long":"41.321051"}},{"country":"sa","city":"Al Ghulah","coordinates":{"lat":"21.947691","long":"39.276822"}},{"country":"sa","city":"Al Ghumayyisah","coordinates":{"lat":"27.9","long":"42.683333"}},{"country":"sa","city":"Al Ghurabah","coordinates":{"lat":"25.463333","long":"45.002222"}},{"country":"sa","city":"Al Ghuraim","coordinates":{"lat":"25.483333","long":"49.6"}},{"country":"sa","city":"Al Ghurayri","coordinates":{"lat":"24.075833","long":"45.014722"}},{"country":"sa","city":"Al Ghutamiyah","coordinates":{"lat":"20.306121","long":"41.401294"}},{"country":"sa","city":"Al Ghutghut","coordinates":{"lat":"24.481111","long":"46.224167"}},{"country":"sa","city":"Al Ghuzayz","coordinates":{"lat":"24.670571","long":"45.841651"}},{"country":"sa","city":"Al Haba","coordinates":{"lat":"27.23483","long":"46.979616"}},{"country":"sa","city":"Al Habah","coordinates":{"lat":"27.23483","long":"46.979616"}},{"country":"sa","city":"Al Habashi","coordinates":{"lat":"20.05","long":"41.466667"}},{"country":"sa","city":"Al habil","coordinates":{"lat":"18.089207","long":"42.226975"}},{"country":"sa","city":"Al Hada","coordinates":{"lat":"24.657778","long":"46.659167"}},{"country":"sa","city":"Al Hada","coordinates":{"lat":"21.367526","long":"40.286943"}},{"country":"sa","city":"Al Hadan","coordinates":{"lat":"19.161328","long":"41.173211"}},{"country":"sa","city":"Al Hadaqah","coordinates":{"lat":"28.464815","long":"44.338204"}},{"country":"sa","city":"Al Hadaq","coordinates":{"lat":"29.235541","long":"43.331867"}},{"country":"sa","city":"Al Hadba'","coordinates":{"lat":"18.595345","long":"43.208892"}},{"country":"sa","city":"Al Hadbah","coordinates":{"lat":"18.166667","long":"42.566667"}},{"country":"sa","city":"Al Haddadah","coordinates":{"lat":"17.608333","long":"43.7675"}},{"country":"sa","city":"Al Haddar","coordinates":{"lat":"21.983543","long":"45.95644"}},{"country":"sa","city":"Al Hadidah","coordinates":{"lat":"31.454449","long":"37.158921"}},{"country":"sa","city":"Al Hadidiyah","coordinates":{"lat":"26.902235","long":"43.35914"}},{"country":"sa","city":"Al hadilah","coordinates":{"lat":"18.053435","long":"42.819964"}},{"country":"sa","city":"Al-Hadita","coordinates":{"lat":"31.454449","long":"37.158921"}},{"country":"sa","city":"Al Hadithah","coordinates":{"lat":"31.454449","long":"37.158921"}},{"country":"sa","city":"Al Hadrur","coordinates":{"lat":"16.543699","long":"42.867105"}},{"country":"sa","city":"Al Hafah","coordinates":{"lat":"23.747222","long":"39.2925"}},{"country":"sa","city":"Al Hafar","coordinates":{"lat":"28.432791","long":"45.970766"}},{"country":"sa","city":"Al Hafayir","coordinates":{"lat":"22.311053","long":"40.602782"}},{"country":"sa","city":"Al Hafirah","coordinates":{"lat":"24.883551","long":"39.724241"}},{"country":"sa","city":"Al Hafnah","coordinates":{"lat":"19.348611","long":"41.809167"}},{"country":"sa","city":"Al Hafr","coordinates":{"lat":"24.405973","long":"39.154033"}},{"country":"sa","city":"Al Ha'ir","coordinates":{"lat":"24.405369","long":"46.8407"}},{"country":"sa","city":"Al Ha'it","coordinates":{"lat":"25.986085","long":"40.47214"}},{"country":"sa","city":"Al Haiyaniya","coordinates":{"lat":"28.703984","long":"42.312778"}},{"country":"sa","city":"Al Hajar","coordinates":{"lat":"22.75","long":"39.333333"}},{"country":"sa","city":"Al-Hajar","coordinates":{"lat":"26.806103","long":"37.955119"}},{"country":"sa","city":"Al-Hajjanijje","coordinates":{"lat":"28.703984","long":"42.312778"}},{"country":"sa","city":"Al Hajnawi","coordinates":{"lat":"25.936238","long":"43.636524"}},{"country":"sa","city":"Al Hajrah","coordinates":{"lat":"19.4","long":"41.883333"}},{"country":"sa","city":"Al Hajy","coordinates":{"lat":"18.55","long":"42.4"}},{"country":"sa","city":"Al Halaliyah","coordinates":{"lat":"26.122723","long":"43.677313"}},{"country":"sa","city":"Al Halami","coordinates":{"lat":"18.014332","long":"42.815428"}},{"country":"sa","city":"Al Halaqah","coordinates":{"lat":"21.349955","long":"40.441473"}},{"country":"sa","city":"Al Hamadah","coordinates":{"lat":"25.010806","long":"42.430793"}},{"country":"sa","city":"Al Hamadah","coordinates":{"lat":"19.365556","long":"41.797778"}},{"country":"sa","city":"Al Hamar","coordinates":{"lat":"22.440408","long":"46.190246"}},{"country":"sa","city":"Al Hamdah","coordinates":{"lat":"20.116667","long":"41.45"}},{"country":"sa","city":"Al Hamd","coordinates":{"lat":"20.3","long":"41.333333"}},{"country":"sa","city":"Al Hamidah","coordinates":{"lat":"21.477393","long":"40.08896"}},{"country":"sa","city":"Al Hamidah","coordinates":{"lat":"16.761948","long":"42.92216"}},{"country":"sa","city":"Al Hamimah","coordinates":{"lat":"21.509477","long":"39.632088"}},{"country":"sa","city":"Al Hamiriyah","coordinates":{"lat":"27.005074","long":"41.638229"}},{"country":"sa","city":"Al Hamjah","coordinates":{"lat":"25.495894","long":"43.068831"}},{"country":"sa","city":"Al Hamjah","coordinates":{"lat":"24.296557","long":"43.740045"}},{"country":"sa","city":"Al Hamjah","coordinates":{"lat":"27.613478","long":"43.203736"}},{"country":"sa","city":"Al Hamma","coordinates":{"lat":"20.067267","long":"42.610986"}},{"country":"sa","city":"Al Hammad","coordinates":{"lat":"24.034444","long":"40.495278"}},{"country":"sa","city":"Al Hammah","coordinates":{"lat":"20.067267","long":"42.610986"}},{"country":"sa","city":"Al Hamra'","coordinates":{"lat":"23.936768","long":"38.874378"}},{"country":"sa","city":"Al Hamra'","coordinates":{"lat":"20.483333","long":"44.8"}},{"country":"sa","city":"Al Hamra'","coordinates":{"lat":"21.428056","long":"39.774444"}},{"country":"sa","city":"Al Hamr","coordinates":{"lat":"22.440408","long":"46.190246"}},{"country":"sa","city":"Al Hanakiya","coordinates":{"lat":"24.883746","long":"40.543953"}},{"country":"sa","city":"Al Hanakiyah","coordinates":{"lat":"24.883746","long":"40.543953"}},{"country":"sa","city":"Al Hanashah","coordinates":{"lat":"16.558056","long":"42.765278"}},{"country":"sa","city":"Al Hani","coordinates":{"lat":"24.966627","long":"48.754617"}},{"country":"sa","city":"Al Hani","coordinates":{"lat":"24.873332","long":"46.453942"}},{"country":"sa","city":"Al Hanish","coordinates":{"lat":"20.466667","long":"45.583333"}},{"country":"sa","city":"Al Haql","coordinates":{"lat":"29.28627","long":"34.946871"}},{"country":"sa","city":"Al Haqu","coordinates":{"lat":"17.522023","long":"42.709569"}},{"country":"sa","city":"Al Haqw","coordinates":{"lat":"18.616667","long":"42.116667"}},{"country":"sa","city":"Al Haqw","coordinates":{"lat":"17.522023","long":"42.709569"}},{"country":"sa","city":"Al Harani","coordinates":{"lat":"16.774876","long":"42.909642"}},{"country":"sa","city":"Al Hararah","coordinates":{"lat":"24.023333","long":"44.883889"}},{"country":"sa","city":"Al Harasa","coordinates":{"lat":"17.983333","long":"43.133333"}},{"country":"sa","city":"Al Haras","coordinates":{"lat":"18.55","long":"42.416667"}},{"country":"sa","city":"Al Harayr","coordinates":{"lat":"18.233333","long":"42.783333"}},{"country":"sa","city":"Al Harf","coordinates":{"lat":"19.981783","long":"42.553678"}},{"country":"sa","city":"Al Harijan","coordinates":{"lat":"19.616667","long":"41.966667"}},{"country":"sa","city":"Al Hariq","coordinates":{"lat":"23.635461","long":"46.50638"}},{"country":"sa","city":"Al Harma","coordinates":{"lat":"25.925142","long":"45.333951"}},{"country":"sa","city":"Al Harmaliyah","coordinates":{"lat":"24.273105","long":"45.182589"}},{"country":"sa","city":"Al Harra'","coordinates":{"lat":"21.95339","long":"39.487649"}},{"country":"sa","city":"Al Hasamah","coordinates":{"lat":"16.683333","long":"42.926944"}},{"country":"sa","city":"Al Hasan","coordinates":{"lat":"20.3","long":"41.35"}},{"country":"sa","city":"Al Hasan","coordinates":{"lat":"17.10324","long":"42.823005"}},{"country":"sa","city":"Al Hasaniyah","coordinates":{"lat":"21.65","long":"39.683333"}},{"country":"sa","city":"Al Hasar","coordinates":{"lat":"20.3","long":"41.366667"}},{"country":"sa","city":"Al Hasasinah","coordinates":{"lat":"21.383407","long":"40.175849"}},{"country":"sa","city":"Al Hasat al Khaniqah","coordinates":{"lat":"18.369919","long":"43.554859"}},{"country":"sa","city":"Al Hasherij","coordinates":{"lat":"20.413426","long":"41.596232"}},{"country":"sa","city":"Al Hassi","coordinates":{"lat":"25.416876","long":"46.098112"}},{"country":"sa","city":"Al Hathirah","coordinates":{"lat":"16.431567","long":"42.93896"}},{"country":"sa","city":"Al Hati","coordinates":{"lat":"27.51432","long":"41.088437"}},{"country":"sa","city":"Al Hawatimah","coordinates":{"lat":"19.4","long":"40.95"}},{"country":"sa","city":"Al Hawiyah","coordinates":{"lat":"21.436833","long":"40.501981"}},{"country":"sa","city":"Al Hawja'","coordinates":{"lat":"28.97715","long":"38.564983"}},{"country":"sa","city":"Al Hawmah","coordinates":{"lat":"22.877778","long":"40.506944"}},{"country":"sa","city":"Al Hawrani","coordinates":{"lat":"16.774876","long":"42.909642"}},{"country":"sa","city":"Al Hawtah","coordinates":{"lat":"25.854791","long":"43.518272"}},{"country":"sa","city":"Al Hawtah","coordinates":{"lat":"24.591111","long":"46.150556"}},{"country":"sa","city":"Al Hawt","coordinates":{"lat":"17.883333","long":"43.366667"}},{"country":"sa","city":"Al Hayathim","coordinates":{"lat":"24.164672","long":"47.238156"}},{"country":"sa","city":"Al Hayd","coordinates":{"lat":"24.853333","long":"43.641944"}},{"country":"sa","city":"Al Hayir","coordinates":{"lat":"25.790033","long":"45.388661"}},{"country":"sa","city":"Al Hayit","coordinates":{"lat":"25.986085","long":"40.47214"}},{"country":"sa","city":"Al Hayra","coordinates":{"lat":"27.695974","long":"46.623805"}},{"country":"sa","city":"Al Haysam","coordinates":{"lat":"18.016229","long":"42.962633"}},{"country":"sa","city":"Al Hayyaniyah","coordinates":{"lat":"28.703984","long":"42.312778"}},{"country":"sa","city":"Al Hazim","coordinates":{"lat":"24.133002","long":"47.155187"}},{"country":"sa","city":"Al Hazimi","coordinates":{"lat":"19.868251","long":"42.496912"}},{"country":"sa","city":"Al Hazm","coordinates":{"lat":"25.869559","long":"44.220187"}},{"country":"sa","city":"Al Hazm","coordinates":{"lat":"24.133002","long":"47.155187"}},{"country":"sa","city":"Al Hazm","coordinates":{"lat":"21.661506","long":"40.120286"}},{"country":"sa","city":"Al Hegr","coordinates":{"lat":"26.806103","long":"37.955119"}},{"country":"sa","city":"Al-Hfene","coordinates":{"lat":"26.583333","long":"41.6"}},{"country":"sa","city":"Al-Hfr","coordinates":{"lat":"27.656487","long":"41.291229"}},{"country":"sa","city":"Al Hidn","coordinates":{"lat":"19.161328","long":"41.173211"}},{"country":"sa","city":"Al Hifnah","coordinates":{"lat":"25.691895","long":"46.556555"}},{"country":"sa","city":"Al Hijanbah","coordinates":{"lat":"16.768574","long":"42.991931"}},{"country":"sa","city":"Al Hijfar","coordinates":{"lat":"16.54454","long":"42.847204"}},{"country":"sa","city":"Al Hijr","coordinates":{"lat":"26.806103","long":"37.955119"}},{"country":"sa","city":"Al Hijriyah","coordinates":{"lat":"23.810716","long":"40.292675"}},{"country":"sa","city":"Al Hijun","coordinates":{"lat":"21.444722","long":"39.815833"}},{"country":"sa","city":"Al Hilaliyah","coordinates":{"lat":"26.122723","long":"43.677313"}},{"country":"sa","city":"Al Hilla","coordinates":{"lat":"23.489454","long":"46.853024"}},{"country":"sa","city":"Al Hillah","coordinates":{"lat":"26.033333","long":"43.733333"}},{"country":"sa","city":"Al Hillah","coordinates":{"lat":"23.489454","long":"46.853024"}},{"country":"sa","city":"Al Hilwa","coordinates":{"lat":"23.450865","long":"46.806294"}},{"country":"sa","city":"Al Hilwah","coordinates":{"lat":"23.450865","long":"46.806294"}},{"country":"sa","city":"Al Himliyah","coordinates":{"lat":"26.192507","long":"42.916019"}},{"country":"sa","city":"Al Hinakiyah","coordinates":{"lat":"24.883746","long":"40.543953"}},{"country":"sa","city":"Al Hinayniyah","coordinates":{"lat":"25.514349","long":"42.960186"}},{"country":"sa","city":"Al Hindawiyah","coordinates":{"lat":"21.419167","long":"39.799167"}},{"country":"sa","city":"Al Hindiyah","coordinates":{"lat":"23.65807","long":"39.671798"}},{"country":"sa","city":"Al Hinnah","coordinates":{"lat":"26.945285","long":"48.770939"}},{"country":"sa","city":"Al Hinnah","coordinates":{"lat":"24.490556","long":"43.904444"}},{"country":"sa","city":"Al Hishah","coordinates":{"lat":"25.845456","long":"44.189641"}},{"country":"sa","city":"Al Hisi","coordinates":{"lat":"25.416876","long":"46.098112"}},{"country":"sa","city":"Al Hisn al Adshfar","coordinates":{"lat":"18.2","long":"42.55"}},{"country":"sa","city":"Al Hisn al Ala","coordinates":{"lat":"18.2","long":"42.533333"}},{"country":"sa","city":"Al Hissu","coordinates":{"lat":"24.604918","long":"41.615824"}},{"country":"sa","city":"Al Hisun","coordinates":{"lat":"25.595831","long":"45.608129"}},{"country":"sa","city":"Al Hisyan","coordinates":{"lat":"25.333876","long":"46.023392"}},{"country":"sa","city":"Al Horm","coordinates":{"lat":"16.9","long":"42.716667"}},{"country":"sa","city":"Al-Hrajbe","coordinates":{"lat":"28.065031","long":"35.179776"}},{"country":"sa","city":"Al Hubayriyah","coordinates":{"lat":"26.280404","long":"42.432659"}},{"country":"sa","city":"Al Hudaylah","coordinates":{"lat":"18.082125","long":"42.803961"}},{"country":"sa","city":"Al Hufayr","coordinates":{"lat":"27.656487","long":"41.291229"}},{"country":"sa","city":"Al Hufayyirah","coordinates":{"lat":"24.448453","long":"44.709011"}},{"country":"sa","city":"Al Hufrah","coordinates":{"lat":"24.608889","long":"39.183056"}},{"country":"sa","city":"Al Hufuf","coordinates":{"lat":"25.364568","long":"49.565323"}},{"country":"sa","city":"Al-Hulailah","coordinates":{"lat":"25.433333","long":"49.666667"}},{"country":"sa","city":"Al Hulaylah","coordinates":{"lat":"25.433333","long":"49.666667"}},{"country":"sa","city":"Al Hulaysiyah","coordinates":{"lat":"26.584597","long":"48.672198"}},{"country":"sa","city":"Al Hulwah","coordinates":{"lat":"23.450865","long":"46.806294"}},{"country":"sa","city":"Al Humaidha","coordinates":{"lat":"29.234382","long":"34.935128"}},{"country":"sa","city":"Al Humaydah","coordinates":{"lat":"29.234382","long":"34.935128"}},{"country":"sa","city":"Al Humaymah","coordinates":{"lat":"25.616667","long":"43.033333"}},{"country":"sa","city":"Al Humayra'","coordinates":{"lat":"27.296389","long":"41.431944"}},{"country":"sa","city":"Al Humayzah","coordinates":{"lat":"29.234382","long":"34.935128"}},{"country":"sa","city":"Al Humil","coordinates":{"lat":"19.783333","long":"41.883333"}},{"country":"sa","city":"Al Hunayy","coordinates":{"lat":"24.966627","long":"48.754617"}},{"country":"sa","city":"Al Huraimala","coordinates":{"lat":"25.126158","long":"46.123774"}},{"country":"sa","city":"Al Huraiyiq","coordinates":{"lat":"25.447425","long":"45.401061"}},{"country":"sa","city":"Al Hurayq","coordinates":{"lat":"25.447425","long":"45.401061"}},{"country":"sa","city":"Al Hurayr","coordinates":{"lat":"27.87487","long":"41.80001"}},{"country":"sa","city":"Al Hurayyiq","coordinates":{"lat":"25.447425","long":"45.401061"}},{"country":"sa","city":"Al Hurm","coordinates":{"lat":"16.9","long":"42.716667"}},{"country":"sa","city":"Al Husayni","coordinates":{"lat":"17.158869","long":"42.699055"}},{"country":"sa","city":"Al Husayniyah","coordinates":{"lat":"21.3225","long":"39.879167"}},{"country":"sa","city":"Al Husayniyah","coordinates":{"lat":"17.251971","long":"42.748373"}},{"country":"sa","city":"Al Husayy","coordinates":{"lat":"27.106009","long":"48.52823"}},{"country":"sa","city":"Al Husn al Adshfar","coordinates":{"lat":"18.2","long":"42.55"}},{"country":"sa","city":"Al Husn al Ala","coordinates":{"lat":"18.2","long":"42.533333"}},{"country":"sa","city":"Al Husun","coordinates":{"lat":"25.595831","long":"45.608129"}},{"country":"sa","city":"Al Huwah","coordinates":{"lat":"23.033333","long":"45.8"}},{"country":"sa","city":"Al Huwaiyit","coordinates":{"lat":"25.638201","long":"40.395762"}},{"country":"sa","city":"Al Huwaydi","coordinates":{"lat":"27.025147","long":"41.316806"}},{"country":"sa","city":"Al Huwaymidah","coordinates":{"lat":"23.29425","long":"40.341569"}},{"country":"sa","city":"Al Huwayrah","coordinates":{"lat":"24.158974","long":"46.273761"}},{"country":"sa","city":"Al Huwayrrah","coordinates":{"lat":"24.158974","long":"46.273761"}},{"country":"sa","city":"Al Huwayyit","coordinates":{"lat":"25.638201","long":"40.395762"}},{"country":"sa","city":"Al Huwwah","coordinates":{"lat":"23.033333","long":"45.8"}},{"country":"sa","city":"`Ali Bin Zuhayr","coordinates":{"lat":"19.332344","long":"41.831276"}},{"country":"sa","city":"Al `Ididi","coordinates":{"lat":"27.04","long":"41.015323"}},{"country":"sa","city":"Al `Idwah","coordinates":{"lat":"24.24451","long":"45.932633"}},{"country":"sa","city":"Al `Idwah","coordinates":{"lat":"27.295067","long":"42.312886"}},{"country":"sa","city":"Al Ifayhid","coordinates":{"lat":"25.688957","long":"42.350309"}},{"country":"sa","city":"`Ali Hamad","coordinates":{"lat":"18.007172","long":"43.528706"}},{"country":"sa","city":"`Ali Huwayl","coordinates":{"lat":"19.388056","long":"41.796389"}},{"country":"sa","city":"Al `Irfan","coordinates":{"lat":"18.620239","long":"43.206903"}},{"country":"sa","city":"Al `Irjayn","coordinates":{"lat":"16.441163","long":"42.867882"}},{"country":"sa","city":"Al `Irq","coordinates":{"lat":"19.233333","long":"42.116667"}},{"country":"sa","city":"Al Irtawiya","coordinates":{"lat":"26.505258","long":"45.344373"}},{"country":"sa","city":"Al `Isam","coordinates":{"lat":"24.774722","long":"43.695"}},{"country":"sa","city":"Al `Isawiyah","coordinates":{"lat":"30.716812","long":"37.977671"}},{"country":"sa","city":"Al `Ishash","coordinates":{"lat":"21.7","long":"39.9"}},{"country":"sa","city":"Al Ishay`il","coordinates":{"lat":"26.04689","long":"42.566884"}},{"country":"sa","city":"Al `Ishsh","coordinates":{"lat":"27.077927","long":"41.804221"}},{"country":"sa","city":"Al Iskan","coordinates":{"lat":"21.394167","long":"39.788333"}},{"country":"sa","city":"Alista","coordinates":{"lat":"18","long":"43.15"}},{"country":"sa","city":"`Aliya","coordinates":{"lat":"17.283333","long":"42.533333"}},{"country":"sa","city":"Al `Iyaynah","coordinates":{"lat":"21.030278","long":"40.774722"}},{"country":"sa","city":"Al Izdihar","coordinates":{"lat":"24.780278","long":"46.7175"}},{"country":"sa","city":"Al Jabiri","coordinates":{"lat":"16.840586","long":"43.184791"}},{"country":"sa","city":"Al Jabiriyah","coordinates":{"lat":"26.014715","long":"49.458293"}},{"country":"sa","city":"Al Jabiriyah","coordinates":{"lat":"26.269959","long":"42.167688"}},{"country":"sa","city":"Al Jabriyah","coordinates":{"lat":"24.252352","long":"38.519999"}},{"country":"sa","city":"Al Jabriyah","coordinates":{"lat":"27.978753","long":"42.239231"}},{"country":"sa","city":"Al Jadi","coordinates":{"lat":"16.644915","long":"42.994837"}},{"country":"sa","city":"Al Jadidah","coordinates":{"lat":"25.68108","long":"49.514228"}},{"country":"sa","city":"Al Jadidah","coordinates":{"lat":"24.414478","long":"45.815367"}},{"country":"sa","city":"Al Jadidah","coordinates":{"lat":"21.538167","long":"39.642979"}},{"country":"sa","city":"Al Jadid","coordinates":{"lat":"22.433333","long":"41.75829"}},{"country":"sa","city":"Al Ja`diyah","coordinates":{"lat":"16.795371","long":"42.990481"}},{"country":"sa","city":"Al Jadyah","coordinates":{"lat":"20.05","long":"41.45"}},{"country":"sa","city":"Al Jafa","coordinates":{"lat":"17.769863","long":"43.917"}},{"country":"sa","city":"Al Jafr","coordinates":{"lat":"25.376944","long":"49.723611"}},{"country":"sa","city":"Al Jahu","coordinates":{"lat":"17.126141","long":"42.848497"}},{"country":"sa","city":"Al Ja`lah","coordinates":{"lat":"26.694749","long":"44.236622"}},{"country":"sa","city":"Al Jalamid","coordinates":{"lat":"31.282691","long":"40.103696"}},{"country":"sa","city":"Al Jami`ah","coordinates":{"lat":"21.471389","long":"39.245833"}},{"country":"sa","city":"Al Janadiriyah","coordinates":{"lat":"24.807103","long":"46.858191"}},{"country":"sa","city":"Al Janubiyah","coordinates":{"lat":"25.583611","long":"45.618333"}},{"country":"sa","city":"Al Jar`a'","coordinates":{"lat":"27.271514","long":"42.253031"}},{"country":"sa","city":"Al Jaradah","coordinates":{"lat":"18.140116","long":"43.126186"}},{"country":"sa","city":"Al Jarad","coordinates":{"lat":"18.980766","long":"41.425706"}},{"country":"sa","city":"Al Jarad","coordinates":{"lat":"17.85","long":"43.4"}},{"country":"sa","city":"Al Jaradiyah","coordinates":{"lat":"16.579463","long":"42.912404"}},{"country":"sa","city":"Al Jarawi","coordinates":{"lat":"30.121866","long":"38.811014"}},{"country":"sa","city":"Al Jardhawiyah","coordinates":{"lat":"25.386664","long":"42.730236"}},{"country":"sa","city":"Al Jariyah","coordinates":{"lat":"17.204036","long":"42.514256"}},{"country":"sa","city":"Al Jarradiyah","coordinates":{"lat":"24.613056","long":"46.696944"}},{"country":"sa","city":"Al Jawah","coordinates":{"lat":"16.95665","long":"43.029778"}},{"country":"sa","city":"Al Jawf","coordinates":{"lat":"18.226033","long":"43.183661"}},{"country":"sa","city":"Al Jawwah","coordinates":{"lat":"16.95665","long":"43.029778"}},{"country":"sa","city":"Al Jaww","coordinates":{"lat":"25.324867","long":"46.026758"}},{"country":"sa","city":"Al Jaz`ah","coordinates":{"lat":"24.566667","long":"46.75"}},{"country":"sa","city":"Al Jazi","coordinates":{"lat":"16.644915","long":"42.994837"}},{"country":"sa","city":"Al Jazirah","coordinates":{"lat":"24.666944","long":"46.796667"}},{"country":"sa","city":"Al Jid`","coordinates":{"lat":"21.936675","long":"39.578147"}},{"country":"sa","city":"Al Jifarah","coordinates":{"lat":"23.997454","long":"45.190487"}},{"country":"sa","city":"Al Jifayrat","coordinates":{"lat":"31.177318","long":"37.708046"}},{"country":"sa","city":"Al Jilf","coordinates":{"lat":"27.915278","long":"41.812222"}},{"country":"sa","city":"Al Jilh","coordinates":{"lat":"24.33817","long":"45.800059"}},{"country":"sa","city":"Al Jimah","coordinates":{"lat":"19.816667","long":"41.716667"}},{"country":"sa","city":"Al Jirbah","coordinates":{"lat":"16.926518","long":"42.886158"}},{"country":"sa","city":"Al Jirthamiyah","coordinates":{"lat":"21.192287","long":"42.716733"}},{"country":"sa","city":"Al Jishshah","coordinates":{"lat":"25.387592","long":"49.752528"}},{"country":"sa","city":"Al-Jishshan","coordinates":{"lat":"25.387592","long":"49.752528"}},{"country":"sa","city":"Al Jisimah","coordinates":{"lat":"20.3","long":"41.333333"}},{"country":"sa","city":"Al Jissah","coordinates":{"lat":"23.333041","long":"40.300361"}},{"country":"sa","city":"Al Jith","coordinates":{"lat":"20.1","long":"41.416667"}},{"country":"sa","city":"Al Jithamiyah","coordinates":{"lat":"27.677675","long":"41.725918"}},{"country":"sa","city":"Al Jithyathah","coordinates":{"lat":"27.715817","long":"42.628055"}},{"country":"sa","city":"Al Ju`aydah","coordinates":{"lat":"19.666667","long":"41.566667"}},{"country":"sa","city":"Al Jubaila","coordinates":{"lat":"24.894663","long":"46.445638"}},{"country":"sa","city":"Al-Jubail","coordinates":{"lat":"25.4","long":"49.65"}},{"country":"sa","city":"Al Jubaylah","coordinates":{"lat":"24.894663","long":"46.445638"}},{"country":"sa","city":"Al Jubayl","coordinates":{"lat":"25.4","long":"49.65"}},{"country":"sa","city":"Al Jubayl Industrial City","coordinates":{"lat":"27.048665","long":"49.561628"}},{"country":"sa","city":"Al Jubb","coordinates":{"lat":"27.183333","long":"42.283333"}},{"country":"sa","city":"Al Judaida","coordinates":{"lat":"31.328264","long":"41.443012"}},{"country":"sa","city":"Al Judaydah","coordinates":{"lat":"31.328264","long":"41.443012"}},{"country":"sa","city":"Al Judayyidah","coordinates":{"lat":"27.224817","long":"41.203935"}},{"country":"sa","city":"Al Judayyidah","coordinates":{"lat":"31.328264","long":"41.443012"}},{"country":"sa","city":"Al Judhamiyah","coordinates":{"lat":"27.677675","long":"41.725918"}},{"country":"sa","city":"Al Jufaifa","coordinates":{"lat":"27.1","long":"41.266667"}},{"country":"sa","city":"Al Jufaydiriyah","coordinates":{"lat":"22.283333","long":"46.716667"}},{"country":"sa","city":"Al Jufayfah","coordinates":{"lat":"27.1","long":"41.266667"}},{"country":"sa","city":"Al Jufayr","coordinates":{"lat":"24.02361","long":"46.293808"}},{"country":"sa","city":"Al Juhfah","coordinates":{"lat":"27.065665","long":"42.248637"}},{"country":"sa","city":"Al Juhu","coordinates":{"lat":"17.126141","long":"42.848497"}},{"country":"sa","city":"Al Jullab","coordinates":{"lat":"21.682454","long":"39.938275"}},{"country":"sa","city":"Al Jum`ah","coordinates":{"lat":"18.283333","long":"42.55"}},{"country":"sa","city":"Al Jumaymah","coordinates":{"lat":"29.580652","long":"43.609195"}},{"country":"sa","city":"Al Jummayzah","coordinates":{"lat":"21.441389","long":"39.834722"}},{"country":"sa","city":"Al Jumum","coordinates":{"lat":"21.616944","long":"39.698056"}},{"country":"sa","city":"Al Jumun","coordinates":{"lat":"21.616944","long":"39.698056"}},{"country":"sa","city":"Al Junayfah","coordinates":{"lat":"25.4","long":"44.5"}},{"country":"sa","city":"Al Junayfi","coordinates":{"lat":"25.574261","long":"45.643218"}},{"country":"sa","city":"Al Junaynah","coordinates":{"lat":"20.279548","long":"42.803915"}},{"country":"sa","city":"Al Junibah","coordinates":{"lat":"18.05","long":"42.733333"}},{"country":"sa","city":"Al Ju`ranah","coordinates":{"lat":"21.560523","long":"39.955511"}},{"country":"sa","city":"Al Jurayba'","coordinates":{"lat":"29.545833","long":"43.936111"}},{"country":"sa","city":"Al Jurayfah","coordinates":{"lat":"25.530227","long":"45.256817"}},{"country":"sa","city":"Al Juraysa","coordinates":{"lat":"19.8","long":"41.883333"}},{"country":"sa","city":"Al Juraysah","coordinates":{"lat":"19.8","long":"41.883333"}},{"country":"sa","city":"Al Jurayyir","coordinates":{"lat":"26.078614","long":"42.595229"}},{"country":"sa","city":"Al Jurdhawiyah","coordinates":{"lat":"25.386664","long":"42.730236"}},{"country":"sa","city":"Al Jussah","coordinates":{"lat":"23.333041","long":"40.300361"}},{"country":"sa","city":"Al Juwayfah","coordinates":{"lat":"22.616667","long":"45.883333"}},{"country":"sa","city":"Al Kabrit","coordinates":{"lat":"28.104722","long":"47.855556"}},{"country":"sa","city":"Al Kahafah","coordinates":{"lat":"27.378811","long":"48.335195"}},{"country":"sa","city":"Al Kahfah","coordinates":{"lat":"27.378811","long":"48.335195"}},{"country":"sa","city":"Al Kahfah","coordinates":{"lat":"27.076955","long":"43.023196"}},{"country":"sa","city":"Al-Kahma","coordinates":{"lat":"18.004876","long":"41.677147"}},{"country":"sa","city":"Al Kamil","coordinates":{"lat":"22.260556","long":"39.796944"}},{"country":"sa","city":"Al Karbah","coordinates":{"lat":"19.374551","long":"41.795982"}},{"country":"sa","city":"Al Karbus","coordinates":{"lat":"16.873333","long":"42.631667"}},{"country":"sa","city":"Al-Kasab","coordinates":{"lat":"25.295891","long":"45.512755"}},{"country":"sa","city":"Al-Kasab","coordinates":{"lat":"28.028634","long":"35.244026"}},{"country":"sa","city":"Al Kasib","coordinates":{"lat":"30.504083","long":"41.934284"}},{"country":"sa","city":"Al-Kasr","coordinates":{"lat":"27.331667","long":"41.459722"}},{"country":"sa","city":"Al Kawahilah","coordinates":{"lat":"16.961389","long":"42.6725"}},{"country":"sa","city":"Al Kayd","coordinates":{"lat":"24.853333","long":"43.641944"}},{"country":"sa","city":"Al-Kfr","coordinates":{"lat":"27.414122","long":"41.623085"}},{"country":"sa","city":"Al Khabbah","coordinates":{"lat":"27.434139","long":"40.901685"}},{"country":"sa","city":"Al Khabra'","coordinates":{"lat":"26.063593","long":"43.651082"}},{"country":"sa","city":"Al Khadra' al Janubiyah","coordinates":{"lat":"17.033333","long":"42.816667"}},{"country":"sa","city":"Al Khadra'","coordinates":{"lat":"21.467778","long":"39.904722"}},{"country":"sa","city":"Al Khadra'","coordinates":{"lat":"16.585751","long":"42.963278"}},{"country":"sa","city":"Al Khadra' ash Shamaliyah","coordinates":{"lat":"17.055369","long":"42.808027"}},{"country":"sa","city":"Al Khadrah al Janubiyah","coordinates":{"lat":"17.033333","long":"42.816667"}},{"country":"sa","city":"Al Khadrah","coordinates":{"lat":"16.585751","long":"42.963278"}},{"country":"sa","city":"Al Khadrah ash Shamaliyah","coordinates":{"lat":"17.055369","long":"42.808027"}},{"country":"sa","city":"Al Khafaq al Jadid","coordinates":{"lat":"24.4247","long":"45.711122"}},{"country":"sa","city":"Al Khafaq al Qadim","coordinates":{"lat":"24.281461","long":"45.8322"}},{"country":"sa","city":"Al Khafji","coordinates":{"lat":"28.439048","long":"48.491322"}},{"country":"sa","city":"Al Khalaf","coordinates":{"lat":"17.95238","long":"43.127246"}},{"country":"sa","city":"Al Khala'iq al Gharbiyah","coordinates":{"lat":"24.520236","long":"45.597919"}},{"country":"sa","city":"Al Khala'iq ash Sharqiyah","coordinates":{"lat":"24.522658","long":"45.63749"}},{"country":"sa","city":"Al Khalas","coordinates":{"lat":"21.693159","long":"39.806648"}},{"country":"sa","city":"Al Khalf","coordinates":{"lat":"25.051753","long":"40.483771"}},{"country":"sa","city":"Al Khalidiyah","coordinates":{"lat":"24.622222","long":"46.759444"}},{"country":"sa","city":"Al Khalidiyah","coordinates":{"lat":"21.281944","long":"40.378611"}},{"country":"sa","city":"Al Khalij","coordinates":{"lat":"24.771389","long":"46.799167"}},{"country":"sa","city":"Al Khamasin","coordinates":{"lat":"20.49234","long":"44.749032"}},{"country":"sa","city":"Al Khammasin","coordinates":{"lat":"20.49234","long":"44.749032"}},{"country":"sa","city":"Al Khamrah","coordinates":{"lat":"22.441667","long":"39.474167"}},{"country":"sa","city":"Al Khaniq","coordinates":{"lat":"17.725369","long":"43.761772"}},{"country":"sa","city":"Al Khansak","coordinates":{"lat":"21.427354","long":"39.856945"}},{"country":"sa","city":"Al Kharabah","coordinates":{"lat":"16.755914","long":"42.954679"}},{"country":"sa","city":"Al Kharadilah","coordinates":{"lat":"16.927222","long":"42.626389"}},{"country":"sa","city":"Al Kharayij","coordinates":{"lat":"23.455833","long":"44.341667"}},{"country":"sa","city":"Al Kharfa","coordinates":{"lat":"22.227813","long":"46.692618"}},{"country":"sa","city":"Al Kharfah","coordinates":{"lat":"22.227813","long":"46.692618"}},{"country":"sa","city":"Al Kharjah","coordinates":{"lat":"21.082778","long":"40.718889"}},{"country":"sa","city":"Al Kharj","coordinates":{"lat":"24.155023","long":"47.334601"}},{"country":"sa","city":"Al Kharkhayr","coordinates":{"lat":"19.25","long":"51.25"}},{"country":"sa","city":"Al Kharma' al Janubiyah","coordinates":{"lat":"25.572961","long":"44.096238"}},{"country":"sa","city":"Al Kharma'","coordinates":{"lat":"23.896858","long":"38.895275"}},{"country":"sa","city":"Al Kharma'","coordinates":{"lat":"25.577222","long":"44.065"}},{"country":"sa","city":"Al Kharma' ash Shamaliyah","coordinates":{"lat":"25.604399","long":"44.062585"}},{"country":"sa","city":"Al Khars","coordinates":{"lat":"25.43869","long":"49.580225"}},{"country":"sa","city":"Al Khasawiyah","coordinates":{"lat":"16.940278","long":"42.643056"}},{"country":"sa","city":"Al Khashabiyah","coordinates":{"lat":"16.940278","long":"42.643056"}},{"country":"sa","city":"Al Khasirah","coordinates":{"lat":"23.509983","long":"43.77148"}},{"country":"sa","city":"Al Khatayshiyah","coordinates":{"lat":"26.6175","long":"49.925833"}},{"country":"sa","city":"Al Khatilah","coordinates":{"lat":"25.491573","long":"46.187039"}},{"country":"sa","city":"Al Khawbah","coordinates":{"lat":"16.788709","long":"43.221858"}},{"country":"sa","city":"Al Khawjarah","coordinates":{"lat":"16.529259","long":"43.014153"}},{"country":"sa","city":"Al Khawsh","coordinates":{"lat":"18.982515","long":"41.882677"}},{"country":"sa","city":"Al Khawwari","coordinates":{"lat":"27.769718","long":"48.878445"}},{"country":"sa","city":"Al Khaydar","coordinates":{"lat":"21.476369","long":"40.637575"}},{"country":"sa","city":"Al Khayf","coordinates":{"lat":"21.690121","long":"39.736731"}},{"country":"sa","city":"Al Khayt","coordinates":{"lat":"27.133611","long":"42.003333"}},{"country":"sa","city":"Al Khis","coordinates":{"lat":"24.255801","long":"45.022803"}},{"country":"sa","city":"Al Khishaybi","coordinates":{"lat":"25.563755","long":"43.35372"}},{"country":"sa","city":"Al Khishl","coordinates":{"lat":"16.880056","long":"43.13726"}},{"country":"sa","city":"Al Khobar","coordinates":{"lat":"26.279444","long":"50.208333"}},{"country":"sa","city":"Al Khubah","coordinates":{"lat":"16.788709","long":"43.221858"}},{"country":"sa","city":"Al Khubara'","coordinates":{"lat":"17.670008","long":"42.632646"}},{"country":"sa","city":"Al Khubar","coordinates":{"lat":"26.279444","long":"50.208333"}},{"country":"sa","city":"Al Khubra","coordinates":{"lat":"27.016667","long":"48.4"}},{"country":"sa","city":"Al Khubrah","coordinates":{"lat":"27.016667","long":"48.4"}},{"country":"sa","city":"Al Khufayfah","coordinates":{"lat":"24.906627","long":"44.719962"}},{"country":"sa","city":"Al Khufayfiyah","coordinates":{"lat":"24.906627","long":"44.719962"}},{"country":"sa","city":"Al Khulafiyah","coordinates":{"lat":"23.627222","long":"44.799722"}},{"country":"sa","city":"Al Khulasah","coordinates":{"lat":"21.694995","long":"39.919004"}},{"country":"sa","city":"Al Khunayqiyah","coordinates":{"lat":"24.265065","long":"45.085775"}},{"country":"sa","city":"Al Khunn","coordinates":{"lat":"23.303753","long":"49.251196"}},{"country":"sa","city":"Al Khuraiba","coordinates":{"lat":"23.1","long":"39.083333"}},{"country":"sa","city":"Al Khuraybah","coordinates":{"lat":"28.065031","long":"35.179776"}},{"country":"sa","city":"Al Khuraymi","coordinates":{"lat":"27.514409","long":"41.749276"}},{"country":"sa","city":"Al Khuraysha'","coordinates":{"lat":"25.412238","long":"43.381943"}},{"country":"sa","city":"Al Khurmah","coordinates":{"lat":"21.91149","long":"42.030918"}},{"country":"sa","city":"Al Khushaybi","coordinates":{"lat":"25.563755","long":"43.35372"}},{"country":"sa","city":"Al Khushaybi","coordinates":{"lat":"29.300686","long":"44.032876"}},{"country":"sa","city":"Al Khutamah","coordinates":{"lat":"25.618169","long":"45.692792"}},{"country":"sa","city":"Al Khutaym","coordinates":{"lat":"25.617067","long":"42.542727"}},{"country":"sa","city":"Al Khuttah","coordinates":{"lat":"27.994057","long":"41.731876"}},{"country":"sa","city":"Al Khuwayjiah","coordinates":{"lat":"23.133333","long":"39.516667"}},{"country":"sa","city":"Al Khuwayjiyah","coordinates":{"lat":"23.133333","long":"39.516667"}},{"country":"sa","city":"Al Khuways","coordinates":{"lat":"25.593113","long":"49.581818"}},{"country":"sa","city":"Al Khuzama","coordinates":{"lat":"24.717778","long":"46.590556"}},{"country":"sa","city":"Al Kidadiyah","coordinates":{"lat":"25.960476","long":"49.49285"}},{"country":"sa","city":"Al Kidwah","coordinates":{"lat":"21.778763","long":"39.685007"}},{"country":"sa","city":"Al Kihafah","coordinates":{"lat":"27.076955","long":"43.023196"}},{"country":"sa","city":"Al Kihayfiyah","coordinates":{"lat":"27.199233","long":"42.987394"}},{"country":"sa","city":"Al Kilabiyah","coordinates":{"lat":"25.433246","long":"49.667464"}},{"country":"sa","city":"Al Kilabiyat","coordinates":{"lat":"25.433246","long":"49.667464"}},{"country":"sa","city":"Al-Kira`","coordinates":{"lat":"21.803889","long":"39.136667"}},{"country":"sa","city":"Al Kirs","coordinates":{"lat":"16.577269","long":"42.947602"}},{"country":"sa","city":"Al Kitimah","coordinates":{"lat":"23.80978","long":"39.643246"}},{"country":"sa","city":"Al-Ksejbe","coordinates":{"lat":"26.865177","long":"43.600048"}},{"country":"sa","city":"Al Kuds","coordinates":{"lat":"18.683333","long":"42.066667"}},{"country":"sa","city":"Al Kuhayfiyah","coordinates":{"lat":"27.199233","long":"42.987394"}},{"country":"sa","city":"Al Kulakhiyah","coordinates":{"lat":"21.318056","long":"40.804444"}},{"country":"sa","city":"Al Kulla","coordinates":{"lat":"18.683333","long":"42.383333"}},{"country":"sa","city":"Al Kumah","coordinates":{"lat":"19.8","long":"41.733333"}},{"country":"sa","city":"Al-Kunfudha","coordinates":{"lat":"19.126389","long":"41.078889"}},{"country":"sa","city":"Al Kura`","coordinates":{"lat":"21.803889","long":"39.136667"}},{"country":"sa","city":"Al Labbah","coordinates":{"lat":"21.038611","long":"40.71"}},{"country":"sa","city":"Al Laghfah","coordinates":{"lat":"24.467773","long":"45.834984"}},{"country":"sa","city":"Al Lahabah al Janubiyah","coordinates":{"lat":"27.239444","long":"46.979444"}},{"country":"sa","city":"Al Lahabah","coordinates":{"lat":"27.23483","long":"46.979616"}},{"country":"sa","city":"Al Lahabah ash Shamaliyah","coordinates":{"lat":"27.263056","long":"46.979167"}},{"country":"sa","city":"Al-Lakita","coordinates":{"lat":"27.655336","long":"41.680572"}},{"country":"sa","city":"Al Laqayit","coordinates":{"lat":"29.988471","long":"40.254041"}},{"country":"sa","city":"Al Laqitah","coordinates":{"lat":"27.655336","long":"41.680572"}},{"country":"sa","city":"Al Laqyah","coordinates":{"lat":"16.660663","long":"43.039906"}},{"country":"sa","city":"Al Lasafah","coordinates":{"lat":"21.372778","long":"40.137778"}},{"country":"sa","city":"Al Lidam","coordinates":{"lat":"20.468604","long":"44.78716"}},{"country":"sa","city":"Al Lihabah","coordinates":{"lat":"27.23483","long":"46.979616"}},{"country":"sa","city":"Al Liqa'","coordinates":{"lat":"26.338743","long":"44.78266"}},{"country":"sa","city":"Al Lisafah","coordinates":{"lat":"27.618611","long":"46.864444"}},{"country":"sa","city":"Al Lith","coordinates":{"lat":"20.14804","long":"40.272235"}},{"country":"sa","city":"Al Lughfiyah","coordinates":{"lat":"25.522882","long":"42.558467"}},{"country":"sa","city":"Al Lughfiyah","coordinates":{"lat":"24.159204","long":"46.224082"}},{"country":"sa","city":"Al Lumayma'","coordinates":{"lat":"30.552125","long":"42.482681"}},{"country":"sa","city":"Al Luqiyah","coordinates":{"lat":"16.660663","long":"43.039906"}},{"country":"sa","city":"Al Luwaybidah","coordinates":{"lat":"27.563881","long":"42.725671"}},{"country":"sa","city":"Al Luwaymi","coordinates":{"lat":"27.900948","long":"42.371555"}},{"country":"sa","city":"Al Ma`abidah","coordinates":{"lat":"21.449722","long":"39.852222"}},{"country":"sa","city":"Al Ma'abid","coordinates":{"lat":"21.674742","long":"39.728137"}},{"country":"sa","city":"Al Ma'amil","coordinates":{"lat":"18.330344","long":"42.851532"}},{"country":"sa","city":"Al Ma`aqas","coordinates":{"lat":"19.512087","long":"41.666994"}},{"country":"sa","city":"Al Ma`arid","coordinates":{"lat":"24.724167","long":"46.791667"}},{"country":"sa","city":"Al Ma`arif","coordinates":{"lat":"17.566667","long":"43.45"}},{"country":"sa","city":"Al Ma`ashbah","coordinates":{"lat":"25.562525","long":"45.386294"}},{"country":"sa","city":"Al Ma`ayin","coordinates":{"lat":"16.610879","long":"43.147252"}},{"country":"sa","city":"Al Ma`azil","coordinates":{"lat":"26.880572","long":"42.134464"}},{"country":"sa","city":"Al Mabarraz","coordinates":{"lat":"22.316703","long":"46.726847"}},{"country":"sa","city":"Al Mabda`","coordinates":{"lat":"27.203889","long":"41.310278"}},{"country":"sa","city":"Al Mabiyah","coordinates":{"lat":"31.137905","long":"38.217878"}},{"country":"sa","city":"Al Mabn","coordinates":{"lat":"19.598105","long":"41.686541"}},{"country":"sa","city":"Al Mab`uthah","coordinates":{"lat":"27.062683","long":"41.466351"}},{"country":"sa","city":"Al Madabi`","coordinates":{"lat":"26.96373","long":"42.103937"}},{"country":"sa","city":"Al Mad","coordinates":{"lat":"19.833333","long":"41.533333"}},{"country":"sa","city":"Al Madarah","coordinates":{"lat":"24.198539","long":"45.037038"}},{"country":"sa","city":"Al Madaya","coordinates":{"lat":"16.769851","long":"42.731249"}},{"country":"sa","city":"Al Madayah","coordinates":{"lat":"16.769851","long":"42.731249"}},{"country":"sa","city":"Al Maddah","coordinates":{"lat":"18.576332","long":"42.657657"}},{"country":"sa","city":"Al Madhah","coordinates":{"lat":"18.851574","long":"43.2563"}},{"country":"sa","city":"Al Ma`dhar","coordinates":{"lat":"24.680278","long":"46.671667"}},{"country":"sa","city":"Al Ma`dhar ash Shamali","coordinates":{"lat":"24.665","long":"46.675278"}},{"country":"sa","city":"Al Madhiq","coordinates":{"lat":"23.32196","long":"39.620952"}},{"country":"sa","city":"Al Madhiq","coordinates":{"lat":"21.67523","long":"40.130643"}},{"country":"sa","city":"Al Madina","coordinates":{"lat":"24.468611","long":"39.614167"}},{"country":"sa","city":"Al Madinah","coordinates":{"lat":"24.468611","long":"39.614167"}},{"country":"sa","city":"Al Madinah","coordinates":{"lat":"24.747222","long":"46.636667"}},{"country":"sa","city":"Al Madinah al Munawwarah","coordinates":{"lat":"24.468611","long":"39.614167"}},{"country":"sa","city":"Al Madinah as Sina`iyah","coordinates":{"lat":"24.6","long":"46.666667"}},{"country":"sa","city":"Al Madiq","coordinates":{"lat":"23.32196","long":"39.620952"}},{"country":"sa","city":"Al Madiq","coordinates":{"lat":"21.67523","long":"40.130643"}},{"country":"sa","city":"Al Madra'","coordinates":{"lat":"19.910079","long":"42.57011"}},{"country":"sa","city":"Al Madrakah","coordinates":{"lat":"21.982954","long":"39.991884"}},{"country":"sa","city":"Al Mafraq","coordinates":{"lat":"28.766667","long":"35.516667"}},{"country":"sa","city":"Al Maghal","coordinates":{"lat":"21.967813","long":"39.541116"}},{"country":"sa","city":"Al Magharibah","coordinates":{"lat":"22.139668","long":"39.341605"}},{"country":"sa","city":"Al Maghrafiyah","coordinates":{"lat":"24.464119","long":"46.458198"}},{"country":"sa","city":"Al Mahabbah","coordinates":{"lat":"24.803333","long":"44.818889"}},{"country":"sa","city":"Al Mahalani","coordinates":{"lat":"26.137413","long":"42.204968"}},{"country":"sa","city":"Al Mahallah","coordinates":{"lat":"17.05","long":"42.75"}},{"country":"sa","city":"Al Mahamid","coordinates":{"lat":"20.066667","long":"41.333333"}},{"country":"sa","city":"Al Mahani","coordinates":{"lat":"22.476667","long":"40.39"}},{"country":"sa","city":"Al Mahash","coordinates":{"lat":"26.844298","long":"41.353947"}},{"country":"sa","city":"Al Mahattah","coordinates":{"lat":"16.697579","long":"43.114054"}},{"country":"sa","city":"Al Mahawiyah","coordinates":{"lat":"20.316743","long":"41.326088"}},{"country":"sa","city":"Al Mahdam","coordinates":{"lat":"20.989055","long":"40.742279"}},{"country":"sa","city":"Al Mahjar","coordinates":{"lat":"21.439167","long":"39.205278"}},{"country":"sa","city":"Al Mahruqat","coordinates":{"lat":"29.716414","long":"43.325228"}},{"country":"sa","city":"Al Mahshush","coordinates":{"lat":"18.080513","long":"42.70256"}},{"country":"sa","city":"Al Ma'ish","coordinates":{"lat":"18.566667","long":"42.033333"}},{"country":"sa","city":"Al Majaridah","coordinates":{"lat":"19.123611","long":"41.911111"}},{"country":"sa","city":"Al Majarish","coordinates":{"lat":"21.316389","long":"40.349444"}},{"country":"sa","city":"Al Majma`ah","coordinates":{"lat":"25.910968","long":"45.356646"}},{"country":"sa","city":"Al Majma","coordinates":{"lat":"18.116667","long":"42.733333"}},{"country":"sa","city":"Al Makhlutah","coordinates":{"lat":"18.065246","long":"42.033745"}},{"country":"sa","city":"Al Makhul","coordinates":{"lat":"26.624449","long":"42.607135"}},{"country":"sa","city":"Al Makhwah","coordinates":{"lat":"19.779444","long":"41.435556"}},{"country":"sa","city":"Al Makzam","coordinates":{"lat":"27.262835","long":"41.403786"}},{"country":"sa","city":"Al Makzum","coordinates":{"lat":"27.030712","long":"41.502508"}},{"country":"sa","city":"Al Malahah","coordinates":{"lat":"18.366667","long":"42.5"}},{"country":"sa","city":"Al Malahah","coordinates":{"lat":"18.027103","long":"43.521346"}},{"country":"sa","city":"Al Malaz","coordinates":{"lat":"24.656111","long":"46.7275"}},{"country":"sa","city":"Al Malbanah","coordinates":{"lat":"23.174868","long":"39.518611"}},{"country":"sa","city":"Al Mali","coordinates":{"lat":"16.795407","long":"42.953666"}},{"country":"sa","city":"Al Mallah","coordinates":{"lat":"20.016667","long":"41.5"}},{"country":"sa","city":"Al Mallat","coordinates":{"lat":"20.016667","long":"41.5"}},{"country":"sa","city":"Al Malqa'","coordinates":{"lat":"25.385927","long":"43.97231"}},{"country":"sa","city":"Al Manakh","coordinates":{"lat":"24.615833","long":"46.793333"}},{"country":"sa","city":"Al Mani`","coordinates":{"lat":"17.948073","long":"43.217494"}},{"country":"sa","city":"Al Manifiyah","coordinates":{"lat":"24.189415","long":"47.280303"}},{"country":"sa","city":"Al Mani`iyah","coordinates":{"lat":"24.394122","long":"45.828756"}},{"country":"sa","city":"Al Manjarah","coordinates":{"lat":"17.568177","long":"42.189971"}},{"country":"sa","city":"Al Mansouriyah","coordinates":{"lat":"24.514966","long":"46.781477"}},{"country":"sa","city":"Al Mansurah","coordinates":{"lat":"24.607778","long":"46.744722"}},{"country":"sa","city":"Al Mansuriyah","coordinates":{"lat":"24.514966","long":"46.781477"}},{"country":"sa","city":"Al Ma`qas","coordinates":{"lat":"19.512087","long":"41.666994"}},{"country":"sa","city":"Al Maqnah","coordinates":{"lat":"28.405642","long":"34.744095"}},{"country":"sa","city":"Al Maqrah","coordinates":{"lat":"21.259981","long":"39.940258"}},{"country":"sa","city":"Al Marabi","coordinates":{"lat":"16.656884","long":"42.79631"}},{"country":"sa","city":"Al Maraghah","coordinates":{"lat":"18.166667","long":"42.8"}},{"country":"sa","city":"Al Marah","coordinates":{"lat":"25.583333","long":"49.583333"}},{"country":"sa","city":"Al Ma`rash","coordinates":{"lat":"21.129167","long":"40.605556"}},{"country":"sa","city":"Al Markaz","coordinates":{"lat":"25.4","long":"49.733333"}},{"country":"sa","city":"Al Markuz","coordinates":{"lat":"30.134167","long":"42.631944"}},{"country":"sa","city":"Al Marm","coordinates":{"lat":"27.121056","long":"41.062581"}},{"country":"sa","city":"Al Marmuthah al Janubiyah","coordinates":{"lat":"25.559468","long":"42.833646"}},{"country":"sa","city":"Al Marqab","coordinates":{"lat":"24.636111","long":"46.724167"}},{"country":"sa","city":"Al Marw","coordinates":{"lat":"19.829167","long":"41.442778"}},{"country":"sa","city":"Al Marwah","coordinates":{"lat":"24.544444","long":"46.671667"}},{"country":"sa","city":"Al Marwah","coordinates":{"lat":"19.829167","long":"41.442778"}},{"country":"sa","city":"Al Marwah","coordinates":{"lat":"16.807335","long":"43.132257"}},{"country":"sa","city":"Al Masani`","coordinates":{"lat":"24.578124","long":"46.720349"}},{"country":"sa","city":"Al Masarrah","coordinates":{"lat":"21.370278","long":"40.461111"}},{"country":"sa","city":"Al Masbar","coordinates":{"lat":"24.144231","long":"46.199329"}},{"country":"sa","city":"Al Masfalah","coordinates":{"lat":"21.405079","long":"39.822245"}},{"country":"sa","city":"Al Mashaer","coordinates":{"lat":"18.633333","long":"42.3"}},{"country":"sa","city":"Al Masha'ikh","coordinates":{"lat":"19.233333","long":"41.083333"}},{"country":"sa","city":"Al Masha`ilah","coordinates":{"lat":"24.500645","long":"45.760707"}},{"country":"sa","city":"Al Mashayikh","coordinates":{"lat":"21.362293","long":"40.333885"}},{"country":"sa","city":"Al Mashramiyah","coordinates":{"lat":"16.65","long":"42.8"}},{"country":"sa","city":"Al Ma`shuqah","coordinates":{"lat":"20.316667","long":"41.4"}},{"country":"sa","city":"Al Masif","coordinates":{"lat":"24.765556","long":"46.681389"}},{"country":"sa","city":"Al Masna`ah","coordinates":{"lat":"19.833333","long":"41.55"}},{"country":"sa","city":"Al Massarah","coordinates":{"lat":"21.370584","long":"40.467894"}},{"country":"sa","city":"Al Mathnah","coordinates":{"lat":"21.263333","long":"40.390556"}},{"country":"sa","city":"Al Matrif","coordinates":{"lat":"21.133333","long":"40.516667"}},{"country":"sa","city":"Al Mayasam","coordinates":{"lat":"16.947916","long":"42.721187"}},{"country":"sa","city":"Al Maysari","coordinates":{"lat":"30.4508","long":"38.340151"}},{"country":"sa","city":"Al Ma`yuf","coordinates":{"lat":"18.283333","long":"41.9"}},{"country":"sa","city":"Al Mayyah","coordinates":{"lat":"27.844519","long":"42.774822"}},{"country":"sa","city":"Al Mazri`","coordinates":{"lat":"23.006146","long":"39.890898"}},{"country":"sa","city":"Al Medina","coordinates":{"lat":"24.468611","long":"39.614167"}},{"country":"sa","city":"Al Midhnab","coordinates":{"lat":"25.860119","long":"44.222283"}},{"country":"sa","city":"Al Midhya'","coordinates":{"lat":"21.436833","long":"40.501981"}},{"country":"sa","city":"Al Mifa","coordinates":{"lat":"18.893455","long":"41.960189"}},{"country":"sa","city":"Al Mighzal","coordinates":{"lat":"25.188953","long":"44.214604"}},{"country":"sa","city":"Al Mihayniyah","coordinates":{"lat":"27.697586","long":"43.061019"}},{"country":"sa","city":"Al Mijasas","coordinates":{"lat":"17.05","long":"42.866667"}},{"country":"sa","city":"Al Mijazah","coordinates":{"lat":"17.520405","long":"43.566719"}},{"country":"sa","city":"Al Mikhlaf","coordinates":{"lat":"17.539572","long":"44.213495"}},{"country":"sa","city":"Al Mikhwah","coordinates":{"lat":"19.779444","long":"41.435556"}},{"country":"sa","city":"Al Milhah","coordinates":{"lat":"23.804117","long":"39.463005"}},{"country":"sa","city":"Al Mindak","coordinates":{"lat":"20.158802","long":"41.283372"}},{"country":"sa","city":"Al Mindaq","coordinates":{"lat":"20.158802","long":"41.283372"}},{"country":"sa","city":"Al Mindassah al Gharbiyah","coordinates":{"lat":"27.984117","long":"41.923102"}},{"country":"sa","city":"Al Mindassah ash Sharqiyah","coordinates":{"lat":"27.995","long":"42.011389"}},{"country":"sa","city":"Al Mi`qas","coordinates":{"lat":"19.512087","long":"41.666994"}},{"country":"sa","city":"Al Mish`ab","coordinates":{"lat":"28.101253","long":"48.611435"}},{"country":"sa","city":"Al Mishash","coordinates":{"lat":"24.88373","long":"43.020876"}},{"country":"sa","city":"Al Mishash","coordinates":{"lat":"24.804074","long":"43.524061"}},{"country":"sa","city":"Al Mishillahah","coordinates":{"lat":"17.34154","long":"42.757564"}},{"country":"sa","city":"Al Miski","coordinates":{"lat":"18.05","long":"42.75"}},{"country":"sa","city":"Al Mislanah","coordinates":{"lat":"19.216667","long":"42.1"}},{"country":"sa","city":"Al Mith`ab","coordinates":{"lat":"23.263889","long":"46.820833"}},{"country":"sa","city":"Al Mi`zal","coordinates":{"lat":"23.997454","long":"45.190487"}},{"country":"sa","city":"Al Mosna`a","coordinates":{"lat":"19.833333","long":"41.55"}},{"country":"sa","city":"Al Mu`abba'","coordinates":{"lat":"28.002338","long":"42.062303"}},{"country":"sa","city":"Al Mu`ayqilat","coordinates":{"lat":"27.282448","long":"41.37213"}},{"country":"sa","city":"Al Mu`aysim","coordinates":{"lat":"21.450833","long":"39.903333"}},{"country":"sa","city":"Al Mu`ayzilah","coordinates":{"lat":"24.802222","long":"46.845"}},{"country":"sa","city":"Al Mubarak","coordinates":{"lat":"21.68906","long":"39.90601"}},{"country":"sa","city":"Al Mubarakiyah","coordinates":{"lat":"26.461389","long":"50.090833"}},{"country":"sa","city":"Al Mubarikiyah","coordinates":{"lat":"26.461389","long":"50.090833"}},