[{"country":"nz","city":"Abbotsford","coordinates":{"lat":"-45.883333","long":"170.416667"}},{"country":"nz","city":"Adams Flat","coordinates":{"lat":"-46.116667","long":"169.833333"}},{"country":"nz","city":"Addington","coordinates":{"lat":"-43.55","long":"172.616667"}},{"country":"nz","city":"Admiralty Bay","coordinates":{"lat":"-40.95","long":"173.916667"}},{"country":"nz","city":"Ahaura","coordinates":{"lat":"-42.35","long":"171.533333"}},{"country":"nz","city":"Ahikiwi","coordinates":{"lat":"-35.783333","long":"173.733333"}},{"country":"nz","city":"Ahimia","coordinates":{"lat":"-36.85","long":"175.483333"}},{"country":"nz","city":"Ahipara","coordinates":{"lat":"-35.166667","long":"173.166667"}},{"country":"nz","city":"Ahititi","coordinates":{"lat":"-38.433333","long":"178.05"}},{"country":"nz","city":"Ahuiti","coordinates":{"lat":"-39.633333","long":"175"}},{"country":"nz","city":"Ahurangi","coordinates":{"lat":"-39.7","long":"175.116667"}},{"country":"nz","city":"Ahuriri","coordinates":{"lat":"-39.483333","long":"176.9"}},{"country":"nz","city":"Ahuriri Village","coordinates":{"lat":"-39.248889","long":"177.861944"}},{"country":"nz","city":"Ahuroa","coordinates":{"lat":"-36.483333","long":"174.566667"}},{"country":"nz","city":"Aickens","coordinates":{"lat":"-42.783333","long":"171.616667"}},{"country":"nz","city":"Aka Aka","coordinates":{"lat":"-37.3","long":"174.766667"}},{"country":"nz","city":"Akatore","coordinates":{"lat":"-46.15","long":"170.116667"}},{"country":"nz","city":"Akerama","coordinates":{"lat":"-35.483333","long":"174.166667"}},{"country":"nz","city":"Akitio","coordinates":{"lat":"-40.6","long":"176.416667"}},{"country":"nz","city":"Albany","coordinates":{"lat":"-36.716667","long":"174.7"}},{"country":"nz","city":"Albert Road","coordinates":{"lat":"-39.166667","long":"174.133333"}},{"country":"nz","city":"Albert Town","coordinates":{"lat":"-44.683333","long":"169.2"}},{"country":"nz","city":"Albury","coordinates":{"lat":"-44.233333","long":"170.866667"}},{"country":"nz","city":"Alford Forest","coordinates":{"lat":"-43.616667","long":"171.5"}},{"country":"nz","city":"Alfredton","coordinates":{"lat":"-40.683333","long":"175.85"}},{"country":"nz","city":"Algies Bay","coordinates":{"lat":"-36.435278","long":"174.740278"}},{"country":"nz","city":"Allandale","coordinates":{"lat":"-43.65","long":"172.65"}},{"country":"nz","city":"Allanton","coordinates":{"lat":"-45.916667","long":"170.266667"}},{"country":"nz","city":"Allerton","coordinates":{"lat":"-39.674444","long":"176.824167"}},{"country":"nz","city":"Alma","coordinates":{"lat":"-45.116667","long":"170.916667"}},{"country":"nz","city":"Altimarloch","coordinates":{"lat":"-41.733333","long":"173.866667"}},{"country":"nz","city":"Altimarlock","coordinates":{"lat":"-41.733333","long":"173.866667"}},{"country":"nz","city":"Alton","coordinates":{"lat":"-39.666667","long":"174.45"}},{"country":"nz","city":"Amberley","coordinates":{"lat":"-43.166667","long":"172.733333"}},{"country":"nz","city":"Amodeo","coordinates":{"lat":"-36.666667","long":"175.433333"}},{"country":"nz","city":"Amodeo Bay","coordinates":{"lat":"-36.666667","long":"175.433333"}},{"country":"nz","city":"Anama","coordinates":{"lat":"-43.75","long":"171.433333"}},{"country":"nz","city":"Annat","coordinates":{"lat":"-43.383333","long":"172"}},{"country":"nz","city":"Aohanga","coordinates":{"lat":"-40.676944","long":"176.351111"}},{"country":"nz","city":"Aokautere","coordinates":{"lat":"-40.366667","long":"175.666667"}},{"country":"nz","city":"Aongatete","coordinates":{"lat":"-37.616667","long":"175.95"}},{"country":"nz","city":"Aorere","coordinates":{"lat":"-40.716667","long":"172.6"}},{"country":"nz","city":"Aotea","coordinates":{"lat":"-37.916667","long":"174.8"}},{"country":"nz","city":"Aotuhia","coordinates":{"lat":"-39.25","long":"174.816667"}},{"country":"nz","city":"Aparima","coordinates":{"lat":"-46.083333","long":"168.05"}},{"country":"nz","city":"Apata","coordinates":{"lat":"-37.65","long":"176"}},{"country":"nz","city":"Apiti","coordinates":{"lat":"-39.966667","long":"175.883333"}},{"country":"nz","city":"Appleby","coordinates":{"lat":"-41.3","long":"173.116667"}},{"country":"nz","city":"Arahura","coordinates":{"lat":"-42.666667","long":"171.033333"}},{"country":"nz","city":"Arai Point","coordinates":{"lat":"-36.166667","long":"174.616667"}},{"country":"nz","city":"Aramiro","coordinates":{"lat":"-37.883333","long":"175.05"}},{"country":"nz","city":"Aramoana","coordinates":{"lat":"-45.783333","long":"170.7"}},{"country":"nz","city":"Aramoho","coordinates":{"lat":"-39.916667","long":"175.05"}},{"country":"nz","city":"Aranga","coordinates":{"lat":"-35.733333","long":"173.616667"}},{"country":"nz","city":"Aranui","coordinates":{"lat":"-43.516667","long":"172.7"}},{"country":"nz","city":"Arapae","coordinates":{"lat":"-38.416667","long":"175.083333"}},{"country":"nz","city":"Arapito","coordinates":{"lat":"-41.266667","long":"172.166667"}},{"country":"nz","city":"Arapohue","coordinates":{"lat":"-35.983333","long":"173.966667"}},{"country":"nz","city":"Arapuni","coordinates":{"lat":"-38.066667","long":"175.65"}},{"country":"nz","city":"Ararata","coordinates":{"lat":"-39.516667","long":"174.366667"}},{"country":"nz","city":"Ararimu","coordinates":{"lat":"-37.15","long":"175.033333"}},{"country":"nz","city":"Aratapu","coordinates":{"lat":"-36.016667","long":"173.9"}},{"country":"nz","city":"Arcadia","coordinates":{"lat":"-44.733333","long":"168.366667"}},{"country":"nz","city":"Ardlussa","coordinates":{"lat":"-45.816667","long":"168.65"}},{"country":"nz","city":"Ardmore","coordinates":{"lat":"-37.033333","long":"175"}},{"country":"nz","city":"Ardmore College","coordinates":{"lat":"-37.033333","long":"175"}},{"country":"nz","city":"Argyll East","coordinates":{"lat":"-39.866667","long":"176.533333"}},{"country":"nz","city":"Aria","coordinates":{"lat":"-38.55","long":"174.983333"}},{"country":"nz","city":"Ariki","coordinates":{"lat":"-41.8","long":"172.216667"}},{"country":"nz","city":"Aropaki","coordinates":{"lat":"-46.283333","long":"167.733333"}},{"country":"nz","city":"Arthur Pass","coordinates":{"lat":"-42.95","long":"171.566667"}},{"country":"nz","city":"Arthur's Pass","coordinates":{"lat":"-42.95","long":"171.566667"}},{"country":"nz","city":"Arthurs Point","coordinates":{"lat":"-44.983333","long":"168.666667"}},{"country":"nz","city":"Arthurton","coordinates":{"lat":"-46.116667","long":"169.166667"}},{"country":"nz","city":"Arundel","coordinates":{"lat":"-43.983333","long":"171.283333"}},{"country":"nz","city":"Ashhurst","coordinates":{"lat":"-40.3","long":"175.75"}},{"country":"nz","city":"Ashley","coordinates":{"lat":"-43.283333","long":"172.6"}},{"country":"nz","city":"Ashley Bank","coordinates":{"lat":"-43.283333","long":"172.6"}},{"country":"nz","city":"Ashley Clinton","coordinates":{"lat":"-39.95","long":"176.25"}},{"country":"nz","city":"Ashton","coordinates":{"lat":"-44.033333","long":"171.766667"}},{"country":"nz","city":"Ashwick Flat","coordinates":{"lat":"-44","long":"170.833333"}},{"country":"nz","city":"Ataahua","coordinates":{"lat":"-43.783333","long":"172.65"}},{"country":"nz","city":"Atapo","coordinates":{"lat":"-41.616667","long":"172.783333"}},{"country":"nz","city":"Atarau","coordinates":{"lat":"-42.333333","long":"171.483333"}},{"country":"nz","city":"Atawhai","coordinates":{"lat":"-41.233333","long":"173.316667"}},{"country":"nz","city":"Atene","coordinates":{"lat":"-39.733333","long":"175.15"}},{"country":"nz","city":"Athenree","coordinates":{"lat":"-37.466667","long":"175.916667"}},{"country":"nz","city":"Athol","coordinates":{"lat":"-45.516667","long":"168.583333"}},{"country":"nz","city":"Atiamuri","coordinates":{"lat":"-38.383333","long":"176.016667"}},{"country":"nz","city":"Atiamuri Bridge","coordinates":{"lat":"-38.383333","long":"176.016667"}},{"country":"nz","city":"Auckland","coordinates":{"lat":"-36.866667","long":"174.766667"}},{"country":"nz","city":"Aukopae","coordinates":{"lat":"-38.9","long":"175.166667"}},{"country":"nz","city":"Auroa","coordinates":{"lat":"-39.483333","long":"174.05"}},{"country":"nz","city":"Autawa","coordinates":{"lat":"-39.216667","long":"174.466667"}},{"country":"nz","city":"Avondale","coordinates":{"lat":"-36.883333","long":"174.7"}},{"country":"nz","city":"Avondale","coordinates":{"lat":"-41.683333","long":"173.633333"}},{"country":"nz","city":"Awaawakino","coordinates":{"lat":"-37.966667","long":"177.45"}},{"country":"nz","city":"Awahuri","coordinates":{"lat":"-40.266667","long":"175.516667"}},{"country":"nz","city":"Awa-iti","coordinates":{"lat":"-40.866667","long":"173"}},{"country":"nz","city":"Awakaponga","coordinates":{"lat":"-37.933333","long":"176.766667"}},{"country":"nz","city":"Awakeri","coordinates":{"lat":"-38","long":"176.9"}},{"country":"nz","city":"Awakino","coordinates":{"lat":"-38.65","long":"174.633333"}},{"country":"nz","city":"Awamangu","coordinates":{"lat":"-46.1","long":"169.65"}},{"country":"nz","city":"Awamarino","coordinates":{"lat":"-38.266667","long":"174.8"}},{"country":"nz","city":"Awamoko","coordinates":{"lat":"-44.933333","long":"170.883333"}},{"country":"nz","city":"Awamunga","coordinates":{"lat":"-46.1","long":"169.65"}},{"country":"nz","city":"Awanui","coordinates":{"lat":"-35.05","long":"173.25"}},{"country":"nz","city":"Awapiri","coordinates":{"lat":"-41.833333","long":"173.733333"}},{"country":"nz","city":"Awaroa","coordinates":{"lat":"-36.816667","long":"175.116667"}},{"country":"nz","city":"Awarua","coordinates":{"lat":"-35.583333","long":"173.85"}},{"country":"nz","city":"Awarua Plains","coordinates":{"lat":"-46.483333","long":"168.383333"}},{"country":"nz","city":"Awatea","coordinates":{"lat":"-46.366667","long":"169.533333"}},{"country":"nz","city":"Awatoto","coordinates":{"lat":"-39.55","long":"176.9"}},{"country":"nz","city":"Awatuna","coordinates":{"lat":"-39.45","long":"174.05"}},{"country":"nz","city":"Awhitu","coordinates":{"lat":"-37.083333","long":"174.65"}},{"country":"nz","city":"Awhitu Central","coordinates":{"lat":"-37.083333","long":"174.583333"}},{"country":"nz","city":"Aylesbury","coordinates":{"lat":"-43.533333","long":"172.266667"}},{"country":"nz","city":"Babylon","coordinates":{"lat":"-35.9","long":"173.816667"}},{"country":"nz","city":"Bainesse","coordinates":{"lat":"-40.416667","long":"175.383333"}},{"country":"nz","city":"Bainham","coordinates":{"lat":"-40.766667","long":"172.55"}},{"country":"nz","city":"Balcairn","coordinates":{"lat":"-43.2","long":"172.7"}},{"country":"nz","city":"Balclutha","coordinates":{"lat":"-46.233889","long":"169.75"}},{"country":"nz","city":"Balfour","coordinates":{"lat":"-45.833333","long":"168.583333"}},{"country":"nz","city":"Ballance","coordinates":{"lat":"-40.4","long":"175.8"}},{"country":"nz","city":"Bankside","coordinates":{"lat":"-43.7","long":"172.083333"}},{"country":"nz","city":"Bannockburn","coordinates":{"lat":"-45.083333","long":"169.166667"}},{"country":"nz","city":"Barnego","coordinates":{"lat":"-46.233333","long":"169.716667"}},{"country":"nz","city":"Barnego Flat","coordinates":{"lat":"-46.233333","long":"169.716667"}},{"country":"nz","city":"Barrhill","coordinates":{"lat":"-43.666667","long":"171.85"}},{"country":"nz","city":"Barrys Bay","coordinates":{"lat":"-43.766667","long":"172.9"}},{"country":"nz","city":"Barrytown","coordinates":{"lat":"-42.25","long":"171.333333"}},{"country":"nz","city":"Bartlett","coordinates":{"lat":"-38.85","long":"177.883333"}},{"country":"nz","city":"Bartlett's","coordinates":{"lat":"-38.85","long":"177.883333"}},{"country":"nz","city":"Bastings","coordinates":{"lat":"-45.783333","long":"169.466667"}},{"country":"nz","city":"Batley","coordinates":{"lat":"-36.216667","long":"174.316667"}},{"country":"nz","city":"Baton","coordinates":{"lat":"-41.316667","long":"172.716667"}},{"country":"nz","city":"Bayleys Beach","coordinates":{"lat":"-35.95","long":"173.733333"}},{"country":"nz","city":"Baylys Beach","coordinates":{"lat":"-35.95","long":"173.733333"}},{"country":"nz","city":"Bayswater","coordinates":{"lat":"-36.815556","long":"174.773333"}},{"country":"nz","city":"Bay View","coordinates":{"lat":"-39.416667","long":"176.883333"}},{"country":"nz","city":"Beachlands","coordinates":{"lat":"-36.883333","long":"175"}},{"country":"nz","city":"Bealey","coordinates":{"lat":"-43.033333","long":"171.6"}},{"country":"nz","city":"Beaumont","coordinates":{"lat":"-45.816667","long":"169.533333"}},{"country":"nz","city":"Beautiful Valley","coordinates":{"lat":"-44.116667","long":"171"}},{"country":"nz","city":"Becks","coordinates":{"lat":"-45","long":"169.733333"}},{"country":"nz","city":"Belfast","coordinates":{"lat":"-43.45","long":"172.633333"}},{"country":"nz","city":"Belgrove","coordinates":{"lat":"-41.45","long":"172.95"}},{"country":"nz","city":"Bell Block","coordinates":{"lat":"-39.033333","long":"174.15"}},{"country":"nz","city":"Bell Hill","coordinates":{"lat":"-42.55","long":"171.6"}},{"country":"nz","city":"Bells","coordinates":{"lat":"-43.3","long":"172.583333"}},{"country":"nz","city":"Belmont","coordinates":{"lat":"-36.8075","long":"174.786389"}},{"country":"nz","city":"Bendigo","coordinates":{"lat":"-44.916667","long":"169.35"}},{"country":"nz","city":"Benhar","coordinates":{"lat":"-46.233333","long":"169.8"}},{"country":"nz","city":"Benmore","coordinates":{"lat":"-45.95","long":"168.35"}},{"country":"nz","city":"Benmore Stream","coordinates":{"lat":"-44.35","long":"170"}},{"country":"nz","city":"Bennets","coordinates":{"lat":"-43.3","long":"172.3"}},{"country":"nz","city":"Bennetts","coordinates":{"lat":"-43.3","long":"172.3"}},{"country":"nz","city":"Berhampore","coordinates":{"lat":"-41.316667","long":"174.783333"}},{"country":"nz","city":"Berlins","coordinates":{"lat":"-41.866667","long":"171.833333"}},{"country":"nz","city":"Berwen","coordinates":{"lat":"-44.533333","long":"169.866667"}},{"country":"nz","city":"Berwick","coordinates":{"lat":"-45.95","long":"170.1"}},{"country":"nz","city":"Bethlehem","coordinates":{"lat":"-37.7","long":"176.116667"}},{"country":"nz","city":"Bexley","coordinates":{"lat":"-43.35","long":"172.066667"}},{"country":"nz","city":"Bideford","coordinates":{"lat":"-40.866667","long":"175.866667"}},{"country":"nz","city":"Big Omaha","coordinates":{"lat":"-36.333333","long":"174.733333"}},{"country":"nz","city":"Birchfield","coordinates":{"lat":"-41.683333","long":"171.8"}},{"country":"nz","city":"Birch Grove","coordinates":{"lat":"-46.116667","long":"167.733333"}},{"country":"nz","city":"Birch Hill","coordinates":{"lat":"-41.65","long":"173.283333"}},{"country":"nz","city":"Birchwood","coordinates":{"lat":"-45.933333","long":"167.866667"}},{"country":"nz","city":"Blackball","coordinates":{"lat":"-42.366667","long":"171.416667"}},{"country":"nz","city":"Blackburn","coordinates":{"lat":"-39.866667","long":"176.283333"}},{"country":"nz","city":"Blackpool","coordinates":{"lat":"-36.788889","long":"175.014444"}},{"country":"nz","city":"Blacks Point","coordinates":{"lat":"-42.133333","long":"171.883333"}},{"country":"nz","city":"Blackstone Hill","coordinates":{"lat":"-44.95","long":"169.916667"}},{"country":"nz","city":"Blackwater","coordinates":{"lat":"-42.25","long":"171.766667"}},{"country":"nz","city":"Blind River","coordinates":{"lat":"-41.683333","long":"174.116667"}},{"country":"nz","city":"Blueskin","coordinates":{"lat":"-45.75","long":"170.566667"}},{"country":"nz","city":"Bluespur","coordinates":{"lat":"-45.883333","long":"169.683333"}},{"country":"nz","city":"Blue Spur","coordinates":{"lat":"-42.716667","long":"171.033333"}},{"country":"nz","city":"Bluff","coordinates":{"lat":"-46.6","long":"168.333333"}},{"country":"nz","city":"Bog Roy","coordinates":{"lat":"-44.566667","long":"170.1"}},{"country":"nz","city":"Bombay","coordinates":{"lat":"-37.166667","long":"174.983333"}},{"country":"nz","city":"Bortons","coordinates":{"lat":"-44.883333","long":"170.766667"}},{"country":"nz","city":"Braeburn","coordinates":{"lat":"-41.183333","long":"173"}},{"country":"nz","city":"Brighams Creek","coordinates":{"lat":"-36.783333","long":"174.6"}},{"country":"nz","city":"Brighton","coordinates":{"lat":"-42.033333","long":"171.383333"}},{"country":"nz","city":"Brightwater","coordinates":{"lat":"-41.383333","long":"173.116667"}},{"country":"nz","city":"Broad Bay","coordinates":{"lat":"-45.85","long":"170.616667"}},{"country":"nz","city":"Broadwood","coordinates":{"lat":"-35.266667","long":"173.383333"}},{"country":"nz","city":"Bromley","coordinates":{"lat":"-43.55","long":"172.7"}},{"country":"nz","city":"Brooklyn","coordinates":{"lat":"-41.316667","long":"174.75"}},{"country":"nz","city":"Brookside","coordinates":{"lat":"-43.7","long":"172.3"}},{"country":"nz","city":"Broughton Bay","coordinates":{"lat":"-41.216667","long":"173.933333"}},{"country":"nz","city":"Browns Bay","coordinates":{"lat":"-36.716667","long":"174.75"}},{"country":"nz","city":"Browns","coordinates":{"lat":"-46.15","long":"168.416667"}},{"country":"nz","city":"Bruce Bay","coordinates":{"lat":"-43.583333","long":"169.683333"}},{"country":"nz","city":"Brunnerton","coordinates":{"lat":"-42.433333","long":"171.316667"}},{"country":"nz","city":"Brunswick","coordinates":{"lat":"-39.85","long":"175.016667"}},{"country":"nz","city":"Bruntwood","coordinates":{"lat":"-37.85","long":"175.433333"}},{"country":"nz","city":"Brydone","coordinates":{"lat":"-46.25","long":"168.8"}},{"country":"nz","city":"Buckland","coordinates":{"lat":"-37.233333","long":"174.916667"}},{"country":"nz","city":"Bull Creek","coordinates":{"lat":"-46.183333","long":"170.133333"}},{"country":"nz","city":"Bulls","coordinates":{"lat":"-40.166667","long":"175.383333"}},{"country":"nz","city":"Bulls Town District","coordinates":{"lat":"-40.166667","long":"175.383333"}},{"country":"nz","city":"Bunnythorpe","coordinates":{"lat":"-40.283333","long":"175.633333"}},{"country":"nz","city":"Buried Village","coordinates":{"lat":"-38.216667","long":"176.366667"}},{"country":"nz","city":"Burkes Pass","coordinates":{"lat":"-44.083333","long":"170.65"}},{"country":"nz","city":"Burnham","coordinates":{"lat":"-43.616667","long":"172.316667"}},{"country":"nz","city":"Burnside","coordinates":{"lat":"-45.9","long":"170.45"}},{"country":"nz","city":"Burwood","coordinates":{"lat":"-43.5","long":"172.7"}},{"country":"nz","city":"Bush Gully","coordinates":{"lat":"-41.316667","long":"175.65"}},{"country":"nz","city":"Caberfeidh","coordinates":{"lat":"-46.516667","long":"169.483333"}},{"country":"nz","city":"Cable Bay","coordinates":{"lat":"-41.166667","long":"173.416667"}},{"country":"nz","city":"Cairnbrae","coordinates":{"lat":"-43.666667","long":"171.683333"}},{"country":"nz","city":"Cambrian","coordinates":{"lat":"-44.9","long":"169.75"}},{"country":"nz","city":"Camden","coordinates":{"lat":"-41.85","long":"173.683333"}},{"country":"nz","city":"Camerons","coordinates":{"lat":"-42.55","long":"171.133333"}},{"country":"nz","city":"Campbells Bay","coordinates":{"lat":"-36.75","long":"174.766667"}},{"country":"nz","city":"Canvastown","coordinates":{"lat":"-41.3","long":"173.666667"}},{"country":"nz","city":"Cape Runaway","coordinates":{"lat":"-37.566667","long":"178.016667"}},{"country":"nz","city":"Cardiff","coordinates":{"lat":"-39.366667","long":"174.233333"}},{"country":"nz","city":"Cardrona","coordinates":{"lat":"-44.883333","long":"169"}},{"country":"nz","city":"Care","coordinates":{"lat":"-44.316667","long":"170.95"}},{"country":"nz","city":"Carew","coordinates":{"lat":"-43.966667","long":"171.366667"}},{"country":"nz","city":"Carnarvon","coordinates":{"lat":"-40.283333","long":"175.316667"}},{"country":"nz","city":"Carswells","coordinates":{"lat":"-40.933333","long":"175.916667"}},{"country":"nz","city":"Carters Beach","coordinates":{"lat":"-41.75","long":"171.566667"}},{"country":"nz","city":"Carters Mill","coordinates":{"lat":"-43.973333","long":"168.854167"}},{"country":"nz","city":"Cashmere","coordinates":{"lat":"-43.583333","long":"172.633333"}},{"country":"nz","city":"Cashmere Hills","coordinates":{"lat":"-43.583333","long":"172.633333"}},{"country":"nz","city":"Cass","coordinates":{"lat":"-43.033333","long":"171.75"}},{"country":"nz","city":"Castlecliff","coordinates":{"lat":"-39.95","long":"174.983333"}},{"country":"nz","city":"Castle Hill","coordinates":{"lat":"-43.233333","long":"171.716667"}},{"country":"nz","city":"Castlepoint","coordinates":{"lat":"-40.9","long":"176.216667"}},{"country":"nz","city":"Cave","coordinates":{"lat":"-44.316667","long":"170.95"}},{"country":"nz","city":"Caversham","coordinates":{"lat":"-45.9","long":"170.483333"}},{"country":"nz","city":"Centre Bush","coordinates":{"lat":"-46.05","long":"168.333333"}},{"country":"nz","city":"Chaneys","coordinates":{"lat":"-43.433333","long":"172.65"}},{"country":"nz","city":"Charing Cross","coordinates":{"lat":"-43.55","long":"172.15"}},{"country":"nz","city":"Charleston","coordinates":{"lat":"-41.9","long":"171.433333"}},{"country":"nz","city":"Charlton","coordinates":{"lat":"-46.15","long":"168.916667"}},{"country":"nz","city":"Charwell Forks","coordinates":{"lat":"-42.416667","long":"173.366667"}},{"country":"nz","city":"Chaslands","coordinates":{"lat":"-46.583333","long":"169.333333"}},{"country":"nz","city":"Chatto Creek","coordinates":{"lat":"-45.133333","long":"169.516667"}},{"country":"nz","city":"Chatton","coordinates":{"lat":"-45.983333","long":"168.916667"}},{"country":"nz","city":"Chelsea","coordinates":{"lat":"-36.816667","long":"174.7"}},{"country":"nz","city":"Cheltenham","coordinates":{"lat":"-40.15","long":"175.666667"}},{"country":"nz","city":"Chertsey","coordinates":{"lat":"-43.8","long":"171.933333"}},{"country":"nz","city":"Chesterfield","coordinates":{"lat":"-42.616667","long":"171.083333"}},{"country":"nz","city":"Cheviot","coordinates":{"lat":"-42.816667","long":"173.266667"}},{"country":"nz","city":"Chorlton","coordinates":{"lat":"-43.716667","long":"173.033333"}},{"country":"nz","city":"Christchurch","coordinates":{"lat":"-43.533333","long":"172.633333"}},{"country":"nz","city":"Churchill","coordinates":{"lat":"-37.416667","long":"175.066667"}},{"country":"nz","city":"Clandeboye","coordinates":{"lat":"-44.216667","long":"171.383333"}},{"country":"nz","city":"Claremont","coordinates":{"lat":"-44.383333","long":"171.116667"}},{"country":"nz","city":"Clarence","coordinates":{"lat":"-42.166667","long":"173.933333"}},{"country":"nz","city":"Clarendon","coordinates":{"lat":"-46.05","long":"170.033333"}},{"country":"nz","city":"Clareville","coordinates":{"lat":"-41.016667","long":"175.55"}},{"country":"nz","city":"Clarke's","coordinates":{"lat":"-45.733333","long":"170.05"}},{"country":"nz","city":"Clarks","coordinates":{"lat":"-45.733333","long":"170.05"}},{"country":"nz","city":"Clarks Junction","coordinates":{"lat":"-45.733333","long":"170.05"}},{"country":"nz","city":"Clarksville","coordinates":{"lat":"-46.133333","long":"169.916667"}},{"country":"nz","city":"Clarkville","coordinates":{"lat":"-43.416667","long":"172.616667"}},{"country":"nz","city":"Claudelands","coordinates":{"lat":"-37.783333","long":"175.283333"}},{"country":"nz","city":"Clearburn","coordinates":{"lat":"-44.35","long":"170"}},{"country":"nz","city":"Clevedon","coordinates":{"lat":"-37","long":"175.05"}},{"country":"nz","city":"Clifden","coordinates":{"lat":"-46.033333","long":"167.716667"}},{"country":"nz","city":"Cliff Road","coordinates":{"lat":"-40.066667","long":"175.416667"}},{"country":"nz","city":"Clifton","coordinates":{"lat":"-43.558333","long":"172.75"}},{"country":"nz","city":"Clinton","coordinates":{"lat":"-46.2","long":"169.366667"}},{"country":"nz","city":"Clive","coordinates":{"lat":"-39.583333","long":"176.916667"}},{"country":"nz","city":"Closeburn","coordinates":{"lat":"-45.083333","long":"168.466667"}},{"country":"nz","city":"Clyde","coordinates":{"lat":"-45.183333","long":"169.316667"}},{"country":"nz","city":"Clydevale","coordinates":{"lat":"-46.1","long":"169.533333"}},{"country":"nz","city":"Coal Creek","coordinates":{"lat":"-45.483333","long":"169.3"}},{"country":"nz","city":"Coal Creek Flat","coordinates":{"lat":"-45.483333","long":"169.3"}},{"country":"nz","city":"Coalgate","coordinates":{"lat":"-43.483333","long":"171.966667"}},{"country":"nz","city":"Coatesville","coordinates":{"lat":"-36.716667","long":"174.65"}},{"country":"nz","city":"Cobden","coordinates":{"lat":"-42.433333","long":"171.216667"}},{"country":"nz","city":"Colac Bay","coordinates":{"lat":"-46.366667","long":"167.883333"}},{"country":"nz","city":"Colac","coordinates":{"lat":"-46.366667","long":"167.883333"}},{"country":"nz","city":"Collingwood","coordinates":{"lat":"-40.666667","long":"172.683333"}},{"country":"nz","city":"Colville","coordinates":{"lat":"-36.633333","long":"175.466667"}},{"country":"nz","city":"Colyton","coordinates":{"lat":"-40.233333","long":"175.65"}},{"country":"nz","city":"Conical Hill","coordinates":{"lat":"-46.066667","long":"169.233333"}},{"country":"nz","city":"Conical Hills","coordinates":{"lat":"-46.066667","long":"169.233333"}},{"country":"nz","city":"Coopers Creek","coordinates":{"lat":"-43.283333","long":"172.1"}},{"country":"nz","city":"Corbyvale","coordinates":{"lat":"-41.5","long":"172.05"}},{"country":"nz","city":"Corinth","coordinates":{"lat":"-39.666667","long":"175.166667"}},{"country":"nz","city":"Cormacks","coordinates":{"lat":"-45.083333","long":"170.9"}},{"country":"nz","city":"Coroglen","coordinates":{"lat":"-36.916667","long":"175.7"}},{"country":"nz","city":"Coromandel","coordinates":{"lat":"-36.766667","long":"175.5"}},{"country":"nz","city":"Courtenay","coordinates":{"lat":"-43.45","long":"172.2"}},{"country":"nz","city":"Coutts Island","coordinates":{"lat":"-43.433333","long":"172.616667"}},{"country":"nz","city":"Cowes","coordinates":{"lat":"-36.783333","long":"175.15"}},{"country":"nz","city":"Craigieburn","coordinates":{"lat":"-43.1","long":"171.866667"}},{"country":"nz","city":"Crail Bay","coordinates":{"lat":"-41.15","long":"173.966667"}},{"country":"nz","city":"Creighton","coordinates":{"lat":"-45","long":"168.433333"}},{"country":"nz","city":"Cricklewood","coordinates":{"lat":"-44.183333","long":"170.866667"}},{"country":"nz","city":"Crofton","coordinates":{"lat":"-40.1","long":"175.383333"}},{"country":"nz","city":"Cronadun","coordinates":{"lat":"-42.033333","long":"171.866667"}},{"country":"nz","city":"Cross Creek","coordinates":{"lat":"-41.166667","long":"175.216667"}},{"country":"nz","city":"Crushington","coordinates":{"lat":"-42.15","long":"171.9"}},{"country":"nz","city":"Culverden","coordinates":{"lat":"-42.766667","long":"172.85"}},{"country":"nz","city":"Cunninghams","coordinates":{"lat":"-40.083333","long":"175.65"}},{"country":"nz","city":"Cust","coordinates":{"lat":"-43.316667","long":"172.366667"}},{"country":"nz","city":"Dacre","coordinates":{"lat":"-46.316667","long":"168.633333"}},{"country":"nz","city":"Dairy Flat","coordinates":{"lat":"-36.666667","long":"174.65"}},{"country":"nz","city":"Dalefield","coordinates":{"lat":"-41.05","long":"175.483333"}},{"country":"nz","city":"Darfield","coordinates":{"lat":"-43.483333","long":"172.116667"}},{"country":"nz","city":"Dargaville","coordinates":{"lat":"-35.933333","long":"173.883333"}},{"country":"nz","city":"Dashwood","coordinates":{"lat":"-41.633333","long":"174.066667"}},{"country":"nz","city":"Dawson Falls","coordinates":{"lat":"-39.333333","long":"174.1"}},{"country":"nz","city":"Dawson Gate","coordinates":{"lat":"-39.366667","long":"174.15"}},{"country":"nz","city":"Days Bay","coordinates":{"lat":"-41.266667","long":"174.916667"}},{"country":"nz","city":"Deborah","coordinates":{"lat":"-45.116667","long":"170.933333"}},{"country":"nz","city":"Deep Creek","coordinates":{"lat":"-41.35","long":"173.633333"}},{"country":"nz","city":"Denniston","coordinates":{"lat":"-41.733333","long":"171.8"}},{"country":"nz","city":"Devenport","coordinates":{"lat":"-36.829722","long":"174.799444"}},{"country":"nz","city":"Dipton","coordinates":{"lat":"-45.9","long":"168.366667"}},{"country":"nz","city":"Dobson","coordinates":{"lat":"-42.45","long":"171.3"}},{"country":"nz","city":"Domett","coordinates":{"lat":"-42.85","long":"173.216667"}},{"country":"nz","city":"Donnellys Crossing","coordinates":{"lat":"-35.716667","long":"173.616667"}},{"country":"nz","city":"Dorie","coordinates":{"lat":"-43.883333","long":"172.15"}},{"country":"nz","city":"Douglas","coordinates":{"lat":"-39.3","long":"174.466667"}},{"country":"nz","city":"Dovedale","coordinates":{"lat":"-41.333333","long":"172.933333"}},{"country":"nz","city":"Doyleston","coordinates":{"lat":"-43.75","long":"172.3"}},{"country":"nz","city":"Driving Creek","coordinates":{"lat":"-36.733333","long":"175.5"}},{"country":"nz","city":"Dromore","coordinates":{"lat":"-43.85","long":"171.85"}},{"country":"nz","city":"Drummond","coordinates":{"lat":"-46.15","long":"168.15"}},{"country":"nz","city":"Drury","coordinates":{"lat":"-37.1","long":"174.95"}},{"country":"nz","city":"Drybread","coordinates":{"lat":"-44.983333","long":"169.616667"}},{"country":"nz","city":"Dumbarton","coordinates":{"lat":"-45.6","long":"169.316667"}},{"country":"nz","city":"Dunback","coordinates":{"lat":"-45.383333","long":"170.633333"}},{"country":"nz","city":"Dunedin","coordinates":{"lat":"-45.866667","long":"170.5"}},{"country":"nz","city":"Dunrobin","coordinates":{"lat":"-45.8","long":"169.316667"}},{"country":"nz","city":"Dunsandel","coordinates":{"lat":"-43.666667","long":"172.183333"}},{"country":"nz","city":"Duntroon","coordinates":{"lat":"-44.866667","long":"170.683333"}},{"country":"nz","city":"Duvauchelle","coordinates":{"lat":"-43.75","long":"172.933333"}},{"country":"nz","city":"Duvauchelles","coordinates":{"lat":"-43.75","long":"172.933333"}},{"country":"nz","city":"Ealing","coordinates":{"lat":"-44.05","long":"171.416667"}},{"country":"nz","city":"Earnscleugh","coordinates":{"lat":"-45.216667","long":"169.316667"}},{"country":"nz","city":"Earnscleugh Settlement","coordinates":{"lat":"-45.216667","long":"169.316667"}},{"country":"nz","city":"Eastbourne","coordinates":{"lat":"-41.3","long":"174.9"}},{"country":"nz","city":"East Cape","coordinates":{"lat":"-37.7","long":"178.55"}},{"country":"nz","city":"East Chatton","coordinates":{"lat":"-45.983333","long":"168.966667"}},{"country":"nz","city":"East End","coordinates":{"lat":"-46.604167","long":"168.347222"}},{"country":"nz","city":"Eastern Bush","coordinates":{"lat":"-45.983333","long":"167.766667"}},{"country":"nz","city":"East Taieri","coordinates":{"lat":"-45.9","long":"170.333333"}},{"country":"nz","city":"East Takaka","coordinates":{"lat":"-40.916667","long":"172.833333"}},{"country":"nz","city":"East Tamaki","coordinates":{"lat":"-36.95","long":"174.9"}},{"country":"nz","city":"Edendale","coordinates":{"lat":"-46.316667","long":"168.783333"}},{"country":"nz","city":"Edendale Town District","coordinates":{"lat":"-46.316667","long":"168.783333"}},{"country":"nz","city":"Edgecumbe","coordinates":{"lat":"-37.983333","long":"176.833333"}},{"country":"nz","city":"Edievale","coordinates":{"lat":"-45.8","long":"169.366667"}},{"country":"nz","city":"Egmont Village","coordinates":{"lat":"-39.15","long":"174.15"}},{"country":"nz","city":"Eiffelton","coordinates":{"lat":"-44.033333","long":"171.683333"}},{"country":"nz","city":"Elgin","coordinates":{"lat":"-43.95","long":"171.816667"}},{"country":"nz","city":"Ellesmere","coordinates":{"lat":"-43.683333","long":"172.366667"}},{"country":"nz","city":"Elsthorpe","coordinates":{"lat":"-39.916667","long":"176.816667"}},{"country":"nz","city":"Eltham","coordinates":{"lat":"-39.429167","long":"174.3"}},{"country":"nz","city":"Endeavour Inlet","coordinates":{"lat":"-41.083333","long":"174.183333"}},{"country":"nz","city":"Enfield","coordinates":{"lat":"-44.966667","long":"170.783333"}},{"country":"nz","city":"Erehwon","coordinates":{"lat":"-39.516667","long":"175.966667"}},{"country":"nz","city":"Erina","coordinates":{"lat":"-41.55","long":"173.6"}},{"country":"nz","city":"Erua","coordinates":{"lat":"-39.233333","long":"175.4"}},{"country":"nz","city":"Eskdale","coordinates":{"lat":"-39.4","long":"176.833333"}},{"country":"nz","city":"Esk Valley","coordinates":{"lat":"-44.533333","long":"171.083333"}},{"country":"nz","city":"Ethelton","coordinates":{"lat":"-42.883333","long":"173.083333"}},{"country":"nz","city":"Eureka","coordinates":{"lat":"-37.733333","long":"175.416667"}},{"country":"nz","city":"Evansdale","coordinates":{"lat":"-45.716667","long":"170.566667"}},{"country":"nz","city":"Evans Flat","coordinates":{"lat":"-45.9","long":"169.633333"}},{"country":"nz","city":"Eyre Creek","coordinates":{"lat":"-45.583333","long":"168.466667"}},{"country":"nz","city":"Fabians Valley","coordinates":{"lat":"-41.5","long":"173.583333"}},{"country":"nz","city":"Fairburn","coordinates":{"lat":"-35.1","long":"173.4"}},{"country":"nz","city":"Fairdown","coordinates":{"lat":"-41.733333","long":"171.7"}},{"country":"nz","city":"Fairfax","coordinates":{"lat":"-46.2","long":"168.05"}},{"country":"nz","city":"Fairfield","coordinates":{"lat":"-45.9","long":"170.4"}},{"country":"nz","city":"Fairlie","coordinates":{"lat":"-44.1","long":"170.833333"}},{"country":"nz","city":"Fairton","coordinates":{"lat":"-43.866667","long":"171.8"}},{"country":"nz","city":"Fairview","coordinates":{"lat":"-44.416667","long":"171.166667"}},{"country":"nz","city":"Favona","coordinates":{"lat":"-36.933333","long":"174.8"}},{"country":"nz","city":"Fendalton","coordinates":{"lat":"-43.516667","long":"172.6"}},{"country":"nz","city":"Fergusons","coordinates":{"lat":"-42.966667","long":"170.733333"}},{"country":"nz","city":"Fern Flat","coordinates":{"lat":"-41.783333","long":"172.25"}},{"country":"nz","city":"Fernhill","coordinates":{"lat":"-39.583333","long":"176.766667"}},{"country":"nz","city":"Fernleigh","coordinates":{"lat":"-37.25","long":"174.75"}},{"country":"nz","city":"Fernside","coordinates":{"lat":"-41.083333","long":"175.366667"}},{"country":"nz","city":"Fitzroy","coordinates":{"lat":"-39.05","long":"174.1"}},{"country":"nz","city":"Five Rivers","coordinates":{"lat":"-45.616667","long":"168.45"}},{"country":"nz","city":"Flagstaff","coordinates":{"lat":"-45.833333","long":"170.483333"}},{"country":"nz","city":"Flaxton","coordinates":{"lat":"-43.35","long":"172.633333"}},{"country":"nz","city":"Flemington","coordinates":{"lat":"-44.016667","long":"171.733333"}},{"country":"nz","city":"Flints Bush","coordinates":{"lat":"-46.3","long":"168.15"}},{"country":"nz","city":"Fordell","coordinates":{"lat":"-39.966667","long":"175.2"}},{"country":"nz","city":"Forsyth","coordinates":{"lat":"-45.95","long":"169.733333"}},{"country":"nz","city":"Fort Galatea","coordinates":{"lat":"-38.4","long":"176.733333"}},{"country":"nz","city":"Fortrose","coordinates":{"lat":"-46.566667","long":"168.8"}},{"country":"nz","city":"Foxhill","coordinates":{"lat":"-41.433333","long":"172.983333"}},{"country":"nz","city":"Foxton Beach","coordinates":{"lat":"-40.466667","long":"175.216667"}},{"country":"nz","city":"Foxton","coordinates":{"lat":"-40.466667","long":"175.3"}},{"country":"nz","city":"Frankton","coordinates":{"lat":"-45.016667","long":"168.716667"}},{"country":"nz","city":"Frankton Junction","coordinates":{"lat":"-37.8","long":"175.266667"}},{"country":"nz","city":"Frankton Wharf","coordinates":{"lat":"-45.016667","long":"168.716667"}},{"country":"nz","city":"Franz Josef","coordinates":{"lat":"-43.4","long":"170.183333"}},{"country":"nz","city":"Franz Josef Glacier","coordinates":{"lat":"-43.4","long":"170.183333"}},{"country":"nz","city":"Frasertown","coordinates":{"lat":"-38.968611","long":"177.400556"}},{"country":"nz","city":"French Farm","coordinates":{"lat":"-43.783333","long":"172.9"}},{"country":"nz","city":"Freshford","coordinates":{"lat":"-45.783333","long":"168.783333"}},{"country":"nz","city":"Fruitlands","coordinates":{"lat":"-45.35","long":"169.3"}},{"country":"nz","city":"Galloway","coordinates":{"lat":"-45.216667","long":"169.45"}},{"country":"nz","city":"Garston","coordinates":{"lat":"-45.466667","long":"168.683333"}},{"country":"nz","city":"Gate Pa","coordinates":{"lat":"-37.716667","long":"176.133333"}},{"country":"nz","city":"Georgetown","coordinates":{"lat":"-44.916667","long":"170.85"}},{"country":"nz","city":"Gibbston","coordinates":{"lat":"-45.033333","long":"168.966667"}},{"country":"nz","city":"Gimmerburn","coordinates":{"lat":"-45.166667","long":"170"}},{"country":"nz","city":"Gisborne","coordinates":{"lat":"-38.653333","long":"178.004167"}},{"country":"nz","city":"Gladstone","coordinates":{"lat":"-41.083333","long":"175.65"}},{"country":"nz","city":"Glen Afton","coordinates":{"lat":"-37.616667","long":"175.033333"}},{"country":"nz","city":"Glenavy","coordinates":{"lat":"-44.916667","long":"171.1"}},{"country":"nz","city":"Glenbrook","coordinates":{"lat":"-37.216667","long":"174.783333"}},{"country":"nz","city":"Glencoe","coordinates":{"lat":"-46.183333","long":"168.683333"}},{"country":"nz","city":"Glendhu","coordinates":{"lat":"-44.666667","long":"169.016667"}},{"country":"nz","city":"Glenduan","coordinates":{"lat":"-41.186111","long":"173.365"}},{"country":"nz","city":"Glen Eden","coordinates":{"lat":"-36.916667","long":"174.65"}},{"country":"nz","city":"Glen Eden Town District","coordinates":{"lat":"-36.916667","long":"174.65"}},{"country":"nz","city":"Glenfield","coordinates":{"lat":"-36.766667","long":"174.733333"}},{"country":"nz","city":"Glengarry","coordinates":{"lat":"-41.833333","long":"172.233333"}},{"country":"nz","city":"Glenham","coordinates":{"lat":"-46.4","long":"168.85"}},{"country":"nz","city":"Glenhope","coordinates":{"lat":"-41.65","long":"172.65"}},{"country":"nz","city":"Gleniti","coordinates":{"lat":"-44.383333","long":"171.2"}},{"country":"nz","city":"Glenkenich","coordinates":{"lat":"-45.966667","long":"169.233333"}},{"country":"nz","city":"Glenledi","coordinates":{"lat":"-46.183333","long":"170.083333"}},{"country":"nz","city":"Glenlee","coordinates":{"lat":"-41.883333","long":"173.6"}},{"country":"nz","city":"Glen Murray","coordinates":{"lat":"-37.45","long":"174.966667"}},{"country":"nz","city":"Glenomaru","coordinates":{"lat":"-46.383333","long":"169.683333"}},{"country":"nz","city":"Glenorchy","coordinates":{"lat":"-44.85","long":"168.383333"}},{"country":"nz","city":"Glenore","coordinates":{"lat":"-46.1","long":"169.866667"}},{"country":"nz","city":"Glen Oroua","coordinates":{"lat":"-40.333333","long":"175.4"}},{"country":"nz","city":"Glenorve","coordinates":{"lat":"-40.333333","long":"175.4"}},{"country":"nz","city":"Glenpark","coordinates":{"lat":"-45.433333","long":"170.666667"}},{"country":"nz","city":"Glenroy","coordinates":{"lat":"-43.516667","long":"171.833333"}},{"country":"nz","city":"Glentanner","coordinates":{"lat":"-43.9","long":"170.116667"}},{"country":"nz","city":"Glentunnel","coordinates":{"lat":"-43.483333","long":"171.933333"}},{"country":"nz","city":"Glinkes Gully","coordinates":{"lat":"-36.083333","long":"173.866667"}},{"country":"nz","city":"Glinks Gully","coordinates":{"lat":"-36.083333","long":"173.866667"}},{"country":"nz","city":"Glorit","coordinates":{"lat":"-36.483333","long":"174.45"}},{"country":"nz","city":"Golden Downs","coordinates":{"lat":"-41.583333","long":"172.883333"}},{"country":"nz","city":"Goldsboro","coordinates":{"lat":"-42.666667","long":"171.116667"}},{"country":"nz","city":"Goldsborough","coordinates":{"lat":"-42.666667","long":"171.116667"}},{"country":"nz","city":"Goodwood","coordinates":{"lat":"-45.55","long":"170.716667"}},{"country":"nz","city":"Goose Bay","coordinates":{"lat":"-42.483333","long":"173.533333"}},{"country":"nz","city":"Gordon","coordinates":{"lat":"-37.7","long":"175.833333"}},{"country":"nz","city":"Gordonton","coordinates":{"lat":"-37.666667","long":"175.3"}},{"country":"nz","city":"Gorge Road","coordinates":{"lat":"-46.483333","long":"168.7"}},{"country":"nz","city":"Gowanbridge","coordinates":{"lat":"-41.716667","long":"172.566667"}},{"country":"nz","city":"Gracefield","coordinates":{"lat":"-41.233333","long":"174.916667"}},{"country":"nz","city":"Grahams Beach","coordinates":{"lat":"-37.066667","long":"174.633333"}},{"country":"nz","city":"Granity","coordinates":{"lat":"-41.633333","long":"171.85"}},{"country":"nz","city":"Greatford","coordinates":{"lat":"-40.133333","long":"175.416667"}},{"country":"nz","city":"Greenfield","coordinates":{"lat":"-46.1","long":"169.583333"}},{"country":"nz","city":"Greenhills","coordinates":{"lat":"-46.55","long":"168.3"}},{"country":"nz","city":"Greenhithe","coordinates":{"lat":"-36.766667","long":"174.683333"}},{"country":"nz","city":"Greenmeadows","coordinates":{"lat":"-39.533333","long":"176.866667"}},{"country":"nz","city":"Greenpark","coordinates":{"lat":"-43.683333","long":"172.5"}},{"country":"nz","city":"Greenstone","coordinates":{"lat":"-42.633333","long":"171.266667"}},{"country":"nz","city":"Greenvale","coordinates":{"lat":"-45.883333","long":"169.05"}},{"country":"nz","city":"Green Valley","coordinates":{"lat":"-45.283333","long":"170.516667"}},{"country":"nz","city":"Greerton","coordinates":{"lat":"-37.716667","long":"176.133333"}},{"country":"nz","city":"Greville Harbour","coordinates":{"lat":"-40.816667","long":"173.8"}},{"country":"nz","city":"Greymouth","coordinates":{"lat":"-42.466667","long":"171.2"}},{"country":"nz","city":"Grove Bush","coordinates":{"lat":"-46.3","long":"168.483333"}},{"country":"nz","city":"Grove","coordinates":{"lat":"-41.283333","long":"173.916667"}},{"country":"nz","city":"Grovetown","coordinates":{"lat":"-41.483333","long":"173.966667"}},{"country":"nz","city":"Gummies Bush","coordinates":{"lat":"-46.283333","long":"168.016667"}},{"country":"nz","city":"Guthrie","coordinates":{"lat":"-38.3","long":"176.15"}},{"country":"nz","city":"Haast","coordinates":{"lat":"-43.883333","long":"169.05"}},{"country":"nz","city":"Hackthorne","coordinates":{"lat":"-43.816667","long":"171.566667"}},{"country":"nz","city":"Hairini","coordinates":{"lat":"-37.733333","long":"176.166667"}},{"country":"nz","city":"Hakahaka","coordinates":{"lat":"-41.3","long":"174.116667"}},{"country":"nz","city":"Hakaru","coordinates":{"lat":"-36.133333","long":"174.516667"}},{"country":"nz","city":"Hakataramea","coordinates":{"lat":"-44.733333","long":"170.483333"}},{"country":"nz","city":"Hakatere","coordinates":{"lat":"-44.05","long":"171.8"}},{"country":"nz","city":"Halcombe","coordinates":{"lat":"-40.15","long":"175.5"}},{"country":"nz","city":"Haldane","coordinates":{"lat":"-46.633333","long":"169"}},{"country":"nz","city":"Half-moon Bay","coordinates":{"lat":"-46.9","long":"168.133333"}},{"country":"nz","city":"Halfway Bush","coordinates":{"lat":"-45.85","long":"170.466667"}},{"country":"nz","city":"Halkett","coordinates":{"lat":"-43.483333","long":"172.3"}},{"country":"nz","city":"Halkett Town","coordinates":{"lat":"-43.483333","long":"172.3"}},{"country":"nz","city":"Halswell","coordinates":{"lat":"-43.583333","long":"172.566667"}},{"country":"nz","city":"Hamilton Bay","coordinates":{"lat":"-40.983333","long":"173.85"}},{"country":"nz","city":"Hamilton City","coordinates":{"lat":"-37.783333","long":"175.283333"}},{"country":"nz","city":"Hamilton","coordinates":{"lat":"-37.783333","long":"175.283333"}},{"country":"nz","city":"Hampden","coordinates":{"lat":"-41.8","long":"172.333333"}},{"country":"nz","city":"Hamurana","coordinates":{"lat":"-38.033333","long":"176.266667"}},{"country":"nz","city":"Hamurana Springs","coordinates":{"lat":"-38.033333","long":"176.266667"}},{"country":"nz","city":"Hangatiki","coordinates":{"lat":"-38.25","long":"175.166667"}},{"country":"nz","city":"Hanmer","coordinates":{"lat":"-42.516667","long":"172.816667"}},{"country":"nz","city":"Hanmer Springs","coordinates":{"lat":"-42.516667","long":"172.816667"}},{"country":"nz","city":"Hapuku","coordinates":{"lat":"-42.333333","long":"173.733333"}},{"country":"nz","city":"Harapepe","coordinates":{"lat":"-37.933333","long":"175.133333"}},{"country":"nz","city":"Harewood","coordinates":{"lat":"-43.483333","long":"172.583333"}},{"country":"nz","city":"Harewood Settlement","coordinates":{"lat":"-43.483333","long":"172.583333"}},{"country":"nz","city":"Harihari","coordinates":{"lat":"-43.15","long":"170.55"}},{"country":"nz","city":"Haruru","coordinates":{"lat":"-35.266667","long":"174.05"}},{"country":"nz","city":"Hastings","coordinates":{"lat":"-39.65","long":"176.833333"}},{"country":"nz","city":"Hastwell","coordinates":{"lat":"-40.716667","long":"175.7"}},{"country":"nz","city":"Hastwells","coordinates":{"lat":"-40.716667","long":"175.7"}},{"country":"nz","city":"Hataitai","coordinates":{"lat":"-41.3","long":"174.8"}},{"country":"nz","city":"Hatfield","coordinates":{"lat":"-43.766667","long":"171.966667"}},{"country":"nz","city":"Hatuma","coordinates":{"lat":"-40.033333","long":"176.5"}},{"country":"nz","city":"Haumoana","coordinates":{"lat":"-39.616667","long":"176.95"}},{"country":"nz","city":"Haunui","coordinates":{"lat":"-40.6","long":"176.05"}},{"country":"nz","city":"Hautapu","coordinates":{"lat":"-37.866667","long":"175.45"}},{"country":"nz","city":"Hauturu","coordinates":{"lat":"-38.1","long":"174.933333"}},{"country":"nz","city":"Hauwai","coordinates":{"lat":"-41.75","long":"174.15"}},{"country":"nz","city":"Havelock","coordinates":{"lat":"-41.283333","long":"173.766667"}},{"country":"nz","city":"Havelock North","coordinates":{"lat":"-39.666667","long":"176.883333"}},{"country":"nz","city":"Havelock North Town District","coordinates":{"lat":"-39.666667","long":"176.883333"}},{"country":"nz","city":"Havelock Suburban","coordinates":{"lat":"-41.366667","long":"173.766667"}},{"country":"nz","city":"Havelock Town District","coordinates":{"lat":"-41.283333","long":"173.766667"}},{"country":"nz","city":"Hawarden","coordinates":{"lat":"-42.933333","long":"172.633333"}},{"country":"nz","city":"Hawea Flat","coordinates":{"lat":"-44.65","long":"169.3"}},{"country":"nz","city":"Hawera","coordinates":{"lat":"-39.591667","long":"174.283333"}},{"country":"nz","city":"Hawkeswood","coordinates":{"lat":"-42.65","long":"173.333333"}},{"country":"nz","city":"Hawkins","coordinates":{"lat":"-43.483333","long":"172.033333"}},{"country":"nz","city":"Hawkswood","coordinates":{"lat":"-42.65","long":"173.333333"}},{"country":"nz","city":"Haywards","coordinates":{"lat":"-41.15","long":"174.983333"}},{"country":"nz","city":"Hazelburn","coordinates":{"lat":"-44.2","long":"170.983333"}},{"country":"nz","city":"Hazletts","coordinates":{"lat":"-46.266667","long":"168.083333"}},{"country":"nz","city":"Heathcote","coordinates":{"lat":"-43.583333","long":"172.716667"}},{"country":"nz","city":"Heathcote Valley","coordinates":{"lat":"-43.583333","long":"172.716667"}},{"country":"nz","city":"Hector","coordinates":{"lat":"-41.6","long":"171.883333"}},{"country":"nz","city":"Heddon Bush","coordinates":{"lat":"-46.083333","long":"168.15"}},{"country":"nz","city":"Hedgehope","coordinates":{"lat":"-46.2","long":"168.533333"}},{"country":"nz","city":"Helena Bay","coordinates":{"lat":"-35.433333","long":"174.35"}},{"country":"nz","city":"Helvetia","coordinates":{"lat":"-37.183333","long":"174.866667"}},{"country":"nz","city":"Henley","coordinates":{"lat":"-45.983333","long":"170.166667"}},{"country":"nz","city":"Herbert","coordinates":{"lat":"-45.233333","long":"170.783333"}},{"country":"nz","city":"Herbertville","coordinates":{"lat":"-40.499444","long":"176.545833"}},{"country":"nz","city":"Herekino","coordinates":{"lat":"-35.25","long":"173.216667"}},{"country":"nz","city":"Herepo","coordinates":{"lat":"-43.116667","long":"170.55"}},{"country":"nz","city":"Heretaunga","coordinates":{"lat":"-41.15","long":"175.033333"}},{"country":"nz","city":"Heriot","coordinates":{"lat":"-45.833333","long":"169.266667"}},{"country":"nz","city":"Herne Bay","coordinates":{"lat":"-36.846111","long":"174.729167"}},{"country":"nz","city":"Herriot","coordinates":{"lat":"-45.833333","long":"169.266667"}},{"country":"nz","city":"Hicks Bay","coordinates":{"lat":"-37.6","long":"178.3"}},{"country":"nz","city":"Highbank","coordinates":{"lat":"-43.616667","long":"171.75"}},{"country":"nz","city":"Highcliffe","coordinates":{"lat":"-45.883333","long":"170.583333"}},{"country":"nz","city":"Highcliff","coordinates":{"lat":"-45.883333","long":"170.583333"}},{"country":"nz","city":"Hihitahi","coordinates":{"lat":"-39.566667","long":"175.7"}},{"country":"nz","city":"Hikuai","coordinates":{"lat":"-37.083333","long":"175.783333"}},{"country":"nz","city":"Hikumutu","coordinates":{"lat":"-38.95","long":"175.283333"}},{"country":"nz","city":"Hikurangi","coordinates":{"lat":"-35.6","long":"174.3"}},{"country":"nz","city":"Hikurangi Town District","coordinates":{"lat":"-35.6","long":"174.3"}},{"country":"nz","city":"Hikutaia","coordinates":{"lat":"-37.283333","long":"175.65"}},{"country":"nz","city":"Hilderthorpe","coordinates":{"lat":"-44.983333","long":"171.066667"}},{"country":"nz","city":"Hillend","coordinates":{"lat":"-46.133333","long":"169.75"}},{"country":"nz","city":"Hillersden","coordinates":{"lat":"-41.6","long":"173.433333"}},{"country":"nz","city":"Hillgrove","coordinates":{"lat":"-45.366667","long":"170.833333"}},{"country":"nz","city":"Hillsborough","coordinates":{"lat":"-39.1","long":"174.15"}},{"country":"nz","city":"Hilton","coordinates":{"lat":"-44.15","long":"171.166667"}},{"country":"nz","city":"Himatangi","coordinates":{"lat":"-40.4","long":"175.316667"}},{"country":"nz","city":"Hinahina","coordinates":{"lat":"-46.483333","long":"169.666667"}},{"country":"nz","city":"Hinakura","coordinates":{"lat":"-41.3","long":"175.633333"}},{"country":"nz","city":"Hindon","coordinates":{"lat":"-45.733333","long":"170.3"}},{"country":"nz","city":"Hindon Railway","coordinates":{"lat":"-45.716667","long":"170.333333"}},{"country":"nz","city":"Hinds","coordinates":{"lat":"-44","long":"171.566667"}},{"country":"nz","city":"Hinerua","coordinates":{"lat":"-39.85","long":"176.233333"}},{"country":"nz","city":"Hinuera","coordinates":{"lat":"-37.883333","long":"175.766667"}},{"country":"nz","city":"Hira","coordinates":{"lat":"-41.215278","long":"173.396111"}},{"country":"nz","city":"Hirstfield","coordinates":{"lat":"-46.283333","long":"167.733333"}},{"country":"nz","city":"Hiruharama","coordinates":{"lat":"-39.55","long":"175.066667"}},{"country":"nz","city":"Hiwipango","coordinates":{"lat":"-41.516667","long":"172.933333"}},{"country":"nz","city":"Hobsonville","coordinates":{"lat":"-36.8","long":"174.666667"}},{"country":"nz","city":"Ho Ho","coordinates":{"lat":"-42.716667","long":"171.033333"}},{"country":"nz","city":"Hohonu","coordinates":{"lat":"-42.683333","long":"171.266667"}},{"country":"nz","city":"Hokio","coordinates":{"lat":"-40.583333","long":"175.183333"}},{"country":"nz","city":"Hokitika","coordinates":{"lat":"-42.716667","long":"170.966667"}},{"country":"nz","city":"Hokonui","coordinates":{"lat":"-46.116667","long":"168.483333"}},{"country":"nz","city":"Homai","coordinates":{"lat":"-37.016667","long":"174.883333"}},{"country":"nz","city":"Homedale","coordinates":{"lat":"-41.266667","long":"174.95"}},{"country":"nz","city":"Homewood","coordinates":{"lat":"-41.1","long":"173.95"}},{"country":"nz","city":"Honikiwi","coordinates":{"lat":"-38.15","long":"175.1"}},{"country":"nz","city":"Hook","coordinates":{"lat":"-44.683333","long":"171.133333"}},{"country":"nz","city":"Hope","coordinates":{"lat":"-41.366667","long":"173.15"}},{"country":"nz","city":"Hopelands","coordinates":{"lat":"-40.35","long":"175.966667"}},{"country":"nz","city":"Horeke","coordinates":{"lat":"-35.35","long":"173.6"}},{"country":"nz","city":"Hornby","coordinates":{"lat":"-43.55","long":"172.533333"}},{"country":"nz","city":"Horndon","coordinates":{"lat":"-43.483333","long":"172.116667"}},{"country":"nz","city":"Horoeke","coordinates":{"lat":"-35.35","long":"173.6"}},{"country":"nz","city":"Horoera","coordinates":{"lat":"-37.65","long":"178.483333"}},{"country":"nz","city":"Horopito","coordinates":{"lat":"-39.35","long":"175.383333"}},{"country":"nz","city":"Hororata","coordinates":{"lat":"-43.533333","long":"171.95"}},{"country":"nz","city":"Horotiu","coordinates":{"lat":"-37.716667","long":"175.2"}},{"country":"nz","city":"Horrelville","coordinates":{"lat":"-43.333333","long":"172.333333"}},{"country":"nz","city":"Horseshoe Bend","coordinates":{"lat":"-45.75","long":"169.466667"}},{"country":"nz","city":"Hoteo","coordinates":{"lat":"-36.383333","long":"174.533333"}},{"country":"nz","city":"Houhora","coordinates":{"lat":"-34.783333","long":"173.1"}},{"country":"nz","city":"Houipapa","coordinates":{"lat":"-46.483333","long":"169.566667"}},{"country":"nz","city":"Houpoto","coordinates":{"lat":"-37.883333","long":"177.583333"}},{"country":"nz","city":"Houto","coordinates":{"lat":"-35.75","long":"173.983333"}},{"country":"nz","city":"Howard","coordinates":{"lat":"-41.766667","long":"172.666667"}},{"country":"nz","city":"Howard Junction","coordinates":{"lat":"-41.7","long":"172.666667"}},{"country":"nz","city":"Howick","coordinates":{"lat":"-36.883333","long":"174.933333"}},{"country":"nz","city":"Howick Town District","coordinates":{"lat":"-36.883333","long":"174.933333"}},{"country":"nz","city":"Huapai","coordinates":{"lat":"-36.766667","long":"174.55"}},{"country":"nz","city":"Huarau","coordinates":{"lat":"-36.1","long":"174.3"}},{"country":"nz","city":"Huatoki","coordinates":{"lat":"-39.133333","long":"174.05"}},{"country":"nz","city":"Huhuka","coordinates":{"lat":"-43.966667","long":"168.916667"}},{"country":"nz","city":"Huia","coordinates":{"lat":"-37","long":"174.583333"}},{"country":"nz","city":"Huinga","coordinates":{"lat":"-39.35","long":"174.416667"}},{"country":"nz","city":"Huirangi","coordinates":{"lat":"-39.05","long":"174.266667"}},{"country":"nz","city":"Huiroa","coordinates":{"lat":"-39.25","long":"174.466667"}},{"country":"nz","city":"Hukanui","coordinates":{"lat":"-40.566667","long":"175.7"}},{"country":"nz","city":"Hukapapa","coordinates":{"lat":"-39.05","long":"175.383333"}},{"country":"nz","city":"Hukarere","coordinates":{"lat":"-42.25","long":"171.7"}},{"country":"nz","city":"Hukerenui","coordinates":{"lat":"-35.516667","long":"174.183333"}},{"country":"nz","city":"Humphreys","coordinates":{"lat":"-42.733333","long":"171.116667"}},{"country":"nz","city":"Humua","coordinates":{"lat":"-40.566667","long":"175.733333"}},{"country":"nz","city":"Hundalee","coordinates":{"lat":"-42.566667","long":"173.433333"}},{"country":"nz","city":"Hunter","coordinates":{"lat":"-44.616667","long":"171.05"}},{"country":"nz","city":"Hunterville","coordinates":{"lat":"-39.933333","long":"175.566667"}},{"country":"nz","city":"Hunterville Town District","coordinates":{"lat":"-39.933333","long":"175.566667"}},{"country":"nz","city":"Hunts Road","coordinates":{"lat":"-46.416667","long":"169.666667"}},{"country":"nz","city":"Hunua","coordinates":{"lat":"-37.083333","long":"175.066667"}},{"country":"nz","city":"Hurleyville","coordinates":{"lat":"-39.633333","long":"174.5"}},{"country":"nz","city":"Huruiki","coordinates":{"lat":"-35.466667","long":"174.316667"}},{"country":"nz","city":"Hyde","coordinates":{"lat":"-45.3","long":"170.25"}},{"country":"nz","city":"Idaburn Valley","coordinates":{"lat":"-45.033333","long":"169.833333"}},{"country":"nz","city":"Ida Valley","coordinates":{"lat":"-45.033333","long":"169.833333"}},{"country":"nz","city":"Ikamatua","coordinates":{"lat":"-42.266667","long":"171.683333"}},{"country":"nz","city":"Ikawai","coordinates":{"lat":"-44.866667","long":"170.85"}},{"country":"nz","city":"Inaha","coordinates":{"lat":"-39.566667","long":"174.166667"}},{"country":"nz","city":"Inangahua Camp","coordinates":{"lat":"-41.85","long":"171.933333"}},{"country":"nz","city":"Inangahua","coordinates":{"lat":"-41.85","long":"171.95"}},{"country":"nz","city":"Inangahua Junction","coordinates":{"lat":"-41.85","long":"171.95"}},{"country":"nz","city":"Inangahua Landing","coordinates":{"lat":"-41.916667","long":"171.883333"}},{"country":"nz","city":"Inchbonnie","coordinates":{"lat":"-42.733333","long":"171.466667"}},{"country":"nz","city":"Invercargill","coordinates":{"lat":"-46.4","long":"168.35"}},{"country":"nz","city":"Irwell","coordinates":{"lat":"-43.716667","long":"172.333333"}},{"country":"nz","city":"Isla Bank","coordinates":{"lat":"-46.2","long":"168.133333"}},{"country":"nz","city":"Island Bay","coordinates":{"lat":"-41.333333","long":"174.783333"}},{"country":"nz","city":"Island Block","coordinates":{"lat":"-45.75","long":"169.466667"}},{"country":"nz","city":"Island Cliff","coordinates":{"lat":"-44.95","long":"170.666667"}},{"country":"nz","city":"Jackson","coordinates":{"lat":"-42.75","long":"171.516667"}},{"country":"nz","city":"Jacksons","coordinates":{"lat":"-42.75","long":"171.516667"}},{"country":"nz","city":"Jamestown","coordinates":{"lat":"-44.4","long":"168.05"}},{"country":"nz","city":"Jerusalem","coordinates":{"lat":"-39.55","long":"175.066667"}},{"country":"nz","city":"Johnsonville","coordinates":{"lat":"-41.233333","long":"174.783333"}},{"country":"nz","city":"Johnsonville Town District","coordinates":{"lat":"-41.233333","long":"174.783333"}},{"country":"nz","city":"Johnstone","coordinates":{"lat":"-46.016667","long":"169.766667"}},{"country":"nz","city":"Johnstone's","coordinates":{"lat":"-46.016667","long":"169.766667"}},{"country":"nz","city":"Jordan","coordinates":{"lat":"-41.816667","long":"173.766667"}},{"country":"nz","city":"Judgeford","coordinates":{"lat":"-41.116667","long":"174.933333"}},{"country":"nz","city":"Kaawa","coordinates":{"lat":"-37.5","long":"174.833333"}},{"country":"nz","city":"Kaeaea","coordinates":{"lat":"-38.383333","long":"175.066667"}},{"country":"nz","city":"Kaeo","coordinates":{"lat":"-35.1","long":"173.783333"}},{"country":"nz","city":"Kaharoa","coordinates":{"lat":"-38.016667","long":"176.216667"}},{"country":"nz","city":"Kahuika","coordinates":{"lat":"-46.516667","long":"169.466667"}},{"country":"nz","city":"Kahutara","coordinates":{"lat":"-41.233333","long":"175.333333"}},{"country":"nz","city":"Kaiaka","coordinates":{"lat":"-35.1","long":"173.416667"}},{"country":"nz","city":"Kaiata","coordinates":{"lat":"-42.466667","long":"171.25"}},{"country":"nz","city":"Kaiaua","coordinates":{"lat":"-37.133333","long":"175.283333"}},{"country":"nz","city":"Kaihere","coordinates":{"lat":"-37.366667","long":"175.433333"}},{"country":"nz","city":"Kaihiku","coordinates":{"lat":"-46.233333","long":"169.55"}},{"country":"nz","city":"Kaihinu","coordinates":{"lat":"-42.683333","long":"171.016667"}},{"country":"nz","city":"Kaihu","coordinates":{"lat":"-35.766667","long":"173.7"}},{"country":"nz","city":"Kai Iwi Beach","coordinates":{"lat":"-39.866667","long":"174.9"}},{"country":"nz","city":"Kai Iwi","coordinates":{"lat":"-39.85","long":"174.933333"}},{"country":"nz","city":"Kaikarangi","coordinates":{"lat":"-39.9","long":"175.6"}},{"country":"nz","city":"Kaikora","coordinates":{"lat":"-39.893056","long":"176.599167"}},{"country":"nz","city":"Kaikou","coordinates":{"lat":"-35.55","long":"173.95"}},{"country":"nz","city":"Kaikoura","coordinates":{"lat":"-42.416667","long":"173.683333"}},{"country":"nz","city":"Kaikoura Suburban","coordinates":{"lat":"-42.383333","long":"173.65"}},{"country":"nz","city":"Kaimai","coordinates":{"lat":"-37.833333","long":"175.966667"}},{"country":"nz","city":"Kaimata","coordinates":{"lat":"-39.166667","long":"174.3"}},{"country":"nz","city":"Kaimaumau","coordinates":{"lat":"-34.916667","long":"173.266667"}},{"country":"nz","city":"Kaimiro","coordinates":{"lat":"-39.2","long":"174.15"}},{"country":"nz","city":"Kaingapai Hakataramea Station","coordinates":{"lat":"-44.6","long":"170.566667"}},{"country":"nz","city":"Kaingapai","coordinates":{"lat":"-44.6","long":"170.566667"}},{"country":"nz","city":"Kaingaroa","coordinates":{"lat":"-35.033333","long":"173.333333"}},{"country":"nz","city":"Kaipaki","coordinates":{"lat":"-37.933333","long":"175.366667"}},{"country":"nz","city":"Kaipara Flat","coordinates":{"lat":"-36.416667","long":"174.55"}},{"country":"nz","city":"Kaipara Flats","coordinates":{"lat":"-36.416667","long":"174.55"}},{"country":"nz","city":"Kairanga","coordinates":{"lat":"-40.35","long":"175.533333"}},{"country":"nz","city":"Kairara","coordinates":{"lat":"-35.8","long":"173.816667"}},{"country":"nz","city":"Kairua","coordinates":{"lat":"-37.716667","long":"176.283333"}},{"country":"nz","city":"Kairuru","coordinates":{"lat":"-41.033333","long":"172.933333"}},{"country":"nz","city":"Kaitangata","coordinates":{"lat":"-46.275","long":"169.85"}},{"country":"nz","city":"Kaitaratahi","coordinates":{"lat":"-38.533333","long":"177.916667"}},{"country":"nz","city":"Kaitawa","coordinates":{"lat":"-40.5","long":"175.883333"}},{"country":"nz","city":"Kaitieke","coordinates":{"lat":"-39.1","long":"175.266667"}},{"country":"nz","city":"Kaitoke","coordinates":{"lat":"-41.083333","long":"175.166667"}},{"country":"nz","city":"Kaituna","coordinates":{"lat":"-41.466667","long":"173.783333"}},{"country":"nz","city":"Kaiuma","coordinates":{"lat":"-41.233333","long":"173.766667"}},{"country":"nz","city":"Kaiwaka","coordinates":{"lat":"-36.166667","long":"174.45"}},{"country":"nz","city":"Kaiwarawara","coordinates":{"lat":"-41.266667","long":"174.783333"}},{"country":"nz","city":"Kaiwarra","coordinates":{"lat":"-41.266667","long":"174.783333"}},{"country":"nz","city":"Kaiwhara","coordinates":{"lat":"-41.266667","long":"174.783333"}},{"country":"nz","city":"Kaiwharawhara","coordinates":{"lat":"-41.266667","long":"174.783333"}},{"country":"nz","city":"Kakahi","coordinates":{"lat":"-38.916667","long":"175.383333"}},{"country":"nz","city":"Kakahu Bush","coordinates":{"lat":"-44.15","long":"171.116667"}},{"country":"nz","city":"Kakanui","coordinates":{"lat":"-45.183333","long":"170.9"}},{"country":"nz","city":"Kakapo Bay","coordinates":{"lat":"-41.333333","long":"174.116667"}},{"country":"nz","city":"Kaka Point","coordinates":{"lat":"-46.383333","long":"169.783333"}},{"country":"nz","city":"Kakapotahi","coordinates":{"lat":"-42.983333","long":"170.7"}},{"country":"nz","city":"Kakapuaka","coordinates":{"lat":"-46.266667","long":"169.716667"}},{"country":"nz","city":"Kakaramea","coordinates":{"lat":"-39.716667","long":"174.45"}},{"country":"nz","city":"Kakatahi","coordinates":{"lat":"-39.683333","long":"175.333333"}},{"country":"nz","city":"Kamahi","coordinates":{"lat":"-46.333333","long":"168.716667"}},{"country":"nz","city":"Kamaka","coordinates":{"lat":"-42.433333","long":"171.383333"}},{"country":"nz","city":"Kamo","coordinates":{"lat":"-35.683333","long":"174.316667"}},{"country":"nz","city":"Kamo Town District","coordinates":{"lat":"-35.683333","long":"174.316667"}},{"country":"nz","city":"Kaniere","coordinates":{"lat":"-42.75","long":"171"}},{"country":"nz","city":"Kanieri","coordinates":{"lat":"-42.75","long":"171"}},{"country":"nz","city":"Kanohi","coordinates":{"lat":"-36.583333","long":"174.516667"}},{"country":"nz","city":"Kapara","coordinates":{"lat":"-39.533333","long":"174.75"}},{"country":"nz","city":"Kaponga","coordinates":{"lat":"-39.433333","long":"174.15"}},{"country":"nz","city":"Kaponga Town District","coordinates":{"lat":"-39.433333","long":"174.15"}},{"country":"nz","city":"Kapowai","coordinates":{"lat":"-40.9","long":"173.833333"}},{"country":"nz","city":"Kapuka","coordinates":{"lat":"-46.466667","long":"168.633333"}},{"country":"nz","city":"Kapuni","coordinates":{"lat":"-39.483333","long":"174.133333"}},{"country":"nz","city":"Karamea","coordinates":{"lat":"-41.25","long":"172.116667"}},{"country":"nz","city":"Karamu","coordinates":{"lat":"-37.883333","long":"175.133333"}},{"country":"nz","city":"Karangahake","coordinates":{"lat":"-37.433333","long":"175.716667"}},{"country":"nz","city":"Karangarua","coordinates":{"lat":"-43.533333","long":"169.816667"}},{"country":"nz","city":"Karekare","coordinates":{"lat":"-36.983333","long":"174.483333"}},{"country":"nz","city":"Karetu","coordinates":{"lat":"-35.366667","long":"174.15"}},{"country":"nz","city":"Karewa","coordinates":{"lat":"-43.8","long":"-176.466667"}},{"country":"nz","city":"Karewarewa","coordinates":{"lat":"-39.866667","long":"175.95"}},{"country":"nz","city":"Karioi","coordinates":{"lat":"-39.45","long":"175.516667"}},{"country":"nz","city":"Karitane","coordinates":{"lat":"-45.65","long":"170.666667"}},{"country":"nz","city":"Karori","coordinates":{"lat":"-41.283333","long":"174.733333"}},{"country":"nz","city":"Kartigi","coordinates":{"lat":"-45.4","long":"170.833333"}},{"country":"nz","city":"Katea","coordinates":{"lat":"-46.416667","long":"169.633333"}},{"country":"nz","city":"Katikati","coordinates":{"lat":"-37.55","long":"175.916667"}},{"country":"nz","city":"Katiki","coordinates":{"lat":"-45.4","long":"170.833333"}},{"country":"nz","city":"Kauaeranga","coordinates":{"lat":"-37.166667","long":"175.583333"}},{"country":"nz","city":"Kauangaroa","coordinates":{"lat":"-39.916667","long":"175.3"}},{"country":"nz","city":"Kauhoe","coordinates":{"lat":"-45.733333","long":"168.666667"}},{"country":"nz","city":"Kaukapakapa","coordinates":{"lat":"-36.616667","long":"174.5"}},{"country":"nz","city":"Kaupokonui","coordinates":{"lat":"-39.55","long":"174.066667"}},{"country":"nz","city":"Kauri","coordinates":{"lat":"-35.633333","long":"174.3"}},{"country":"nz","city":"Kauroa","coordinates":{"lat":"-37.833333","long":"174.933333"}},{"country":"nz","city":"Kauru Hill","coordinates":{"lat":"-45.1","long":"170.75"}},{"country":"nz","city":"Kauwhata","coordinates":{"lat":"-37.4","long":"175.15"}},{"country":"nz","city":"Kawakawa","coordinates":{"lat":"-35.383333","long":"174.066667"}},{"country":"nz","city":"Kawakawa Town District","coordinates":{"lat":"-35.383333","long":"174.066667"}},{"country":"nz","city":"Kawatiri","coordinates":{"lat":"-41.7","long":"172.6"}},{"country":"nz","city":"Kawau Island","coordinates":{"lat":"-36.416667","long":"174.85"}},{"country":"nz","city":"Kaweku","coordinates":{"lat":"-45.933333","long":"168.7"}},{"country":"nz","city":"Kawerau","coordinates":{"lat":"-38.1","long":"176.7"}},{"country":"nz","city":"Kawhia","coordinates":{"lat":"-38.066667","long":"174.816667"}},{"country":"nz","city":"Kawhia Town District","coordinates":{"lat":"-38.066667","long":"174.816667"}},{"country":"nz","city":"Kawiti","coordinates":{"lat":"-35.416667","long":"173.95"}},{"country":"nz","city":"Kekerangu","coordinates":{"lat":"-42","long":"174.016667"}},{"country":"nz","city":"Kekerengu","coordinates":{"lat":"-42","long":"174.016667"}},{"country":"nz","city":"Kelburn","coordinates":{"lat":"-41.283333","long":"174.766667"}},{"country":"nz","city":"Kelchers","coordinates":{"lat":"-44.783333","long":"170.85"}},{"country":"nz","city":"Kelso","coordinates":{"lat":"-45.9","long":"169.233333"}},{"country":"nz","city":"Kelvin Grove","coordinates":{"lat":"-40.333333","long":"175.633333"}},{"country":"nz","city":"Kenana","coordinates":{"lat":"-35.05","long":"173.566667"}},{"country":"nz","city":"Kenepuru Head","coordinates":{"lat":"-41.166667","long":"174.116667"}},{"country":"nz","city":"Kennedys Bay","coordinates":{"lat":"-36.683333","long":"175.55"}},{"country":"nz","city":"Kennington","coordinates":{"lat":"-46.4","long":"168.45"}},{"country":"nz","city":"Kent Road","coordinates":{"lat":"-39.133333","long":"174.116667"}},{"country":"nz","city":"Kerepeehi","coordinates":{"lat":"-37.3","long":"175.533333"}},{"country":"nz","city":"Kerepehi","coordinates":{"lat":"-37.3","long":"175.533333"}},{"country":"nz","city":"Kereta","coordinates":{"lat":"-36.866667","long":"175.416667"}},{"country":"nz","city":"Kerikeri Inlet","coordinates":{"lat":"-35.2","long":"174.033333"}},{"country":"nz","city":"Kerikeri","coordinates":{"lat":"-35.216667","long":"173.966667"}},{"country":"nz","city":"Kerrytown","coordinates":{"lat":"-44.283333","long":"171.2"}},{"country":"nz","city":"Khandallah","coordinates":{"lat":"-41.25","long":"174.783333"}},{"country":"nz","city":"Kihikihi","coordinates":{"lat":"-38.033333","long":"175.35"}},{"country":"nz","city":"Kihikihi Town District","coordinates":{"lat":"-38.033333","long":"175.35"}},{"country":"nz","city":"Kikiwa","coordinates":{"lat":"-41.65","long":"172.866667"}},{"country":"nz","city":"Kilbirnie","coordinates":{"lat":"-41.316667","long":"174.8"}},{"country":"nz","city":"Killinchy","coordinates":{"lat":"-43.733333","long":"172.25"}},{"country":"nz","city":"Kimbell","coordinates":{"lat":"-44.05","long":"170.75"}},{"country":"nz","city":"Kimbolton","coordinates":{"lat":"-40.05","long":"175.783333"}},{"country":"nz","city":"Kimihia","coordinates":{"lat":"-37.516667","long":"175.166667"}},{"country":"nz","city":"Kingsdown","coordinates":{"lat":"-44.466667","long":"171.216667"}},{"country":"nz","city":"Kingston","coordinates":{"lat":"-45.333333","long":"168.7"}},{"country":"nz","city":"Kinikini","coordinates":{"lat":"-39.151944","long":"177.835278"}},{"country":"nz","city":"Kinleith","coordinates":{"lat":"-38.283333","long":"175.9"}},{"country":"nz","city":"Kinloch","coordinates":{"lat":"-44.85","long":"168.333333"}},{"country":"nz","city":"Kinohaku","coordinates":{"lat":"-38.15","long":"174.833333"}},{"country":"nz","city":"Kioreroa","coordinates":{"lat":"-35.733333","long":"174.35"}},{"country":"nz","city":"Kirikau","coordinates":{"lat":"-39.016667","long":"175.133333"}},{"country":"nz","city":"Kirikopuni","coordinates":{"lat":"-35.816667","long":"174.016667"}},{"country":"nz","city":"Kirikopunui","coordinates":{"lat":"-35.816667","long":"174.016667"}},{"country":"nz","city":"Kiripaka","coordinates":{"lat":"-35.633333","long":"174.433333"}},{"country":"nz","city":"Kiritaki","coordinates":{"lat":"-40.233333","long":"175.983333"}},{"country":"nz","city":"Kiritehere","coordinates":{"lat":"-38.333333","long":"174.733333"}},{"country":"nz","city":"Kirwee","coordinates":{"lat":"-43.5","long":"172.216667"}},{"country":"nz","city":"Kiteroa","coordinates":{"lat":"-45.7","long":"170.25"}},{"country":"nz","city":"Kiwi","coordinates":{"lat":"-41.5","long":"172.75"}},{"country":"nz","city":"Kiwitahi","coordinates":{"lat":"-37.7","long":"175.6"}},{"country":"nz","city":"Kiwitea","coordinates":{"lat":"-40.116667","long":"175.733333"}},{"country":"nz","city":"Knapdale","coordinates":{"lat":"-46.016667","long":"168.916667"}},{"country":"nz","city":"Kohekohe","coordinates":{"lat":"-37.183333","long":"174.65"}},{"country":"nz","city":"Kohukohu","coordinates":{"lat":"-35.35","long":"173.533333"}},{"country":"nz","city":"Kohukohu Town District","coordinates":{"lat":"-35.35","long":"173.533333"}},{"country":"nz","city":"Kohumaru","coordinates":{"lat":"-35.066667","long":"173.533333"}},{"country":"nz","city":"Kohuratahi","coordinates":{"lat":"-39.1","long":"174.766667"}},{"country":"nz","city":"Koiterangi","coordinates":{"lat":"-42.866667","long":"171.016667"}},{"country":"nz","city":"Kokakoriki","coordinates":{"lat":"-39.033333","long":"175.116667"}},{"country":"nz","city":"Kokapo","coordinates":{"lat":"-36.283333","long":"174.466667"}},{"country":"nz","city":"Kokatahi","coordinates":{"lat":"-42.833333","long":"171.033333"}},{"country":"nz","city":"Kokiri","coordinates":{"lat":"-42.5","long":"171.383333"}},{"country":"nz","city":"Kokonga","coordinates":{"lat":"-45.216667","long":"170.25"}},{"country":"nz","city":"Kokopu","coordinates":{"lat":"-35.7","long":"174.133333"}},{"country":"nz","city":"Komako","coordinates":{"lat":"-45.183333","long":"170.166667"}},{"country":"nz","city":"Komakorau","coordinates":{"lat":"-37.633333","long":"175.266667"}},{"country":"nz","city":"Komata","coordinates":{"lat":"-37.366667","long":"175.733333"}},{"country":"nz","city":"Komata North","coordinates":{"lat":"-37.333333","long":"175.666667"}},{"country":"nz","city":"Komiti","coordinates":{"lat":"-35.05","long":"173.5"}},{"country":"nz","city":"Kongahu","coordinates":{"lat":"-41.3","long":"172.1"}},{"country":"nz","city":"Konini","coordinates":{"lat":"-40.5","long":"175.783333"}},{"country":"nz","city":"Kononi","coordinates":{"lat":"-45.966667","long":"169.533333"}},{"country":"nz","city":"Kopaki","coordinates":{"lat":"-38.466667","long":"175.266667"}},{"country":"nz","city":"Kopua","coordinates":{"lat":"-40.083333","long":"176.3"}},{"country":"nz","city":"Kopuaranga","coordinates":{"lat":"-40.833333","long":"175.666667"}},{"country":"nz","city":"Kopuawhara","coordinates":{"lat":"-38.966667","long":"177.9"}},{"country":"nz","city":"Kopu","coordinates":{"lat":"-37.183333","long":"175.566667"}},{"country":"nz","city":"Kopuku","coordinates":{"lat":"-37.283333","long":"175.166667"}},{"country":"nz","city":"Kopuriki","coordinates":{"lat":"-38.333333","long":"176.783333"}},{"country":"nz","city":"Koputaroa","coordinates":{"lat":"-40.583333","long":"175.333333"}},{"country":"nz","city":"Koraki","coordinates":{"lat":"-39.283333","long":"176.85"}},{"country":"nz","city":"Korakonui","coordinates":{"lat":"-38.166667","long":"175.433333"}},{"country":"nz","city":"Korere","coordinates":{"lat":"-41.533333","long":"172.8"}},{"country":"nz","city":"Korere Valley","coordinates":{"lat":"-41.516667","long":"172.8"}},{"country":"nz","city":"Koriniti","coordinates":{"lat":"-39.666667","long":"175.166667"}},{"country":"nz","city":"Korito","coordinates":{"lat":"-39.166667","long":"174.1"}},{"country":"nz","city":"Korokoro","coordinates":{"lat":"-41.216667","long":"174.866667"}},{"country":"nz","city":"Koromiko","coordinates":{"lat":"-41.35","long":"173.95"}},{"country":"nz","city":"Kororareka","coordinates":{"lat":"-35.266667","long":"174.116667"}},{"country":"nz","city":"Kotemaori","coordinates":{"lat":"-39.066667","long":"177.033333"}},{"country":"nz","city":"Kotuku","coordinates":{"lat":"-42.55","long":"171.466667"}},{"country":"nz","city":"Koutu","coordinates":{"lat":"-35.466667","long":"173.416667"}},{"country":"nz","city":"Kowai Bush","coordinates":{"lat":"-43.3","long":"171.916667"}},{"country":"nz","city":"Kowhatu","coordinates":{"lat":"-44.566667","long":"170.666667"}},{"country":"nz","city":"Kowhitirangi","coordinates":{"lat":"-42.866667","long":"171.016667"}},{"country":"nz","city":"Kuaotunu","coordinates":{"lat":"-36.716667","long":"175.733333"}},{"country":"nz","city":"Kumeroa","coordinates":{"lat":"-40.333333","long":"175.983333"}},{"country":"nz","city":"Kumeu","coordinates":{"lat":"-36.766667","long":"174.566667"}},{"country":"nz","city":"Kuri Bush","coordinates":{"lat":"-46.033333","long":"170.233333"}},{"country":"nz","city":"Kurow","coordinates":{"lat":"-44.733333","long":"170.466667"}},{"country":"nz","city":"Kyeburn Diggings","coordinates":{"lat":"-45","long":"170.283333"}},{"country":"nz","city":"Kyeburn","coordinates":{"lat":"-45.15","long":"170.25"}},{"country":"nz","city":"Kyle","coordinates":{"lat":"-43.916667","long":"172.1"}},{"country":"nz","city":"Ladbrooks","coordinates":{"lat":"-43.616667","long":"172.533333"}},{"country":"nz","city":"Lady Barkley","coordinates":{"lat":"-46.1","long":"168.333333"}},{"country":"nz","city":"Lady Barkly","coordinates":{"lat":"-46.1","long":"168.333333"}},{"country":"nz","city":"Laghmor","coordinates":{"lat":"-43.883333","long":"171.633333"}},{"country":"nz","city":"Lagmhor","coordinates":{"lat":"-43.883333","long":"171.633333"}},{"country":"nz","city":"Lake Coleridge","coordinates":{"lat":"-43.366667","long":"171.533333"}},{"country":"nz","city":"Lake Kaniere","coordinates":{"lat":"-42.8","long":"171.133333"}},{"country":"nz","city":"Lake Kanieri","coordinates":{"lat":"-42.8","long":"171.133333"}},{"country":"nz","city":"Lake Ohia","coordinates":{"lat":"-34.983333","long":"173.366667"}},{"country":"nz","city":"Lake Pukaki","coordinates":{"lat":"-44.183333","long":"170.15"}},{"country":"nz","city":"Lake Rotoiti","coordinates":{"lat":"-41.8","long":"172.833333"}},{"country":"nz","city":"Lake Rotoroa","coordinates":{"lat":"-41.8","long":"172.6"}},{"country":"nz","city":"Lake Tekapo","coordinates":{"lat":"-44.016667","long":"170.5"}},{"country":"nz","city":"Langridge","coordinates":{"lat":"-41.983333","long":"173.416667"}},{"country":"nz","city":"Lauder","coordinates":{"lat":"-45.05","long":"169.666667"}},{"country":"nz","city":"Lauriston","coordinates":{"lat":"-43.733333","long":"171.783333"}},{"country":"nz","city":"Leamington","coordinates":{"lat":"-37.883333","long":"175.466667"}},{"country":"nz","city":"Leamington Town District","coordinates":{"lat":"-37.883333","long":"175.466667"}},{"country":"nz","city":"Le Bons Bay","coordinates":{"lat":"-43.75","long":"173.083333"}},{"country":"nz","city":"Leeston","coordinates":{"lat":"-43.766667","long":"172.3"}},{"country":"nz","city":"Leeston Town District","coordinates":{"lat":"-43.766667","long":"172.3"}},{"country":"nz","city":"Lee Stream","coordinates":{"lat":"-45.8","long":"170.116667"}},{"country":"nz","city":"Leigh","coordinates":{"lat":"-36.283333","long":"174.816667"}},{"country":"nz","city":"Leithfield","coordinates":{"lat":"-43.2","long":"172.733333"}},{"country":"nz","city":"Lepperton","coordinates":{"lat":"-39.066667","long":"174.216667"}},{"country":"nz","city":"Lethbridge","coordinates":{"lat":"-40.033333","long":"175.216667"}},{"country":"nz","city":"Levels","coordinates":{"lat":"-44.333333","long":"171.216667"}},{"country":"nz","city":"Levin","coordinates":{"lat":"-40.633333","long":"175.275"}},{"country":"nz","city":"Limehills","coordinates":{"lat":"-46.066667","long":"168.333333"}},{"country":"nz","city":"Lincoln","coordinates":{"lat":"-43.65","long":"172.483333"}},{"country":"nz","city":"Linden","coordinates":{"lat":"-41.166667","long":"174.833333"}},{"country":"nz","city":"Lindis Crossing","coordinates":{"lat":"-44.883333","long":"169.383333"}},{"country":"nz","city":"Lindis Pass","coordinates":{"lat":"-44.7","long":"169.5"}},{"country":"nz","city":"Linkwater","coordinates":{"lat":"-41.283333","long":"173.866667"}},{"country":"nz","city":"Linton","coordinates":{"lat":"-40.433333","long":"175.55"}},{"country":"nz","city":"Linwood","coordinates":{"lat":"-43.533333","long":"172.65"}},{"country":"nz","city":"Lismore","coordinates":{"lat":"-43.9","long":"171.483333"}},{"country":"nz","city":"Little Akaloa","coordinates":{"lat":"-43.683333","long":"172.983333"}},{"country":"nz","city":"Little River","coordinates":{"lat":"-43.766667","long":"172.783333"}},{"country":"nz","city":"Little Wanganui","coordinates":{"lat":"-41.4","long":"172.066667"}},{"country":"nz","city":"Livingstone","coordinates":{"lat":"-44.966667","long":"170.583333"}},{"country":"nz","city":"Loburn","coordinates":{"lat":"-43.25","long":"172.533333"}},{"country":"nz","city":"Lochiel","coordinates":{"lat":"-46.2","long":"168.333333"}},{"country":"nz","city":"Longbeach","coordinates":{"lat":"-44.1","long":"171.7"}},{"country":"nz","city":"Longburn","coordinates":{"lat":"-40.383333","long":"175.55"}},{"country":"nz","city":"Longbush","coordinates":{"lat":"-46.383333","long":"168.5"}},{"country":"nz","city":"Longford","coordinates":{"lat":"-41.783333","long":"172.366667"}},{"country":"nz","city":"Long Gully","coordinates":{"lat":"-44.916667","long":"168.683333"}},{"country":"nz","city":"Longridge","coordinates":{"lat":"-45.866667","long":"168.65"}},{"country":"nz","city":"Longs Beach","coordinates":{"lat":"-36.040556","long":"174.529167"}},{"country":"nz","city":"Longwood","coordinates":{"lat":"-46.333333","long":"167.933333"}},{"country":"nz","city":"Lorne","coordinates":{"lat":"-46.35","long":"168.35"}},{"country":"nz","city":"Lorneville","coordinates":{"lat":"-46.35","long":"168.35"}},{"country":"nz","city":"Lovells Flat","coordinates":{"lat":"-46.166667","long":"169.833333"}},{"country":"nz","city":"Lowburn Bridge","coordinates":{"lat":"-45.016667","long":"169.216667"}},{"country":"nz","city":"Lowburn Ferry","coordinates":{"lat":"-45.016667","long":"169.216667"}},{"country":"nz","city":"Lowburn","coordinates":{"lat":"-45.016667","long":"169.216667"}},{"country":"nz","city":"Lowcliffe","coordinates":{"lat":"-44.116667","long":"171.583333"}},{"country":"nz","city":"Lowcliff","coordinates":{"lat":"-44.116667","long":"171.583333"}},{"country":"nz","city":"Lower Hutt City","coordinates":{"lat":"-41.216667","long":"174.916667"}},{"country":"nz","city":"Lower Hutt","coordinates":{"lat":"-41.216667","long":"174.916667"}},{"country":"nz","city":"Lower Kaimai","coordinates":{"lat":"-37.8","long":"176.033333"}},{"country":"nz","city":"Lower Kohumaru","coordinates":{"lat":"-35.066667","long":"173.55"}},{"country":"nz","city":"Lower Kokatahi","coordinates":{"lat":"-42.833333","long":"171.033333"}},{"country":"nz","city":"Lower Moutere","coordinates":{"lat":"-41.15","long":"173"}},{"country":"nz","city":"Lower Nevis","coordinates":{"lat":"-45.233333","long":"168.933333"}},{"country":"nz","city":"Lower Shotover","coordinates":{"lat":"-44.983333","long":"168.766667"}},{"country":"nz","city":"Lower Waiawa","coordinates":{"lat":"-38.016667","long":"177.416667"}},{"country":"nz","city":"Lowgarth","coordinates":{"lat":"-39.383333","long":"174.216667"}},{"country":"nz","city":"Lowther","coordinates":{"lat":"-45.666667","long":"168.433333"}},{"country":"nz","city":"Luggate","coordinates":{"lat":"-44.75","long":"169.266667"}},{"country":"nz","city":"Lumsden","coordinates":{"lat":"-45.733333","long":"168.45"}},{"country":"nz","city":"Lumsden Town District","coordinates":{"lat":"-45.733333","long":"168.45"}},{"country":"nz","city":"Lyalldale","coordinates":{"lat":"-44.5","long":"171.083333"}},{"country":"nz","city":"Lyell","coordinates":{"lat":"-41.8","long":"172.05"}},{"country":"nz","city":"Lyndhurst","coordinates":{"lat":"-43.7","long":"171.716667"}},{"country":"nz","city":"Lynnford","coordinates":{"lat":"-44.016667","long":"171.6"}},{"country":"nz","city":"Mabel Bush","coordinates":{"lat":"-46.283333","long":"168.533333"}},{"country":"nz","city":"Mabel School","coordinates":{"lat":"-46.3","long":"168.533333"}},{"country":"nz","city":"Macandrew Bay","coordinates":{"lat":"-45.866667","long":"170.6"}},{"country":"nz","city":"Macandrews Bay","coordinates":{"lat":"-45.866667","long":"170.6"}},{"country":"nz","city":"Macetown","coordinates":{"lat":"-44.866667","long":"168.833333"}},{"country":"nz","city":"Mackaytown","coordinates":{"lat":"-37.416667","long":"175.7"}},{"country":"nz","city":"Mackenzie","coordinates":{"lat":"-42.816667","long":"173.266667"}},{"country":"nz","city":"Maclennan","coordinates":{"lat":"-46.55","long":"169.483333"}},{"country":"nz","city":"Macraes Flat","coordinates":{"lat":"-45.383333","long":"170.433333"}},{"country":"nz","city":"Macraes","coordinates":{"lat":"-45.383333","long":"170.433333"}},{"country":"nz","city":"Maerewhenua","coordinates":{"lat":"-44.916667","long":"170.616667"}},{"country":"nz","city":"Mahakipawa","coordinates":{"lat":"-41.283333","long":"173.866667"}},{"country":"nz","city":"Mahana","coordinates":{"lat":"-41.266667","long":"173.05"}},{"country":"nz","city":"Mahanga Beach","coordinates":{"lat":"-39.008611","long":"177.885"}},{"country":"nz","city":"Mahanga","coordinates":{"lat":"-39.008611","long":"177.885"}},{"country":"nz","city":"Maharahara","coordinates":{"lat":"-40.266667","long":"175.966667"}},{"country":"nz","city":"Maharakeke","coordinates":{"lat":"-40.016667","long":"176.45"}},{"country":"nz","city":"Maheno","coordinates":{"lat":"-45.166667","long":"170.833333"}},{"country":"nz","city":"Mahers Creek","coordinates":{"lat":"-42.183333","long":"171.333333"}},{"country":"nz","city":"Mahia Beach","coordinates":{"lat":"-39.083333","long":"177.866667"}},{"country":"nz","city":"Mahia","coordinates":{"lat":"-39.083333","long":"177.916667"}},{"country":"nz","city":"Mahitahi","coordinates":{"lat":"-43.65","long":"169.6"}},{"country":"nz","city":"Mahoe","coordinates":{"lat":"-39.383333","long":"174.166667"}},{"country":"nz","city":"Mahoenui","coordinates":{"lat":"-38.566667","long":"174.85"}},{"country":"nz","city":"Mahunga","coordinates":{"lat":"-42.383333","long":"173.433333"}},{"country":"nz","city":"Mahurangi","coordinates":{"lat":"-36.483333","long":"174.733333"}},{"country":"nz","city":"Mahuta","coordinates":{"lat":"-37.583333","long":"175.083333"}},{"country":"nz","city":"Maihiihi","coordinates":{"lat":"-38.233333","long":"175.383333"}},{"country":"nz","city":"Maimai","coordinates":{"lat":"-42.15","long":"171.75"}},{"country":"nz","city":"Maina","coordinates":{"lat":"-38.216667","long":"176.366667"}},{"country":"nz","city":"Mairangi Bay","coordinates":{"lat":"-36.733333","long":"174.766667"}},{"country":"nz","city":"Mairoa","coordinates":{"lat":"-38.366667","long":"174.983333"}},{"country":"nz","city":"Maitahi","coordinates":{"lat":"-35.85","long":"173.766667"}},{"country":"nz","city":"Maitland","coordinates":{"lat":"-45.983333","long":"169.016667"}},{"country":"nz","city":"Makaraka","coordinates":{"lat":"-38.65","long":"177.966667"}},{"country":"nz","city":"Makarau","coordinates":{"lat":"-36.55","long":"174.5"}},{"country":"nz","city":"Makaretu","coordinates":{"lat":"-39.916667","long":"176.266667"}},{"country":"nz","city":"Makarewa Junction","coordinates":{"lat":"-46.3","long":"168.333333"}},{"country":"nz","city":"Makarewa","coordinates":{"lat":"-46.333333","long":"168.35"}},{"country":"nz","city":"Makarora","coordinates":{"lat":"-44.233333","long":"169.233333"}},{"country":"nz","city":"Makarora Wharf","coordinates":{"lat":"-44.316667","long":"169.183333"}},{"country":"nz","city":"Makauri","coordinates":{"lat":"-38.633333","long":"177.95"}},{"country":"nz","city":"Makeokeo","coordinates":{"lat":"-38.033333","long":"175.133333"}},{"country":"nz","city":"Maketu","coordinates":{"lat":"-37.766667","long":"176.45"}},{"country":"nz","city":"Makikihi","coordinates":{"lat":"-44.633333","long":"171.15"}},{"country":"nz","city":"Makirikiri","coordinates":{"lat":"-39.866667","long":"175.116667"}},{"country":"nz","city":"Makotuku","coordinates":{"lat":"-40.116667","long":"176.233333"}},{"country":"nz","city":"Makuri","coordinates":{"lat":"-40.533333","long":"176.016667"}},{"country":"nz","city":"Mamaku","coordinates":{"lat":"-38.1","long":"176.083333"}},{"country":"nz","city":"Mamaranui","coordinates":{"lat":"-35.833333","long":"173.75"}},{"country":"nz","city":"Manaia","coordinates":{"lat":"-39.55","long":"174.133333"}},{"country":"nz","city":"Manaia Town District","coordinates":{"lat":"-39.55","long":"174.133333"}},{"country":"nz","city":"Manakau","coordinates":{"lat":"-40.716667","long":"175.216667"}},{"country":"nz","city":"Manapouri","coordinates":{"lat":"-45.566667","long":"167.6"}},{"country":"nz","city":"Manaroa","coordinates":{"lat":"-41.116667","long":"174.033333"}},{"country":"nz","city":"Manawahe","coordinates":{"lat":"-38","long":"176.633333"}},{"country":"nz","city":"Manawaora","coordinates":{"lat":"-35.283333","long":"174.2"}},{"country":"nz","city":"Manawaroa","coordinates":{"lat":"-35.283333","long":"174.2"}},{"country":"nz","city":"Manawaru","coordinates":{"lat":"-37.633333","long":"175.766667"}},{"country":"nz","city":"Manawatu Heads","coordinates":{"lat":"-40.466667","long":"175.216667"}},{"country":"nz","city":"Mandeville","coordinates":{"lat":"-46","long":"168.816667"}},{"country":"nz","city":"Mandeville North","coordinates":{"lat":"-43.383333","long":"172.533333"}},{"country":"nz","city":"Mangaiti","coordinates":{"lat":"-37.5","long":"175.683333"}},{"country":"nz","city":"Mangamahoe","coordinates":{"lat":"-40.733333","long":"175.716667"}},{"country":"nz","city":"Mangamahu","coordinates":{"lat":"-39.816667","long":"175.366667"}},{"country":"nz","city":"Mangamaire","coordinates":{"lat":"-40.516667","long":"175.75"}},{"country":"nz","city":"Mangamate","coordinates":{"lat":"-41.614444","long":"175.296944"}},{"country":"nz","city":"Mangamauna","coordinates":{"lat":"-42.3","long":"173.75"}},{"country":"nz","city":"Mangamaunu","coordinates":{"lat":"-42.3","long":"173.75"}},{"country":"nz","city":"Mangamingi","coordinates":{"lat":"-39.133333","long":"176.15"}},{"country":"nz","city":"Mangamuka","coordinates":{"lat":"-35.216667","long":"173.55"}},{"country":"nz","city":"Mangamutu","coordinates":{"lat":"-40.45","long":"175.8"}},{"country":"nz","city":"Mangaohutu","coordinates":{"lat":"-39.066667","long":"175.116667"}},{"country":"nz","city":"Mangaone","coordinates":{"lat":"-39.05","long":"174.866667"}},{"country":"nz","city":"Mangaonoho","coordinates":{"lat":"-39.9","long":"175.65"}},{"country":"nz","city":"Mangapai","coordinates":{"lat":"-35.85","long":"174.283333"}},{"country":"nz","city":"Mangapani","coordinates":{"lat":"-39.75","long":"174.833333"}},{"country":"nz","city":"Mangapurua","coordinates":{"lat":"-39.216667","long":"175.1"}},{"country":"nz","city":"Mangarata","coordinates":{"lat":"-41.733333","long":"172.4"}},{"country":"nz","city":"Mangaroa","coordinates":{"lat":"-41.116667","long":"175.116667"}},{"country":"nz","city":"Mangatainoka","coordinates":{"lat":"-40.433333","long":"175.866667"}},{"country":"nz","city":"Mangatangi","coordinates":{"lat":"-37.2","long":"175.216667"}},{"country":"nz","city":"Mangatarata","coordinates":{"lat":"-37.3","long":"175.366667"}},{"country":"nz","city":"Mangatawhiri","coordinates":{"lat":"-37.216667","long":"175.116667"}},{"country":"nz","city":"Mangatiti","coordinates":{"lat":"-40.55","long":"176.116667"}},{"country":"nz","city":"Mangatoki","coordinates":{"lat":"-39.416667","long":"174.216667"}},{"country":"nz","city":"Mangatua","coordinates":{"lat":"-45.9","long":"170.15"}},{"country":"nz","city":"Mangatu","coordinates":{"lat":"-35.7","long":"173.633333"}},{"country":"nz","city":"Mangawai","coordinates":{"lat":"-36.116667","long":"174.566667"}},{"country":"nz","city":"Mangaweka","coordinates":{"lat":"-39.8","long":"175.783333"}},{"country":"nz","city":"Mangaweka Town District","coordinates":{"lat":"-39.8","long":"175.783333"}},{"country":"nz","city":"Mangawhai","coordinates":{"lat":"-36.116667","long":"174.566667"}},{"country":"nz","city":"Mangawhata","coordinates":{"lat":"-40.4","long":"175.433333"}},{"country":"nz","city":"Mangawhio","coordinates":{"lat":"-39.716667","long":"174.716667"}},{"country":"nz","city":"Mangere","coordinates":{"lat":"-36.966667","long":"174.8"}},{"country":"nz","city":"Mangonui","coordinates":{"lat":"-34.983333","long":"173.533333"}},{"country":"nz","city":"Mangorei","coordinates":{"lat":"-39.15","long":"174.083333"}},{"country":"nz","city":"Mangweka","coordinates":{"lat":"-39.8","long":"175.783333"}},{"country":"nz","city":"Maniatutu","coordinates":{"lat":"-37.816667","long":"176.45"}},{"country":"nz","city":"Manuka Creek","coordinates":{"lat":"-46.066667","long":"169.816667"}},{"country":"nz","city":"Manukau City","coordinates":{"lat":"-36.966667","long":"174.8"}},{"country":"nz","city":"Manukau","coordinates":{"lat":"-35.233333","long":"173.216667"}},{"country":"nz","city":"Manunui","coordinates":{"lat":"-38.883333","long":"175.333333"}},{"country":"nz","city":"Manunui Town District","coordinates":{"lat":"-38.883333","long":"175.333333"}},{"country":"nz","city":"Manutahi","coordinates":{"lat":"-39.666667","long":"174.4"}},{"country":"nz","city":"Manutuke","coordinates":{"lat":"-38.683333","long":"177.916667"}},{"country":"nz","city":"Maori Point","coordinates":{"lat":"-44.866667","long":"168.683333"}},{"country":"nz","city":"Mapiu","coordinates":{"lat":"-38.583333","long":"175.216667"}},{"country":"nz","city":"Mapua","coordinates":{"lat":"-41.25","long":"173.1"}},{"country":"nz","city":"Maraehoko","coordinates":{"lat":"-42.666667","long":"171.033333"}},{"country":"nz","city":"Maraekakaho","coordinates":{"lat":"-39.65","long":"176.633333"}},{"country":"nz","city":"Maraeroa","coordinates":{"lat":"-35.333333","long":"173.633333"}},{"country":"nz","city":"Maraetai","coordinates":{"lat":"-36.883333","long":"175.05"}},{"country":"nz","city":"Maraitara","coordinates":{"lat":"-39.44","long":"176.831667"}},{"country":"nz","city":"Marakeke","coordinates":{"lat":"-40.016667","long":"176.45"}},{"country":"nz","city":"Marakerake","coordinates":{"lat":"-45.066667","long":"170.75"}},{"country":"nz","city":"Maramarua","coordinates":{"lat":"-37.25","long":"175.233333"}},{"country":"nz","city":"Marangai","coordinates":{"lat":"-35.333333","long":"173.716667"}},{"country":"nz","city":"Mararewa","coordinates":{"lat":"-41.416667","long":"172.833333"}},{"country":"nz","city":"Mareretu","coordinates":{"lat":"-36.033333","long":"174.266667"}},{"country":"nz","city":"Market Cross","coordinates":{"lat":"-41.25","long":"172.133333"}},{"country":"nz","city":"Marlow","coordinates":{"lat":"-35.533333","long":"174.1"}},{"country":"nz","city":"Marohemo","coordinates":{"lat":"-36.183333","long":"174.3"}},{"country":"nz","city":"Marokopa","coordinates":{"lat":"-38.3","long":"174.733333"}},{"country":"nz","city":"Maromaku","coordinates":{"lat":"-35.483333","long":"174.083333"}},{"country":"nz","city":"Maropiu","coordinates":{"lat":"-35.8","long":"173.733333"}},{"country":"nz","city":"Marotiri","coordinates":{"lat":"-40.483333","long":"175.35"}},{"country":"nz","city":"Marsden","coordinates":{"lat":"-42.566667","long":"171.216667"}},{"country":"nz","city":"Marsden Point","coordinates":{"lat":"-35.833333","long":"174.5"}},{"country":"nz","city":"Marshland","coordinates":{"lat":"-43.483333","long":"172.65"}},{"country":"nz","city":"Marua","coordinates":{"lat":"-35.566667","long":"174.366667"}},{"country":"nz","city":"Maruia","coordinates":{"lat":"-42.183333","long":"172.216667"}},{"country":"nz","city":"Maruia Springs","coordinates":{"lat":"-42.383333","long":"172.333333"}},{"country":"nz","city":"Maruwenua","coordinates":{"lat":"-44.916667","long":"170.616667"}},{"country":"nz","city":"Maruwhenua","coordinates":{"lat":"-44.916667","long":"170.616667"}},{"country":"nz","city":"Masons Flat","coordinates":{"lat":"-42.9","long":"172.55"}},{"country":"nz","city":"Massey Glen","coordinates":{"lat":"-37.683333","long":"175.066667"}},{"country":"nz","city":"Masterton","coordinates":{"lat":"-40.959722","long":"175.6575"}},{"country":"nz","city":"Mast","coordinates":{"lat":"-39.546667","long":"176.935"}},{"country":"nz","city":"Matahanea","coordinates":{"lat":"-38.116667","long":"177.266667"}},{"country":"nz","city":"Matahina","coordinates":{"lat":"-38.25","long":"176.833333"}},{"country":"nz","city":"Matahiwi Landing","coordinates":{"lat":"-39.633333","long":"175.166667"}},{"country":"nz","city":"Matahiwi","coordinates":{"lat":"-39.6","long":"175.15"}},{"country":"nz","city":"Matahorua","coordinates":{"lat":"-39.166667","long":"176.933333"}},{"country":"nz","city":"Matahura","coordinates":{"lat":"-37.433333","long":"175.333333"}},{"country":"nz","city":"Matahuru","coordinates":{"lat":"-37.433333","long":"175.333333"}},{"country":"nz","city":"Matainui","coordinates":{"lat":"-43.266667","long":"170.366667"}},{"country":"nz","city":"Matakana","coordinates":{"lat":"-36.35","long":"174.716667"}},{"country":"nz","city":"Matakanui","coordinates":{"lat":"-45.016667","long":"169.566667"}},{"country":"nz","city":"Matakitaki","coordinates":{"lat":"-41.966667","long":"172.333333"}},{"country":"nz","city":"Matakohe","coordinates":{"lat":"-36.133333","long":"174.183333"}},{"country":"nz","city":"Mata","coordinates":{"lat":"-35.85","long":"174.366667"}},{"country":"nz","city":"Matamau","coordinates":{"lat":"-40.133333","long":"176.166667"}},{"country":"nz","city":"Matangi","coordinates":{"lat":"-37.816667","long":"175.416667"}},{"country":"nz","city":"Matangirau","coordinates":{"lat":"-35.05","long":"173.783333"}},{"country":"nz","city":"Matapara","coordinates":{"lat":"-38.216667","long":"175.55"}},{"country":"nz","city":"Matapihi","coordinates":{"lat":"-37.690556","long":"176.188333"}},{"country":"nz","city":"Matapouri","coordinates":{"lat":"-35.566667","long":"174.5"}},{"country":"nz","city":"Matapu","coordinates":{"lat":"-39.483333","long":"174.233333"}},{"country":"nz","city":"Matarakau","coordinates":{"lat":"-43.733333","long":"-176.35"}},{"country":"nz","city":"Matarawa","coordinates":{"lat":"-41.05","long":"175.45"}},{"country":"nz","city":"Matariki","coordinates":{"lat":"-41.416667","long":"172.733333"}},{"country":"nz","city":"Mataroa","coordinates":{"lat":"-39.65","long":"175.733333"}},{"country":"nz","city":"Matata","coordinates":{"lat":"-37.883333","long":"176.75"}},{"country":"nz","city":"Matatoki","coordinates":{"lat":"-37.216667","long":"175.616667"}},{"country":"nz","city":"Matau","coordinates":{"lat":"-39.166667","long":"174.566667"}},{"country":"nz","city":"Mataura Island","coordinates":{"lat":"-46.416667","long":"168.783333"}},{"country":"nz","city":"Matauri Bay","coordinates":{"lat":"-35.033333","long":"173.9"}},{"country":"nz","city":"Matauwai","coordinates":{"lat":"-38.35","long":"177.533333"}},{"country":"nz","city":"Matawai","coordinates":{"lat":"-38.35","long":"177.533333"}},{"country":"nz","city":"Matawhero","coordinates":{"lat":"-38.666667","long":"177.966667"}},{"country":"nz","city":"Matiere","coordinates":{"lat":"-38.75","long":"175.1"}},{"country":"nz","city":"Matukuroa","coordinates":{"lat":"-39.683333","long":"174.533333"}},{"country":"nz","city":"Mauku","coordinates":{"lat":"-37.2","long":"174.816667"}},{"country":"nz","city":"Maungaatua","coordinates":{"lat":"-45.9","long":"170.15"}},{"country":"nz","city":"Maungakaramea","coordinates":{"lat":"-35.85","long":"174.216667"}},{"country":"nz","city":"Maungapohatu","coordinates":{"lat":"-38.583333","long":"177.133333"}},{"country":"nz","city":"Maungatapere","coordinates":{"lat":"-35.75","long":"174.2"}},{"country":"nz","city":"Maungatea Village","coordinates":{"lat":"-39.183333","long":"177.842778"}},{"country":"nz","city":"Maungatiro","coordinates":{"lat":"-44.633333","long":"170.616667"}},{"country":"nz","city":"Maungatua","coordinates":{"lat":"-45.9","long":"170.15"}},{"country":"nz","city":"Maungaturoto","coordinates":{"lat":"-36.1","long":"174.366667"}},{"country":"nz","city":"Maungawera","coordinates":{"lat":"-44.633333","long":"169.2"}},{"country":"nz","city":"Mauriceville East","coordinates":{"lat":"-40.783333","long":"175.7"}},{"country":"nz","city":"Mauriceville","coordinates":{"lat":"-40.783333","long":"175.7"}},{"country":"nz","city":"Mauriceville West","coordinates":{"lat":"-40.766667","long":"175.683333"}},{"country":"nz","city":"Mawaro","coordinates":{"lat":"-44.3","long":"170.883333"}},{"country":"nz","city":"Mawheraiti","coordinates":{"lat":"-42.183333","long":"171.716667"}},{"country":"nz","city":"Maxwell","coordinates":{"lat":"-39.816667","long":"174.866667"}},{"country":"nz","city":"Mayfield","coordinates":{"lat":"-43.816667","long":"171.416667"}},{"country":"nz","city":"McKenzie","coordinates":{"lat":"-42.816667","long":"173.266667"}},{"country":"nz","city":"Medbury","coordinates":{"lat":"-42.866667","long":"172.666667"}},{"country":"nz","city":"Meeanee","coordinates":{"lat":"-39.55","long":"176.9"}},{"country":"nz","city":"Mendip Hills","coordinates":{"lat":"-42.616667","long":"173.283333"}},{"country":"nz","city":"Menzies Ferry","coordinates":{"lat":"-46.35","long":"168.816667"}},{"country":"nz","city":"Mercer","coordinates":{"lat":"-37.266667","long":"175.05"}},{"country":"nz","city":"Mercer Town District","coordinates":{"lat":"-37.266667","long":"175.05"}},{"country":"nz","city":"Meremere","coordinates":{"lat":"-39.583333","long":"174.383333"}},{"country":"nz","city":"Merrijigs","coordinates":{"lat":"-42.2","long":"171.883333"}},{"country":"nz","city":"Merrivale","coordinates":{"lat":"-46.05","long":"167.833333"}},{"country":"nz","city":"Methven","coordinates":{"lat":"-43.633333","long":"171.65"}},{"country":"nz","city":"Middlemarch","coordinates":{"lat":"-45.516667","long":"170.116667"}},{"country":"nz","city":"Midhirst","coordinates":{"lat":"-39.3","long":"174.266667"}},{"country":"nz","city":"Midhurst","coordinates":{"lat":"-39.3","long":"174.266667"}},{"country":"nz","city":"Mihiwaka","coordinates":{"lat":"-45.8","long":"170.633333"}},{"country":"nz","city":"Miko","coordinates":{"lat":"-41.533333","long":"171.95"}},