[{"country":"ci","city":"Aalé","coordinates":{"lat":"7.365278","long":"-5.734444"}},{"country":"ci","city":"Abadji Doumé","coordinates":{"lat":"5.309618","long":"-4.146694"}},{"country":"ci","city":"Abadji Kouté","coordinates":{"lat":"5.330169","long":"-4.152255"}},{"country":"ci","city":"Abadjin-Doumé","coordinates":{"lat":"5.309618","long":"-4.146694"}},{"country":"ci","city":"Abadjin-Kouté","coordinates":{"lat":"5.330169","long":"-4.152255"}},{"country":"ci","city":"Abadou","coordinates":{"lat":"5.676529","long":"-4.046092"}},{"country":"ci","city":"Abakakoua","coordinates":{"lat":"5.480261","long":"-3.867391"}},{"country":"ci","city":"Abakro","coordinates":{"lat":"6.690938","long":"-5.249257"}},{"country":"ci","city":"Abakro","coordinates":{"lat":"5.414251","long":"-3.229759"}},{"country":"ci","city":"Aban","coordinates":{"lat":"5.310621","long":"-3.855631"}},{"country":"ci","city":"Abaoji-Doume","coordinates":{"lat":"5.309618","long":"-4.146694"}},{"country":"ci","city":"Abaoua","coordinates":{"lat":"6.359473","long":"-3.859032"}},{"country":"ci","city":"Abata","coordinates":{"lat":"5.323304","long":"-3.914337"}},{"country":"ci","city":"Abatié","coordinates":{"lat":"5.380752","long":"-4.320721"}},{"country":"ci","city":"Abatoulilié","coordinates":{"lat":"5.995329","long":"-5.606154"}},{"country":"ci","city":"Abayansi","coordinates":{"lat":"7.590524","long":"-5.568443"}},{"country":"ci","city":"Abayanzi","coordinates":{"lat":"8.029943","long":"-5.453362"}},{"country":"ci","city":"Abbe","coordinates":{"lat":"5.660468","long":"-3.987525"}},{"country":"ci","city":"Abbè Achi","coordinates":{"lat":"5.43006","long":"-4.159054"}},{"country":"ci","city":"Abbié","coordinates":{"lat":"5.86647","long":"-3.925739"}},{"country":"ci","city":"Abdoulaye","coordinates":{"lat":"5.916451","long":"-4.120625"}},{"country":"ci","city":"Abdoulayékro","coordinates":{"lat":"5.535595","long":"-3.559399"}},{"country":"ci","city":"Abé","coordinates":{"lat":"5.681028","long":"-4.382602"}},{"country":"ci","city":"Abé","coordinates":{"lat":"7.206189","long":"-5.32972"}},{"country":"ci","city":"Abé","coordinates":{"lat":"5.499622","long":"-3.619545"}},{"country":"ci","city":"Abé","coordinates":{"lat":"7.342264","long":"-3.574354"}},{"country":"ci","city":"Abéanou","coordinates":{"lat":"6.973265","long":"-4.232803"}},{"country":"ci","city":"Abé Aounyassou","coordinates":{"lat":"7.841915","long":"-5.353448"}},{"country":"ci","city":"Abé Aounyessou","coordinates":{"lat":"7.841915","long":"-5.353448"}},{"country":"ci","city":"Abédéni","coordinates":{"lat":"7.683526","long":"-4.064749"}},{"country":"ci","city":"Abégué","coordinates":{"lat":"5.799507","long":"-4.145624"}},{"country":"ci","city":"Abéguié","coordinates":{"lat":"5.799507","long":"-4.145624"}},{"country":"ci","city":"Abéka","coordinates":{"lat":"5.28747","long":"-3.886054"}},{"country":"ci","city":"Abé Katémenso","coordinates":{"lat":"7.342264","long":"-3.574354"}},{"country":"ci","city":"Abékofikro","coordinates":{"lat":"7.829733","long":"-5.221243"}},{"country":"ci","city":"Abé Kofikro","coordinates":{"lat":"7.829733","long":"-5.221243"}},{"country":"ci","city":"Abé Kouadiokro","coordinates":{"lat":"7.844778","long":"-5.355521"}},{"country":"ci","city":"Abenan","coordinates":{"lat":"5.502514","long":"-4.044118"}},{"country":"ci","city":"Abengoua","coordinates":{"lat":"6.247086","long":"-3.543347"}},{"country":"ci","city":"Abengourou","coordinates":{"lat":"6.729722","long":"-3.496389"}},{"country":"ci","city":"Abengourou","coordinates":{"lat":"7.183333","long":"-3.983333"}},{"country":"ci","city":"Abengourou","coordinates":{"lat":"7.938735","long":"-5.317912"}},{"country":"ci","city":"Abengourou","coordinates":{"lat":"7.283333","long":"-2.983333"}},{"country":"ci","city":"Abenguru","coordinates":{"lat":"6.729722","long":"-3.496389"}},{"country":"ci","city":"Abènin Assi","coordinates":{"lat":"5.915267","long":"-3.748938"}},{"country":"ci","city":"Abessé","coordinates":{"lat":"5.476861","long":"-4.091971"}},{"country":"ci","city":"Abèsso","coordinates":{"lat":"5.466189","long":"-3.976276"}},{"country":"ci","city":"Abévé","coordinates":{"lat":"5.911106","long":"-4.744393"}},{"country":"ci","city":"Abi","coordinates":{"lat":"5.481064","long":"-3.910677"}},{"country":"ci","city":"Abi","coordinates":{"lat":"5.305022","long":"-3.16916"}},{"country":"ci","city":"Abiadi","coordinates":{"lat":"5.670653","long":"-3.483603"}},{"country":"ci","city":"Abiadougou","coordinates":{"lat":"5.954167","long":"-5.291389"}},{"country":"ci","city":"Abiaté","coordinates":{"lat":"5.380752","long":"-4.320721"}},{"country":"ci","city":"Abiaté I","coordinates":{"lat":"5.380752","long":"-4.320721"}},{"country":"ci","city":"Abiaté II","coordinates":{"lat":"5.407727","long":"-4.293233"}},{"country":"ci","city":"Abiati","coordinates":{"lat":"5.670653","long":"-3.483603"}},{"country":"ci","city":"Abiati","coordinates":{"lat":"5.289836","long":"-3.170688"}},{"country":"ci","city":"Abici Elliam","coordinates":{"lat":"5.531973","long":"-4.041876"}},{"country":"ci","city":"Abidjan","coordinates":{"lat":"5.309657","long":"-4.012656"}},{"country":"ci","city":"Abidji","coordinates":{"lat":"7.591505","long":"-5.009563"}},{"country":"ci","city":"Abié","coordinates":{"lat":"5.86647","long":"-3.925739"}},{"country":"ci","city":"Abié Ayalo","coordinates":{"lat":"5.916858","long":"-3.938519"}},{"country":"ci","city":"Abiékro","coordinates":{"lat":"7.79953","long":"-5.196112"}},{"country":"ci","city":"Abigou","coordinates":{"lat":"6.942114","long":"-5.015093"}},{"country":"ci","city":"Abigui","coordinates":{"lat":"6.69462","long":"-4.833791"}},{"country":"ci","city":"Abiguy","coordinates":{"lat":"6.942114","long":"-5.015093"}},{"country":"ci","city":"Abijan","coordinates":{"lat":"5.309657","long":"-4.012656"}},{"country":"ci","city":"Abikoffikro","coordinates":{"lat":"7.317139","long":"-5.50473"}},{"country":"ci","city":"Abikofikro","coordinates":{"lat":"7.317139","long":"-5.50473"}},{"country":"ci","city":"Abikro","coordinates":{"lat":"7.809784","long":"-5.442134"}},{"country":"ci","city":"Abinba","coordinates":{"lat":"8.119554","long":"-2.761677"}},{"country":"ci","city":"Abinibro","coordinates":{"lat":"7.316661","long":"-4.873345"}},{"country":"ci","city":"Abiolékro","coordinates":{"lat":"5.17048","long":"-3.155525"}},{"country":"ci","city":"Abisso","coordinates":{"lat":"5.467794","long":"-3.207111"}},{"country":"ci","city":"Ablékro","coordinates":{"lat":"7.508566","long":"-5.068442"}},{"country":"ci","city":"Abli Aloukro","coordinates":{"lat":"6.594224","long":"-4.994994"}},{"country":"ci","city":"Abli Bonikro","coordinates":{"lat":"6.596578","long":"-4.994022"}},{"country":"ci","city":"Ablouikro","coordinates":{"lat":"7.316661","long":"-4.873345"}},{"country":"ci","city":"Abo Blakro","coordinates":{"lat":"7.092876","long":"-4.983194"}},{"country":"ci","city":"Abobo-Abaouré","coordinates":{"lat":"5.414451","long":"-3.990359"}},{"country":"ci","city":"Abobo","coordinates":{"lat":"5.416134","long":"-4.015901"}},{"country":"ci","city":"Abobo-Atté","coordinates":{"lat":"5.405693","long":"-3.996821"}},{"country":"ci","city":"Abobo Baoulé","coordinates":{"lat":"5.414451","long":"-3.990359"}},{"country":"ci","city":"Abobo Doumé","coordinates":{"lat":"5.308091","long":"-4.039583"}},{"country":"ci","city":"Abobo-Gare","coordinates":{"lat":"5.416134","long":"-4.015901"}},{"country":"ci","city":"Abobo Té","coordinates":{"lat":"5.405693","long":"-3.996821"}},{"country":"ci","city":"Abobrako","coordinates":{"lat":"7.092876","long":"-4.983194"}},{"country":"ci","city":"Abodioupa","coordinates":{"lat":"6.0444","long":"-5.796223"}},{"country":"ci","city":"Abodougou","coordinates":{"lat":"7.833333","long":"-2.95"}},{"country":"ci","city":"Aboikakro","coordinates":{"lat":"6.473047","long":"-5.103771"}},{"country":"ci","city":"Aboikoimékro","coordinates":{"lat":"6.828844","long":"-5.055065"}},{"country":"ci","city":"Aboikro","coordinates":{"lat":"7.19149","long":"-4.442221"}},{"country":"ci","city":"Aboindoukpinkro","coordinates":{"lat":"7.20252","long":"-4.066213"}},{"country":"ci","city":"Aboinkro","coordinates":{"lat":"7.231111","long":"-4.418611"}},{"country":"ci","city":"Aboissa","coordinates":{"lat":"5.467794","long":"-3.207111"}},{"country":"ci","city":"Aboisso","coordinates":{"lat":"5.467794","long":"-3.207111"}},{"country":"ci","city":"Aboisso Comoé","coordinates":{"lat":"5.735096","long":"-3.403379"}},{"country":"ci","city":"Aboissué","coordinates":{"lat":"6.826608","long":"-3.509311"}},{"country":"ci","city":"Aboka","coordinates":{"lat":"6.538668","long":"-6.815891"}},{"country":"ci","city":"Aboka","coordinates":{"lat":"5.396882","long":"-3.854874"}},{"country":"ci","city":"Aboké Dosso","coordinates":{"lat":"5.657235","long":"-4.033933"}},{"country":"ci","city":"Abokindé","coordinates":{"lat":"7.166667","long":"-4.166667"}},{"country":"ci","city":"Aboko","coordinates":{"lat":"5.148663","long":"-3.087399"}},{"country":"ci","city":"Abokoidiokro","coordinates":{"lat":"7.218049","long":"-4.810342"}},{"country":"ci","city":"Abokosso","coordinates":{"lat":"7.600581","long":"-3.596976"}},{"country":"ci","city":"Abo Kouadjokro","coordinates":{"lat":"7.218049","long":"-4.810342"}},{"country":"ci","city":"Abokouakoudougou","coordinates":{"lat":"7.833333","long":"-2.95"}},{"country":"ci","city":"Abokouamikro","coordinates":{"lat":"6.828844","long":"-5.055065"}},{"country":"ci","city":"Abokouassikro","coordinates":{"lat":"7.16919","long":"-4.704455"}},{"country":"ci","city":"Abo Kouassikro","coordinates":{"lat":"7.16919","long":"-4.704455"}},{"country":"ci","city":"Abokouma","coordinates":{"lat":"7.713847","long":"-3.128344"}},{"country":"ci","city":"Abokro","coordinates":{"lat":"7.464734","long":"-4.287255"}},{"country":"ci","city":"Abokrou","coordinates":{"lat":"7.464734","long":"-4.287255"}},{"country":"ci","city":"Abole Kouassikro","coordinates":{"lat":"7.64088","long":"-5.253677"}},{"country":"ci","city":"Abolékro","coordinates":{"lat":"7.1","long":"-4.283333"}},{"country":"ci","city":"Abolikro","coordinates":{"lat":"7.684672","long":"-5.333372"}},{"country":"ci","city":"Aboli Laib","coordinates":{"lat":"5.516561","long":"-4.432701"}},{"country":"ci","city":"Abondié","coordinates":{"lat":"7.900556","long":"-3.4275"}},{"country":"ci","city":"Abongnikro","coordinates":{"lat":"7.19149","long":"-4.442221"}},{"country":"ci","city":"Abongo","coordinates":{"lat":"5.670742","long":"-4.044603"}},{"country":"ci","city":"Abongonamoun","coordinates":{"lat":"7.316667","long":"-4.316667"}},{"country":"ci","city":"Abongoua","coordinates":{"lat":"6.247086","long":"-3.543347"}},{"country":"ci","city":"Abongoua","coordinates":{"lat":"6.6527","long":"-4.101785"}},{"country":"ci","city":"Aboni","coordinates":{"lat":"5.921311","long":"-4.501325"}},{"country":"ci","city":"Abonokro","coordinates":{"lat":"5.899593","long":"-4.496886"}},{"country":"ci","city":"Aboua","coordinates":{"lat":"5.447297","long":"-4.078149"}},{"country":"ci","city":"Aboua Akesse","coordinates":{"lat":"5.816775","long":"-4.030538"}},{"country":"ci","city":"Abou Abé","coordinates":{"lat":"5.802383","long":"-4.07518"}},{"country":"ci","city":"Abouabou","coordinates":{"lat":"5.293964","long":"-3.907716"}},{"country":"ci","city":"Abouadikro","coordinates":{"lat":"7.45","long":"-3.966667"}},{"country":"ci","city":"Abouakakro","coordinates":{"lat":"6.473047","long":"-5.103771"}},{"country":"ci","city":"Abouakouadiokro","coordinates":{"lat":"7.366667","long":"-4.133333"}},{"country":"ci","city":"Abouakouamékro","coordinates":{"lat":"6.828844","long":"-5.055065"}},{"country":"ci","city":"Aboua Kouao","coordinates":{"lat":"5.860949","long":"-4.004257"}},{"country":"ci","city":"Abouakouassikro","coordinates":{"lat":"6.824854","long":"-5.329517"}},{"country":"ci","city":"Abouakrakro","coordinates":{"lat":"7.212122","long":"-3.893988"}},{"country":"ci","city":"Abouakro","coordinates":{"lat":"5.425973","long":"-3.867756"}},{"country":"ci","city":"Abouakro","coordinates":{"lat":"7.283333","long":"-3.9"}},{"country":"ci","city":"Abouakro","coordinates":{"lat":"7.566667","long":"-5.6"}},{"country":"ci","city":"Abouandrikro","coordinates":{"lat":"6.507492","long":"-5.114899"}},{"country":"ci","city":"Aboua Nguessankro","coordinates":{"lat":"7.949366","long":"-5.154648"}},{"country":"ci","city":"Aboua Seka","coordinates":{"lat":"5.823201","long":"-3.910788"}},{"country":"ci","city":"Abouassikro","coordinates":{"lat":"6.824854","long":"-5.329517"}},{"country":"ci","city":"Abouassio","coordinates":{"lat":"7.466099","long":"-3.336374"}},{"country":"ci","city":"Abou Ayoro","coordinates":{"lat":"5.513572","long":"-4.38686"}},{"country":"ci","city":"Aboudé","coordinates":{"lat":"5.896086","long":"-4.562534"}},{"country":"ci","city":"Aboudé Kouassikro","coordinates":{"lat":"5.896086","long":"-4.562534"}},{"country":"ci","city":"Aboudé-Mandéké","coordinates":{"lat":"5.897563","long":"-4.534843"}},{"country":"ci","city":"Aboudé Mendeké","coordinates":{"lat":"5.897563","long":"-4.534843"}},{"country":"ci","city":"Aboudou","coordinates":{"lat":"5.154078","long":"-3.207181"}},{"country":"ci","city":"Aboudoukro","coordinates":{"lat":"7.783333","long":"-3.916667"}},{"country":"ci","city":"Abougnankro","coordinates":{"lat":"7.746113","long":"-4.969536"}},{"country":"ci","city":"Abouka","coordinates":{"lat":"5.441206","long":"-3.981971"}},{"country":"ci","city":"Aboukankro","coordinates":{"lat":"7.433333","long":"-4.3"}},{"country":"ci","city":"AboukéMendéké","coordinates":{"lat":"5.897563","long":"-4.534843"}},{"country":"ci","city":"Aboukro","coordinates":{"lat":"7.016667","long":"-4.233333"}},{"country":"ci","city":"Abounoua","coordinates":{"lat":"5.310456","long":"-3.605242"}},{"country":"ci","city":"Abouokro","coordinates":{"lat":"7.715566","long":"-4.832674"}},{"country":"ci","city":"Abousou","coordinates":{"lat":"7.501912","long":"-5.387642"}},{"country":"ci","city":"Aboussou","coordinates":{"lat":"7.501912","long":"-5.387642"}},{"country":"ci","city":"Aboussoukro","coordinates":{"lat":"5.90379","long":"-4.487465"}},{"country":"ci","city":"Aboutou","coordinates":{"lat":"5.217723","long":"-3.340708"}},{"country":"ci","city":"Aboyo","coordinates":{"lat":"5.971204","long":"-5.806263"}},{"country":"ci","city":"Abra","coordinates":{"lat":"5.268886","long":"-4.463005"}},{"country":"ci","city":"Abraco","coordinates":{"lat":"5.268886","long":"-4.463005"}},{"country":"ci","city":"Abradine","coordinates":{"lat":"6.199751","long":"-3.611254"}},{"country":"ci","city":"Abradine","coordinates":{"lat":"6.196389","long":"-3.455"}},{"country":"ci","city":"Abradinou","coordinates":{"lat":"6.196389","long":"-3.455"}},{"country":"ci","city":"Abrébi","coordinates":{"lat":"5.220744","long":"-4.23314"}},{"country":"ci","city":"Abréby","coordinates":{"lat":"5.220744","long":"-4.23314"}},{"country":"ci","city":"Abriokra","coordinates":{"lat":"7.224167","long":"-5.632778"}},{"country":"ci","city":"Abro Abro","coordinates":{"lat":"5.644553","long":"-4.455249"}},{"country":"ci","city":"Abrobakro","coordinates":{"lat":"5.277035","long":"-3.512835"}},{"country":"ci","city":"Abrofodoumé","coordinates":{"lat":"5.513575","long":"-3.930717"}},{"country":"ci","city":"Abroki","coordinates":{"lat":"5.545381","long":"-3.633778"}},{"country":"ci","city":"Abronambué","coordinates":{"lat":"6.756111","long":"-3.341389"}},{"country":"ci","city":"Abrotchi","coordinates":{"lat":"5.542972","long":"-3.634734"}},{"country":"ci","city":"Abrouki","coordinates":{"lat":"6.051944","long":"-3.134722"}},{"country":"ci","city":"Abrounamoué","coordinates":{"lat":"6.756111","long":"-3.341389"}},{"country":"ci","city":"Abruki","coordinates":{"lat":"5.545381","long":"-3.633778"}},{"country":"ci","city":"Abrunamue","coordinates":{"lat":"6.756111","long":"-3.341389"}},{"country":"ci","city":"Abude","coordinates":{"lat":"5.896086","long":"-4.562534"}},{"country":"ci","city":"Abusu Assi","coordinates":{"lat":"5.99192","long":"-4.04245"}},{"country":"ci","city":"Aby","coordinates":{"lat":"5.305022","long":"-3.16916"}},{"country":"ci","city":"Acai Akaoua","coordinates":{"lat":"5.978216","long":"-3.883293"}},{"country":"ci","city":"Achanti","coordinates":{"lat":"5.229067","long":"-4.160403"}},{"country":"ci","city":"Aché Kouassi","coordinates":{"lat":"5.254457","long":"-3.813911"}},{"country":"ci","city":"Ach Epi Abènin","coordinates":{"lat":"5.926763","long":"-3.734362"}},{"country":"ci","city":"Achépi","coordinates":{"lat":"5.981985","long":"-3.749697"}},{"country":"ci","city":"Achèpo","coordinates":{"lat":"5.797968","long":"-3.662289"}},{"country":"ci","city":"Achépo Bouchou","coordinates":{"lat":"5.958014","long":"-3.731485"}},{"country":"ci","city":"Achi","coordinates":{"lat":"5.891469","long":"-4.038364"}},{"country":"ci","city":"Achi","coordinates":{"lat":"5.655613","long":"-3.734884"}},{"country":"ci","city":"Achi Achi","coordinates":{"lat":"5.850613","long":"-4.059254"}},{"country":"ci","city":"Achi Ayi","coordinates":{"lat":"5.514411","long":"-3.713446"}},{"country":"ci","city":"Achiebo Koua","coordinates":{"lat":"5.533333","long":"-4.083333"}},{"country":"ci","city":"Achi Mouan","coordinates":{"lat":"5.767294","long":"-3.918882"}},{"country":"ci","city":"Achi Yao Pail","coordinates":{"lat":"5.838686","long":"-3.958406"}},{"country":"ci","city":"Achi Yapi","coordinates":{"lat":"5.902975","long":"-4.047993"}},{"country":"ci","city":"Acho","coordinates":{"lat":"5.623407","long":"-4.183241"}},{"country":"ci","city":"Acho","coordinates":{"lat":"5.453929","long":"-4.106209"}},{"country":"ci","city":"Achokoa","coordinates":{"lat":"5.374293","long":"-3.837717"}},{"country":"ci","city":"Achokoua","coordinates":{"lat":"5.558962","long":"-3.835174"}},{"country":"ci","city":"Acho Nda","coordinates":{"lat":"5.747821","long":"-3.968064"}},{"country":"ci","city":"Achoua","coordinates":{"lat":"5.997482","long":"-4.167161"}},{"country":"ci","city":"Acru","coordinates":{"lat":"5.205051","long":"-4.744834"}},{"country":"ci","city":"Adadikouro","coordinates":{"lat":"7.316667","long":"-3.233333"}},{"country":"ci","city":"Adagba","coordinates":{"lat":"5.951288","long":"-4.430855"}},{"country":"ci","city":"Adagba Ako","coordinates":{"lat":"5.80487","long":"-4.377744"}},{"country":"ci","city":"Adahi Kouadjo","coordinates":{"lat":"5.995421","long":"-4.478533"}},{"country":"ci","city":"Adahou","coordinates":{"lat":"5.902372","long":"-4.224657"}},{"country":"ci","city":"Adahou","coordinates":{"lat":"6.718789","long":"-3.512455"}},{"country":"ci","city":"Adahou","coordinates":{"lat":"6.812918","long":"-4.837085"}},{"country":"ci","city":"Adaké","coordinates":{"lat":"5.516667","long":"-4.166667"}},{"country":"ci","city":"Adakié","coordinates":{"lat":"5.545573","long":"-4.166948"}},{"country":"ci","city":"Ada Kouassi","coordinates":{"lat":"5.464184","long":"-4.111091"}},{"country":"ci","city":"Adama","coordinates":{"lat":"5.914966","long":"-4.334282"}},{"country":"ci","city":"Adama","coordinates":{"lat":"5.231517","long":"-4.245731"}},{"country":"ci","city":"Adama Diara","coordinates":{"lat":"5.42507","long":"-3.955804"}},{"country":"ci","city":"Adama Diomande","coordinates":{"lat":"5.450139","long":"-3.946262"}},{"country":"ci","city":"Adama Diop","coordinates":{"lat":"5.291505","long":"-3.783739"}},{"country":"ci","city":"Adamo","coordinates":{"lat":"5.534116","long":"-4.073927"}},{"country":"ci","city":"Adaou","coordinates":{"lat":"6.27638","long":"-4.882754"}},{"country":"ci","city":"Adaou","coordinates":{"lat":"6.812918","long":"-4.837085"}},{"country":"ci","city":"Adaou","coordinates":{"lat":"5.427834","long":"-3.264433"}},{"country":"ci","city":"Adaromé","coordinates":{"lat":"5.580433","long":"-4.190488"}},{"country":"ci","city":"Adattié","coordinates":{"lat":"5.545573","long":"-4.166948"}},{"country":"ci","city":"Adbo Amani","coordinates":{"lat":"5.596876","long":"-4.490727"}},{"country":"ci","city":"Adda","coordinates":{"lat":"5.174827","long":"-4.6507"}},{"country":"ci","city":"Addah","coordinates":{"lat":"5.174827","long":"-4.6507"}},{"country":"ci","city":"Adébem","coordinates":{"lat":"5.473494","long":"-5.836666"}},{"country":"ci","city":"Adébem-Kagbéri","coordinates":{"lat":"5.473494","long":"-5.836666"}},{"country":"ci","city":"Adèndia","coordinates":{"lat":"7.75953","long":"-3.010429"}},{"country":"ci","city":"Adessé","coordinates":{"lat":"5.168175","long":"-4.698866"}},{"country":"ci","city":"Adia","coordinates":{"lat":"5.885943","long":"-4.016246"}},{"country":"ci","city":"Adiadon","coordinates":{"lat":"5.130005","long":"-5.177286"}},{"country":"ci","city":"Adiaké","coordinates":{"lat":"5.286337","long":"-3.304025"}},{"country":"ci","city":"Adiakouémi","coordinates":{"lat":"7.384851","long":"-4.119821"}},{"country":"ci","city":"Adiakou Konankro","coordinates":{"lat":"6.772091","long":"-4.699039"}},{"country":"ci","city":"Adiakouro","coordinates":{"lat":"7.883333","long":"-3.55"}},{"country":"ci","city":"Adiao","coordinates":{"lat":"5.28641","long":"-3.615216"}},{"country":"ci","city":"Adiao","coordinates":{"lat":"7.816667","long":"-2.883333"}},{"country":"ci","city":"Adiaou","coordinates":{"lat":"7.220513","long":"-4.044597"}},{"country":"ci","city":"Adiaoukei","coordinates":{"lat":"6.583333","long":"-3.705"}},{"country":"ci","city":"Adiaoukoi","coordinates":{"lat":"6.583333","long":"-3.705"}},{"country":"ci","city":"Adiapikro","coordinates":{"lat":"7.558524","long":"-4.309582"}},{"country":"ci","city":"Adiapo-Doumé","coordinates":{"lat":"5.341051","long":"-4.131577"}},{"country":"ci","city":"Adiapo Moronou","coordinates":{"lat":"5.335008","long":"-4.182851"}},{"country":"ci","city":"Adiapo-Té","coordinates":{"lat":"5.308886","long":"-4.175854"}},{"country":"ci","city":"Adiapoté Té","coordinates":{"lat":"5.308886","long":"-4.175854"}},{"country":"ci","city":"Adiapo-To","coordinates":{"lat":"5.314307","long":"-4.194963"}},{"country":"ci","city":"Adiapoto-I","coordinates":{"lat":"5.314307","long":"-4.194963"}},{"country":"ci","city":"Adiapo-To I","coordinates":{"lat":"5.314307","long":"-4.194963"}},{"country":"ci","city":"Adiapoto-II","coordinates":{"lat":"5.306071","long":"-4.185875"}},{"country":"ci","city":"Adiapo-To II","coordinates":{"lat":"5.306071","long":"-4.185875"}},{"country":"ci","city":"Adiapri-Kofikro","coordinates":{"lat":"7.61254","long":"-4.941409"}},{"country":"ci","city":"Adiassou","coordinates":{"lat":"7.476968","long":"-5.10007"}},{"country":"ci","city":"Adibrébo","coordinates":{"lat":"6.5128","long":"-4.608653"}},{"country":"ci","city":"Adibrobo","coordinates":{"lat":"6.5128","long":"-4.608653"}},{"country":"ci","city":"Adiébo","coordinates":{"lat":"7.303962","long":"-4.811838"}},{"country":"ci","city":"Adiébonou","coordinates":{"lat":"7.816632","long":"-5.258011"}},{"country":"ci","city":"Adiékankro","coordinates":{"lat":"7.816389","long":"-4.967222"}},{"country":"ci","city":"Adiékro","coordinates":{"lat":"7.067432","long":"-3.692708"}},{"country":"ci","city":"Adiékro","coordinates":{"lat":"7.439442","long":"-5.266032"}},{"country":"ci","city":"Adiékrou","coordinates":{"lat":"5.414251","long":"-3.229759"}},{"country":"ci","city":"Adiékrou","coordinates":{"lat":"7.933056","long":"-3.171389"}},{"country":"ci","city":"Adiélilie","coordinates":{"lat":"6.06699","long":"-5.486222"}},{"country":"ci","city":"Adihao","coordinates":{"lat":"5.28641","long":"-3.615216"}},{"country":"ci","city":"Adikankourou","coordinates":{"lat":"7.524614","long":"-3.913228"}},{"country":"ci","city":"Adi Koffikro","coordinates":{"lat":"7.220255","long":"-4.635298"}},{"country":"ci","city":"Adi-Kofikro","coordinates":{"lat":"7.220255","long":"-4.635298"}},{"country":"ci","city":"Adikokoi","coordinates":{"lat":"6.633312","long":"-3.711935"}},{"country":"ci","city":"Adikokwa","coordinates":{"lat":"6.633312","long":"-3.711935"}},{"country":"ci","city":"Adikou","coordinates":{"lat":"5.429444","long":"-3.341944"}},{"country":"ci","city":"Adikro","coordinates":{"lat":"6.9232","long":"-4.943528"}},{"country":"ci","city":"Adikro","coordinates":{"lat":"7.757281","long":"-4.851644"}},{"country":"ci","city":"Adikro Fondi","coordinates":{"lat":"7.750566","long":"-4.887667"}},{"country":"ci","city":"Adima","coordinates":{"lat":"5.146865","long":"-3.073159"}},{"country":"ci","city":"Adimanékouro","coordinates":{"lat":"7.766667","long":"-3.316667"}},{"country":"ci","city":"Adingaranamoun","coordinates":{"lat":"7.45","long":"-4.183333"}},{"country":"ci","city":"Adioblessou","coordinates":{"lat":"7.490676","long":"-5.342144"}},{"country":"ci","city":"Adiogouansou","coordinates":{"lat":"7.552637","long":"-5.279892"}},{"country":"ci","city":"Adiokro","coordinates":{"lat":"7.971239","long":"-5.42059"}},{"country":"ci","city":"Adiolessou","coordinates":{"lat":"7.490676","long":"-5.342144"}},{"country":"ci","city":"Adiomakro","coordinates":{"lat":"7.766667","long":"-3.316667"}},{"country":"ci","city":"Adiongouasou","coordinates":{"lat":"7.552637","long":"-5.279892"}},{"country":"ci","city":"Adiongouassou","coordinates":{"lat":"7.552637","long":"-5.279892"}},{"country":"ci","city":"Adiopo Doumé","coordinates":{"lat":"5.341051","long":"-4.131577"}},{"country":"ci","city":"Adiougou","coordinates":{"lat":"5.458097","long":"-3.392234"}},{"country":"ci","city":"Adioumanékro","coordinates":{"lat":"6.85807","long":"-4.662784"}},{"country":"ci","city":"Adioumaniko","coordinates":{"lat":"7.466667","long":"-4.216667"}},{"country":"ci","city":"Adioumanikro","coordinates":{"lat":"6.85807","long":"-4.662784"}},{"country":"ci","city":"Adioumanikrou","coordinates":{"lat":"7.898066","long":"-3.413755"}},{"country":"ci","city":"Adioumbéreti","coordinates":{"lat":"7.841959","long":"-5.071809"}},{"country":"ci","city":"Adissakakro","coordinates":{"lat":"7.598927","long":"-5.106796"}},{"country":"ci","city":"Adi-Yaprikro","coordinates":{"lat":"7.558524","long":"-4.309582"}},{"country":"ci","city":"Adjabikro","coordinates":{"lat":"5.545032","long":"-3.574701"}},{"country":"ci","city":"Adjachi Akattou","coordinates":{"lat":"5.904944","long":"-4.419205"}},{"country":"ci","city":"Adjaconti","coordinates":{"lat":"5.186416","long":"-4.562286"}},{"country":"ci","city":"Adjacouti","coordinates":{"lat":"5.186416","long":"-4.562286"}},{"country":"ci","city":"Adjacoutié","coordinates":{"lat":"5.186416","long":"-4.562286"}},{"country":"ci","city":"Adjacouty","coordinates":{"lat":"5.186416","long":"-4.562286"}},{"country":"ci","city":"Adjakouti","coordinates":{"lat":"5.186416","long":"-4.562286"}},{"country":"ci","city":"Adjambe Ada","coordinates":{"lat":"5.787537","long":"-3.916157"}},{"country":"ci","city":"Adjamé","coordinates":{"lat":"6.275166","long":"-3.517128"}},{"country":"ci","city":"Adjamé","coordinates":{"lat":"5.345575","long":"-3.871956"}},{"country":"ci","city":"Adja Ngbi Koffikro","coordinates":{"lat":"7.61254","long":"-4.941409"}},{"country":"ci","city":"Adjé","coordinates":{"lat":"5.796021","long":"-3.661724"}},{"country":"ci","city":"Adjékro","coordinates":{"lat":"5.53393","long":"-3.566865"}},{"country":"ci","city":"Adjélilié","coordinates":{"lat":"6.06699","long":"-5.486222"}},{"country":"ci","city":"Adjicoa","coordinates":{"lat":"5.845564","long":"-3.64342"}},{"country":"ci","city":"Adjiebo","coordinates":{"lat":"7.303962","long":"-4.811838"}},{"country":"ci","city":"Adjifou","coordinates":{"lat":"5.284693","long":"-3.926189"}},{"country":"ci","city":"Adjifou Deux","coordinates":{"lat":"5.24282","long":"-3.921042"}},{"country":"ci","city":"Adjifou Un","coordinates":{"lat":"5.243856","long":"-3.928539"}},{"country":"ci","city":"Adjiko","coordinates":{"lat":"5.756883","long":"-4.240574"}},{"country":"ci","city":"Adjin","coordinates":{"lat":"5.414458","long":"-3.852686"}},{"country":"ci","city":"Adjodi Nguessan","coordinates":{"lat":"5.863882","long":"-4.376598"}},{"country":"ci","city":"Adjouan","coordinates":{"lat":"5.309949","long":"-3.152315"}},{"country":"ci","city":"Adjouhan","coordinates":{"lat":"5.309949","long":"-3.152315"}},{"country":"ci","city":"Adjuassou","coordinates":{"lat":"7.476968","long":"-5.10007"}},{"country":"ci","city":"Adjué","coordinates":{"lat":"5.187621","long":"-4.5478"}},{"country":"ci","city":"Adlékro","coordinates":{"lat":"7.497309","long":"-5.075377"}},{"country":"ci","city":"Adobi","coordinates":{"lat":"5.840232","long":"-4.393817"}},{"country":"ci","city":"Adobou","coordinates":{"lat":"5.490716","long":"-5.836709"}},{"country":"ci","city":"Adobou I","coordinates":{"lat":"5.473494","long":"-5.836666"}},{"country":"ci","city":"Adobou II","coordinates":{"lat":"5.490716","long":"-5.836709"}},{"country":"ci","city":"Ado Daffou","coordinates":{"lat":"5.835436","long":"-4.035898"}},{"country":"ci","city":"Adoguié","coordinates":{"lat":"5.626819","long":"-4.202984"}},{"country":"ci","city":"Adohosou","coordinates":{"lat":"8.02007","long":"-5.389707"}},{"country":"ci","city":"Adohossou","coordinates":{"lat":"8.02007","long":"-5.389707"}},{"country":"ci","city":"Adokoi","coordinates":{"lat":"6.009994","long":"-3.781543"}},{"country":"ci","city":"Adoma","coordinates":{"lat":"5.929256","long":"-4.3532"}},{"country":"ci","city":"Adoma","coordinates":{"lat":"5.293171","long":"-4.141587"}},{"country":"ci","city":"Adon","coordinates":{"lat":"5.526488","long":"-4.295098"}},{"country":"ci","city":"Adonkoua","coordinates":{"lat":"5.413786","long":"-4.210075"}},{"country":"ci","city":"Adopo","coordinates":{"lat":"5.787986","long":"-3.522137"}},{"country":"ci","city":"Ado Sombe","coordinates":{"lat":"5.835666","long":"-4.036993"}},{"country":"ci","city":"Adosso","coordinates":{"lat":"5.354946","long":"-3.524736"}},{"country":"ci","city":"Adou","coordinates":{"lat":"5.660554","long":"-3.712117"}},{"country":"ci","city":"Adouagoassopié","coordinates":{"lat":"5.33922","long":"-3.588583"}},{"country":"ci","city":"Adouaié Ekpomé","coordinates":{"lat":"5.838863","long":"-4.060262"}},{"country":"ci","city":"Adouakouakro","coordinates":{"lat":"6.606439","long":"-4.42868"}},{"country":"ci","city":"Adouaprikro","coordinates":{"lat":"7.575077","long":"-5.141167"}},{"country":"ci","city":"Adou Dia","coordinates":{"lat":"5.46111","long":"-3.944331"}},{"country":"ci","city":"Adou Gbohaou","coordinates":{"lat":"5.845573","long":"-4.028555"}},{"country":"ci","city":"Adouki","coordinates":{"lat":"5.882609","long":"-3.797356"}},{"country":"ci","city":"Adoukoffikro","coordinates":{"lat":"6.702222","long":"-3.463333"}},{"country":"ci","city":"Adoukofikro","coordinates":{"lat":"6.702222","long":"-3.463333"}},{"country":"ci","city":"Adoukro","coordinates":{"lat":"5.269662","long":"-4.248259"}},{"country":"ci","city":"Adoukro","coordinates":{"lat":"7.438677","long":"-3.419973"}},{"country":"ci","city":"Adoumanga","coordinates":{"lat":"5.205042","long":"-4.389019"}},{"country":"ci","city":"Adoumangan","coordinates":{"lat":"5.205042","long":"-4.389019"}},{"country":"ci","city":"Adoumkroum","coordinates":{"lat":"7.805804","long":"-2.863491"}},{"country":"ci","city":"Adou Ncho","coordinates":{"lat":"5.835969","long":"-4.003701"}},{"country":"ci","city":"Adounikro","coordinates":{"lat":"6.722451","long":"-3.564043"}},{"country":"ci","city":"Adou Yapi","coordinates":{"lat":"5.866668","long":"-4.059082"}},{"country":"ci","city":"Adroukro","coordinates":{"lat":"7.523485","long":"-3.937888"}},{"country":"ci","city":"Adzopé","coordinates":{"lat":"6.106944","long":"-3.861944"}},{"country":"ci","city":"Aelou Kouadiokro","coordinates":{"lat":"7.946186","long":"-4.736045"}},{"country":"ci","city":"Aengrinbo","coordinates":{"lat":"7.427017","long":"-5.006075"}},{"country":"ci","city":"Aérokro","coordinates":{"lat":"6.990173","long":"-4.548789"}},{"country":"ci","city":"Afatobo","coordinates":{"lat":"6.664322","long":"-5.016245"}},{"country":"ci","city":"Afékouro","coordinates":{"lat":"7.646732","long":"-5.205492"}},{"country":"ci","city":"Aféré","coordinates":{"lat":"6.902826","long":"-4.083741"}},{"country":"ci","city":"Aféré","coordinates":{"lat":"5.716667","long":"-3.15"}},{"country":"ci","city":"Aféri","coordinates":{"lat":"6.320352","long":"-3.952347"}},{"country":"ci","city":"Aféri","coordinates":{"lat":"7.75034","long":"-3.519321"}},{"country":"ci","city":"Aféri I","coordinates":{"lat":"6.315","long":"-3.960278"}},{"country":"ci","city":"Aféri II","coordinates":{"lat":"6.308056","long":"-3.950556"}},{"country":"ci","city":"Aféri Sénago Konakro","coordinates":{"lat":"7.483956","long":"-5.027319"}},{"country":"ci","city":"Aférissenago-Konakro","coordinates":{"lat":"7.483956","long":"-5.027319"}},{"country":"ci","city":"Afessi","coordinates":{"lat":"5.704681","long":"-3.739849"}},{"country":"ci","city":"Afféré","coordinates":{"lat":"6.902826","long":"-4.083741"}},{"country":"ci","city":"Afféré","coordinates":{"lat":"5.716667","long":"-3.15"}},{"country":"ci","city":"Affery","coordinates":{"lat":"6.320352","long":"-3.952347"}},{"country":"ci","city":"Affiénou","coordinates":{"lat":"5.411185","long":"-2.924785"}},{"country":"ci","city":"Affi Kakou","coordinates":{"lat":"5.520253","long":"-4.358405"}},{"country":"ci","city":"Affi Kaménan","coordinates":{"lat":"5.619779","long":"-4.482208"}},{"country":"ci","city":"Affi Ono","coordinates":{"lat":"5.599638","long":"-4.481574"}},{"country":"ci","city":"Affouékro","coordinates":{"lat":"7.202105","long":"-4.99319"}},{"country":"ci","city":"Affoukoua","coordinates":{"lat":"5.682128","long":"-3.944866"}},{"country":"ci","city":"Afienkouadioukro","coordinates":{"lat":"7.309163","long":"-5.124579"}},{"country":"ci","city":"Afiénou","coordinates":{"lat":"5.411185","long":"-2.924785"}},{"country":"ci","city":"Afindjé","coordinates":{"lat":"5.467386","long":"-4.185492"}},{"country":"ci","city":"Afodian","coordinates":{"lat":"7.416667","long":"-4.25"}},{"country":"ci","city":"Afonkaha","coordinates":{"lat":"8.227309","long":"-5.148218"}},{"country":"ci","city":"Aforénou","coordinates":{"lat":"5.0933","long":"-3.112428"}},{"country":"ci","city":"Aforenu","coordinates":{"lat":"5.0933","long":"-3.112428"}},{"country":"ci","city":"Aforié","coordinates":{"lat":"5.265183","long":"-3.543232"}},{"country":"ci","city":"Afotobo","coordinates":{"lat":"6.664322","long":"-5.016245"}},{"country":"ci","city":"Afotobo","coordinates":{"lat":"7.67025","long":"-5.463417"}},{"country":"ci","city":"Afouanvam","coordinates":{"lat":"7.995709","long":"-2.89805"}},{"country":"ci","city":"Afoué-Kokrékro","coordinates":{"lat":"7.202105","long":"-4.99319"}},{"country":"ci","city":"Afouékro","coordinates":{"lat":"7.756095","long":"-4.922576"}},{"country":"ci","city":"Afouibano","coordinates":{"lat":"7.144502","long":"-3.983498"}},{"country":"ci","city":"Afoumvasso","coordinates":{"lat":"7.863441","long":"-4.964086"}},{"country":"ci","city":"Afoumvassou","coordinates":{"lat":"7.863441","long":"-4.964086"}},{"country":"ci","city":"Afoumvossou","coordinates":{"lat":"7.333333","long":"-4.15"}},{"country":"ci","city":"Afounassépié","coordinates":{"lat":"5.371441","long":"-3.556813"}},{"country":"ci","city":"Afounkaba","coordinates":{"lat":"8.227309","long":"-5.148218"}},{"country":"ci","city":"Afounvanso","coordinates":{"lat":"7.652214","long":"-3.874449"}},{"country":"ci","city":"Afounvansso","coordinates":{"lat":"7.652214","long":"-3.874449"}},{"country":"ci","city":"Afounvassou","coordinates":{"lat":"7.366667","long":"-4.183333"}},{"country":"ci","city":"Afouvanso","coordinates":{"lat":"7.652214","long":"-3.874449"}},{"country":"ci","city":"Afréko","coordinates":{"lat":"7.68647","long":"-5.608922"}},{"country":"ci","city":"Afridougou","coordinates":{"lat":"6.148438","long":"-5.950047"}},{"country":"ci","city":"Afridoukou","coordinates":{"lat":"6.148438","long":"-5.950047"}},{"country":"ci","city":"Afugu","coordinates":{"lat":"5.220744","long":"-4.23314"}},{"country":"ci","city":"Afumpo","coordinates":{"lat":"5.951864","long":"-4.456667"}},{"country":"ci","city":"Agati","coordinates":{"lat":"5.293752","long":"-4.342732"}},{"country":"ci","city":"Agba Abode","coordinates":{"lat":"5.824002","long":"-4.018495"}},{"country":"ci","city":"Agba-Bayassou","coordinates":{"lat":"7.115178","long":"-4.268181"}},{"country":"ci","city":"Agbagouanda","coordinates":{"lat":"7.2","long":"-4.416667"}},{"country":"ci","city":"Agbaillé","coordinates":{"lat":"5.300681","long":"-4.51631"}},{"country":"ci","city":"Agbakro","coordinates":{"lat":"7.761839","long":"-3.970305"}},{"country":"ci","city":"Agbakro","coordinates":{"lat":"7.731422","long":"-5.184435"}},{"country":"ci","city":"Agba-Mbayassou","coordinates":{"lat":"7.115178","long":"-4.268181"}},{"country":"ci","city":"Agban","coordinates":{"lat":"5.359333","long":"-4.034597"}},{"country":"ci","city":"Agbanianssou","coordinates":{"lat":"6.586515","long":"-5.020654"}},{"country":"ci","city":"Agbaniassou","coordinates":{"lat":"6.586515","long":"-5.020654"}},{"country":"ci","city":"Agbanou","coordinates":{"lat":"6.269738","long":"-4.520665"}},{"country":"ci","city":"Agbanou","coordinates":{"lat":"7.471056","long":"-5.281753"}},{"country":"ci","city":"Agbao","coordinates":{"lat":"7.74586","long":"-5.778143"}},{"country":"ci","city":"Agbaou","coordinates":{"lat":"6.34136","long":"-3.854327"}},{"country":"ci","city":"Agbaou","coordinates":{"lat":"7.74586","long":"-5.778143"}},{"country":"ci","city":"Agbaou","coordinates":{"lat":"6.081602","long":"-5.215147"}},{"country":"ci","city":"Agbau","coordinates":{"lat":"6.34136","long":"-3.854327"}},{"country":"ci","city":"Agbau","coordinates":{"lat":"7.74586","long":"-5.778143"}},{"country":"ci","city":"Agbayanoua","coordinates":{"lat":"7.520108","long":"-5.203617"}},{"country":"ci","city":"Agbayé","coordinates":{"lat":"5.300681","long":"-4.51631"}},{"country":"ci","city":"Agbedjé","coordinates":{"lat":"5.525537","long":"-4.366264"}},{"country":"ci","city":"Agbedjé Daté","coordinates":{"lat":"5.517841","long":"-4.362784"}},{"country":"ci","city":"Agbedjé Ossohou","coordinates":{"lat":"5.565762","long":"-4.357713"}},{"country":"ci","city":"Agbensi","coordinates":{"lat":"8.029943","long":"-5.453362"}},{"country":"ci","city":"Agbessi Abokon","coordinates":{"lat":"5.44251","long":"-4.117011"}},{"country":"ci","city":"Agbessi","coordinates":{"lat":"5.460362","long":"-4.117102"}},{"country":"ci","city":"Agbo Mbeyan","coordinates":{"lat":"5.432362","long":"-4.143054"}},{"country":"ci","city":"Agboro","coordinates":{"lat":"5.734311","long":"-5.484722"}},{"country":"ci","city":"Agbosso","coordinates":{"lat":"6.85","long":"-4.083333"}},{"country":"ci","city":"Agbossou","coordinates":{"lat":"6.861444","long":"-4.081602"}},{"country":"ci","city":"Agboville","coordinates":{"lat":"5.92801","long":"-4.213186"}},{"country":"ci","city":"Aghién","coordinates":{"lat":"5.395898","long":"-3.8539"}},{"country":"ci","city":"Agina","coordinates":{"lat":"7.902712","long":"-3.227471"}},{"country":"ci","city":"Agnéby","coordinates":{"lat":"5.315643","long":"-4.34565"}},{"country":"ci","city":"Agnéré Koffikro","coordinates":{"lat":"6.805072","long":"-4.919301"}},{"country":"ci","city":"Agnérékoflikro","coordinates":{"lat":"6.805072","long":"-4.919301"}},{"country":"ci","city":"Agness Akro","coordinates":{"lat":"5.517506","long":"-4.369259"}},{"country":"ci","city":"Agnia Assikasso","coordinates":{"lat":"7.109589","long":"-4.065712"}},{"country":"ci","city":"Agnianou","coordinates":{"lat":"7.687202","long":"-3.757466"}},{"country":"ci","city":"Agni Assikasso","coordinates":{"lat":"7.109589","long":"-4.065712"}},{"country":"ci","city":"Agniassué","coordinates":{"lat":"6.65368","long":"-3.681033"}},{"country":"ci","city":"Agnibilékrou","coordinates":{"lat":"7.131132","long":"-3.204147"}},{"country":"ci","city":"Agnibonou","coordinates":{"lat":"7.429839","long":"-5.440482"}},{"country":"ci","city":"Agnie","coordinates":{"lat":"4.699651","long":"-6.960529"}},{"country":"ci","city":"Agnigba Memei","coordinates":{"lat":"5.509516","long":"-4.391591"}},{"country":"ci","city":"Agnimékoua","coordinates":{"lat":"5.408942","long":"-3.916855"}},{"country":"ci","city":"Agnissankoua","coordinates":{"lat":"5.44389","long":"-4.027438"}},{"country":"ci","city":"Agnon","coordinates":{"lat":"5.978575","long":"-4.464393"}},{"country":"ci","city":"Ago","coordinates":{"lat":"5.484526","long":"-4.093963"}},{"country":"ci","city":"Agobo","coordinates":{"lat":"7.240833","long":"-4.707222"}},{"country":"ci","city":"Agokro","coordinates":{"lat":"7.567445","long":"-5.318291"}},{"country":"ci","city":"Agonassou","coordinates":{"lat":"7.504169","long":"-5.602986"}},{"country":"ci","city":"Agoua","coordinates":{"lat":"6.495649","long":"-4.477377"}},{"country":"ci","city":"Agou","coordinates":{"lat":"5.740785","long":"-4.217439"}},{"country":"ci","city":"Agouahin","coordinates":{"lat":"5.97646","long":"-4.130906"}},{"country":"ci","city":"Agoua-Kongoukro","coordinates":{"lat":"7.576481","long":"-4.901628"}},{"country":"ci","city":"Agouanoua","coordinates":{"lat":"7.520108","long":"-5.203617"}},{"country":"ci","city":"Agouaye","coordinates":{"lat":"5.233333","long":"-4.95"}},{"country":"ci","city":"Agouédé","coordinates":{"lat":"7.530238","long":"-5.206074"}},{"country":"ci","city":"Agouékro","coordinates":{"lat":"7.75","long":"-4.966667"}},{"country":"ci","city":"Agoussounou","coordinates":{"lat":"7.716667","long":"-3.783333"}},{"country":"ci","city":"Agpessé","coordinates":{"lat":"7.588749","long":"-4.955518"}},{"country":"ci","city":"Agpokro","coordinates":{"lat":"7.857191","long":"-5.057728"}},{"country":"ci","city":"Aguagon","coordinates":{"lat":"5.220744","long":"-4.23314"}},{"country":"ci","city":"Aguibango","coordinates":{"lat":"7.95","long":"-3.183333"}},{"country":"ci","city":"Aguibri","coordinates":{"lat":"7.062235","long":"-5.190646"}},{"country":"ci","city":"Aguien","coordinates":{"lat":"5.395898","long":"-3.8539"}},{"country":"ci","city":"Aguinda","coordinates":{"lat":"7.902712","long":"-3.227471"}},{"country":"ci","city":"Agwa","coordinates":{"lat":"6.880625","long":"-4.055866"}},{"country":"ci","city":"Ahandje","coordinates":{"lat":"6.066495","long":"-4.477069"}},{"country":"ci","city":"Ahankro","coordinates":{"lat":"5.280344","long":"-3.835772"}},{"country":"ci","city":"Ahi","coordinates":{"lat":"5.522594","long":"-3.729545"}},{"country":"ci","city":"Ahiba","coordinates":{"lat":"5.569068","long":"-3.670052"}},{"country":"ci","city":"Ahi Bango","coordinates":{"lat":"7.833718","long":"-3.253939"}},{"country":"ci","city":"Ahiérémou","coordinates":{"lat":"6.217769","long":"-4.930117"}},{"country":"ci","city":"Ahigbé Koffikro","coordinates":{"lat":"5.40755","long":"-3.380233"}},{"country":"ci","city":"Ahinta","coordinates":{"lat":"5.530278","long":"-3.178889"}},{"country":"ci","city":"Ahiroa","coordinates":{"lat":"6.174745","long":"-4.633568"}},{"country":"ci","city":"Ahirou","coordinates":{"lat":"6.174745","long":"-4.633568"}},{"country":"ci","city":"Ahizi","coordinates":{"lat":"5.943254","long":"-4.241109"}},{"country":"ci","city":"Aholi","coordinates":{"lat":"7.553123","long":"-5.136634"}},{"country":"ci","city":"Aho Nguessan","coordinates":{"lat":"5.54729","long":"-3.6993"}},{"country":"ci","city":"Ahorokpa","coordinates":{"lat":"4.980016","long":"-6.001686"}},{"country":"ci","city":"Ahorosso","coordinates":{"lat":"6.682021","long":"-4.20299"}},{"country":"ci","city":"Ahossi Takikro","coordinates":{"lat":"7.859089","long":"-5.028399"}},{"country":"ci","city":"Ahoua Abé","coordinates":{"lat":"5.768423","long":"-3.738947"}},{"country":"ci","city":"Ahoua","coordinates":{"lat":"5.532824","long":"-3.713018"}},{"country":"ci","city":"Ahou Abou Koffi","coordinates":{"lat":"5.44902","long":"-4.096999"}},{"country":"ci","city":"Ahouadji","coordinates":{"lat":"5.980823","long":"-4.24691"}},{"country":"ci","city":"Ahouahikoro","coordinates":{"lat":"8.300366","long":"-3.95188"}},{"country":"ci","city":"Ahou","coordinates":{"lat":"5.820153","long":"-3.7257"}},{"country":"ci","city":"Ahouaja","coordinates":{"lat":"5.476927","long":"-4.509346"}},{"country":"ci","city":"Ahouakro","coordinates":{"lat":"6.119872","long":"-4.872376"}},{"country":"ci","city":"Ahouan","coordinates":{"lat":"7.519447","long":"-3.667476"}},{"country":"ci","city":"Ahouanou","coordinates":{"lat":"6.514949","long":"-4.629504"}},{"country":"ci","city":"Ahouanou","coordinates":{"lat":"5.505652","long":"-4.858796"}},{"country":"ci","city":"Ahouanou Deux","coordinates":{"lat":"5.894789","long":"-5.157458"}},{"country":"ci","city":"Ahoua Passe","coordinates":{"lat":"5.782533","long":"-4.374024"}},{"country":"ci","city":"Ahouati","coordinates":{"lat":"6.1096","long":"-4.973039"}},{"country":"ci","city":"Ahouaya","coordinates":{"lat":"5.476927","long":"-4.509346"}},{"country":"ci","city":"Ahoua Yapi","coordinates":{"lat":"5.547218","long":"-3.704853"}},{"country":"ci","city":"Ahouchou","coordinates":{"lat":"5.82675","long":"-4.351394"}},{"country":"ci","city":"Ahoucli","coordinates":{"lat":"5.952597","long":"-3.729442"}},{"country":"ci","city":"Ahoué","coordinates":{"lat":"5.497504","long":"-3.945738"}},{"country":"ci","city":"Ahouékro","coordinates":{"lat":"6.496842","long":"-5.218627"}},{"country":"ci","city":"Ahouman Abro","coordinates":{"lat":"5.624507","long":"-4.440737"}},{"country":"ci","city":"Ahoumar Pakoukro","coordinates":{"lat":"6.940736","long":"-4.771398"}},{"country":"ci","city":"Ahouna Akallou","coordinates":{"lat":"5.838414","long":"-4.347116"}},{"country":"ci","city":"Ahounan","coordinates":{"lat":"6.495349","long":"-4.354525"}},{"country":"ci","city":"Ahoungnanou","coordinates":{"lat":"7.199734","long":"-4.928426"}},{"country":"ci","city":"Ahouniassou","coordinates":{"lat":"6.649906","long":"-4.746003"}},{"country":"ci","city":"Ahounienfoutou","coordinates":{"lat":"6.781334","long":"-4.376326"}},{"country":"ci","city":"Ahouo","coordinates":{"lat":"5.793798","long":"-4.812009"}},{"country":"ci","city":"Ahouri Kouakou","coordinates":{"lat":"5.982267","long":"-4.454209"}},{"country":"ci","city":"Ahoussou Kétékro","coordinates":{"lat":"5.986027","long":"-4.469847"}},{"country":"ci","city":"Ahoussoukro","coordinates":{"lat":"6.824558","long":"-4.525832"}},{"country":"ci","city":"Ahoussou Yao","coordinates":{"lat":"5.389789","long":"-4.223876"}},{"country":"ci","city":"Ahoutoué","coordinates":{"lat":"5.47429","long":"-3.804194"}},{"country":"ci","city":"Ahoutoukro","coordinates":{"lat":"6.983333","long":"-4.333333"}},{"country":"ci","city":"Ahou Yedé","coordinates":{"lat":"5.705383","long":"-4.471406"}},{"country":"ci","city":"Aho Yapi","coordinates":{"lat":"5.544822","long":"-3.697848"}},{"country":"ci","city":"Ahua","coordinates":{"lat":"5.200339","long":"-4.433045"}},{"country":"ci","city":"Ahua","coordinates":{"lat":"6.665346","long":"-4.672389"}},{"country":"ci","city":"Ahuacré","coordinates":{"lat":"5.606973","long":"-4.85505"}},{"country":"ci","city":"Ahu","coordinates":{"lat":"5.691432","long":"-3.719417"}},{"country":"ci","city":"Ahuakré","coordinates":{"lat":"5.606973","long":"-4.85505"}},{"country":"ci","city":"Ahuanu","coordinates":{"lat":"5.894789","long":"-5.157458"}},{"country":"ci","city":"Ahué Niamekro","coordinates":{"lat":"7.581438","long":"-5.245629"}},{"country":"ci","city":"Ahuiékrou","coordinates":{"lat":"6.521574","long":"-3.645848"}},{"country":"ci","city":"Ahuinékrou","coordinates":{"lat":"6.521574","long":"-3.645848"}},{"country":"ci","city":"Ahunta","coordinates":{"lat":"5.530278","long":"-3.178889"}},{"country":"ci","city":"Ai Attobra","coordinates":{"lat":"5.674033","long":"-4.483818"}},{"country":"ci","city":"Aibékro","coordinates":{"lat":"7.448622","long":"-3.506617"}},{"country":"ci","city":"Aié","coordinates":{"lat":"5.614726","long":"-3.774267"}},{"country":"ci","city":"Ail","coordinates":{"lat":"5.947145","long":"-4.468973"}},{"country":"ci","city":"Aïnéba","coordinates":{"lat":"8.029044","long":"-2.914502"}},{"country":"ci","city":"Aise Adou","coordinates":{"lat":"5.842693","long":"-4.030657"}},{"country":"ci","city":"Aisé","coordinates":{"lat":"5.707694","long":"-3.740322"}},{"country":"ci","city":"Aisé Assamoua","coordinates":{"lat":"5.973528","long":"-3.889391"}},{"country":"ci","city":"Aise Beché","coordinates":{"lat":"5.89182","long":"-4.000849"}},{"country":"ci","city":"Aisé Okou","coordinates":{"lat":"5.849134","long":"-3.964009"}},{"country":"ci","city":"Aise Yapo","coordinates":{"lat":"5.772156","long":"-3.920007"}},{"country":"ci","city":"Ajaconti","coordinates":{"lat":"5.186416","long":"-4.562286"}},{"country":"ci","city":"Ajou","coordinates":{"lat":"5.65033","long":"-4.458639"}},{"country":"ci","city":"Ajwa","coordinates":{"lat":"5.309949","long":"-3.152315"}},{"country":"ci","city":"Aka Agbimel","coordinates":{"lat":"5.526163","long":"-4.362036"}},{"country":"ci","city":"Aka","coordinates":{"lat":"5.635928","long":"-4.030156"}},{"country":"ci","city":"Aka","coordinates":{"lat":"5.844242","long":"-3.636635"}},{"country":"ci","city":"Aka Akaffoukro","coordinates":{"lat":"7.357171","long":"-4.984574"}},{"country":"ci","city":"Aka Bloukro","coordinates":{"lat":"7.538953","long":"-4.652756"}},{"country":"ci","city":"Akabo","coordinates":{"lat":"5.216721","long":"-3.796679"}},{"country":"ci","city":"Aka Boco","coordinates":{"lat":"5.853698","long":"-4.407356"}},{"country":"ci","city":"Akabovvosué","coordinates":{"lat":"6.96348","long":"-3.232404"}},{"country":"ci","city":"Akacomékrou","coordinates":{"lat":"7.44764","long":"-3.523878"}},{"country":"ci","city":"Akacomoékrou","coordinates":{"lat":"7.44764","long":"-3.523878"}},{"country":"ci","city":"Akadiafoué","coordinates":{"lat":"7.61329","long":"-5.529341"}},{"country":"ci","city":"Aka Diman","coordinates":{"lat":"5.64388","long":"-4.493363"}},{"country":"ci","city":"Akaffou Kouao","coordinates":{"lat":"5.836674","long":"-4.060982"}},{"country":"ci","city":"Akaffou Yapi","coordinates":{"lat":"5.884273","long":"-4.04971"}},{"country":"ci","city":"Akafou Kofi","coordinates":{"lat":"7.45","long":"-4.85"}},{"country":"ci","city":"Akafoukro","coordinates":{"lat":"7.357171","long":"-4.984574"}},{"country":"ci","city":"Akafou-Ndrikro","coordinates":{"lat":"7.640835","long":"-4.389907"}},{"country":"ci","city":"Akafou-Nzikro","coordinates":{"lat":"7.016667","long":"-4.25"}},{"country":"ci","city":"Aka Gouassou","coordinates":{"lat":"5.9433","long":"-4.410608"}},{"country":"ci","city":"Akahin","coordinates":{"lat":"5.717548","long":"-3.743275"}},{"country":"ci","city":"Akaifou","coordinates":{"lat":"5.919675","long":"-4.408532"}},{"country":"ci","city":"Akakangakro","coordinates":{"lat":"7.116667","long":"-4.4"}},{"country":"ci","city":"Akakofikro","coordinates":{"lat":"7.141323","long":"-3.998702"}},{"country":"ci","city":"Akakofikro","coordinates":{"lat":"7.899593","long":"-5.47358"}},{"country":"ci","city":"Aka Kofikro","coordinates":{"lat":"7.899593","long":"-5.47358"}},{"country":"ci","city":"Akakomoékro","coordinates":{"lat":"6.171907","long":"-3.355764"}},{"country":"ci","city":"Akakomoékrou","coordinates":{"lat":"7.44764","long":"-3.523878"}},{"country":"ci","city":"Aka-Kouamikro","coordinates":{"lat":"7.268056","long":"-4.78"}},{"country":"ci","city":"Akakoumoékrou","coordinates":{"lat":"7.44764","long":"-3.523878"}},{"country":"ci","city":"Akakoumokro","coordinates":{"lat":"7.433333","long":"-3.9"}},{"country":"ci","city":"Akakro","coordinates":{"lat":"6.319447","long":"-4.925304"}},{"country":"ci","city":"Akakro","coordinates":{"lat":"5.366298","long":"-3.824586"}},{"country":"ci","city":"Akakro","coordinates":{"lat":"7.009196","long":"-5.555463"}},{"country":"ci","city":"Akakro","coordinates":{"lat":"6.598318","long":"-4.233458"}},{"country":"ci","city":"Akakro","coordinates":{"lat":"5.319649","long":"-3.07298"}},{"country":"ci","city":"Akakro","coordinates":{"lat":"7.36268","long":"-5.286252"}},{"country":"ci","city":"Akakrou","coordinates":{"lat":"5.48241","long":"-4.515898"}},{"country":"ci","city":"Akalfou","coordinates":{"lat":"5.902876","long":"-4.26443"}},{"country":"ci","city":"Akalou Koudiokro","coordinates":{"lat":"7.843703","long":"-4.946436"}},{"country":"ci","city":"Akanangbo","coordinates":{"lat":"7.546838","long":"-3.886945"}},{"country":"ci","city":"Akandi","coordinates":{"lat":"7.353527","long":"-5.139873"}},{"country":"ci","city":"Aka Ndja","coordinates":{"lat":"5.596981","long":"-4.461656"}},{"country":"ci","city":"Akandjé","coordinates":{"lat":"5.411411","long":"-3.89561"}},{"country":"ci","city":"Aka Nguessankro","coordinates":{"lat":"7.168352","long":"-5.775585"}},{"country":"ci","city":"Akanguissakro","coordinates":{"lat":"7.793333","long":"-3.876111"}},{"country":"ci","city":"Akannakro","coordinates":{"lat":"5.978351","long":"-4.282126"}},{"country":"ci","city":"Akansakro","coordinates":{"lat":"7.543608","long":"-5.234861"}},{"country":"ci","city":"Akanyissankro","coordinates":{"lat":"7.168352","long":"-5.775585"}},{"country":"ci","city":"Akanza-Kouadiokro","coordinates":{"lat":"7.411365","long":"-4.687774"}},{"country":"ci","city":"Akanza Kouadjokro","coordinates":{"lat":"7.411365","long":"-4.687774"}},{"country":"ci","city":"Akanzakro","coordinates":{"lat":"7.543608","long":"-5.234861"}},{"country":"ci","city":"Akapo","coordinates":{"lat":"7.667609","long":"-5.357724"}},{"country":"ci","city":"Akarakourou","coordinates":{"lat":"7.65","long":"-3.816667"}},{"country":"ci","city":"Akaso","coordinates":{"lat":"7.255286","long":"-3.209223"}},{"country":"ci","city":"Aka Soka","coordinates":{"lat":"5.897903","long":"-4.354321"}},{"country":"ci","city":"Akassa","coordinates":{"lat":"5.671581","long":"-4.237304"}},{"country":"ci","city":"Akassinzi","coordinates":{"lat":"7.1","long":"-4.033333"}},{"country":"ci","city":"Akasso","coordinates":{"lat":"7.255286","long":"-3.209223"}},{"country":"ci","city":"Akayakro","coordinates":{"lat":"7.715513","long":"-5.511005"}},{"country":"ci","city":"Akayao","coordinates":{"lat":"7.699455","long":"-3.375408"}},{"country":"ci","city":"Akayaokro","coordinates":{"lat":"6.76757","long":"-5.002045"}},{"country":"ci","city":"Akazalilié","coordinates":{"lat":"5.96686","long":"-5.468193"}},{"country":"ci","city":"Akbéansi","coordinates":{"lat":"7.590524","long":"-5.568443"}},{"country":"ci","city":"Aké","coordinates":{"lat":"5.910028","long":"-4.369577"}},{"country":"ci","city":"Aké","coordinates":{"lat":"5.328311","long":"-3.953085"}},{"country":"ci","city":"Akébéfia","coordinates":{"lat":"5.665225","long":"-4.175436"}},{"country":"ci","city":"Aké-Béfiat","coordinates":{"lat":"5.665225","long":"-4.175436"}},{"country":"ci","city":"Ake Kakou","coordinates":{"lat":"5.677409","long":"-4.379477"}},{"country":"ci","city":"Akékoua","coordinates":{"lat":"5.499004","long":"-3.881578"}},{"country":"ci","city":"Akendé","coordinates":{"lat":"7.850503","long":"-5.677871"}},{"country":"ci","city":"Aké Njé","coordinates":{"lat":"5.778717","long":"-4.277476"}},{"country":"ci","city":"Aké Séka","coordinates":{"lat":"5.792407","long":"-3.705843"}},{"country":"ci","city":"Akessé Kakou","coordinates":{"lat":"7.15479","long":"-5.330837"}},{"country":"ci","city":"Akessémossou","coordinates":{"lat":"6.615044","long":"-4.700186"}},{"country":"ci","city":"Akessé Nguissankro","coordinates":{"lat":"7.507436","long":"-4.814216"}},{"country":"ci","city":"Akété Diabo","coordinates":{"lat":"7.524693","long":"-5.376235"}},{"country":"ci","city":"Akgecho","coordinates":{"lat":"5.744177","long":"-4.192322"}},{"country":"ci","city":"Akichi","coordinates":{"lat":"5.641772","long":"-3.711348"}},{"country":"ci","city":"Akiékrou","coordinates":{"lat":"6.644482","long":"-3.679316"}},{"country":"ci","city":"Akiékrou","coordinates":{"lat":"6.133214","long":"-3.213452"}},{"country":"ci","city":"Akie-Kru","coordinates":{"lat":"6.133214","long":"-3.213452"}},{"country":"ci","city":"Akimouyaokro","coordinates":{"lat":"6.916433","long":"-5.106824"}},{"country":"ci","city":"Akinzé","coordinates":{"lat":"5.437522","long":"-4.144141"}},{"country":"ci","city":"Akissi","coordinates":{"lat":"5.953032","long":"-4.45074"}},{"country":"ci","city":"Akissi","coordinates":{"lat":"5.802403","long":"-3.737861"}},{"country":"ci","city":"Aklaloukou","coordinates":{"lat":"8.025858","long":"-5.240136"}},{"country":"ci","city":"Aklékrou","coordinates":{"lat":"6.133214","long":"-3.213452"}},{"country":"ci","city":"Aklou Gbangbokro","coordinates":{"lat":"7.671623","long":"-4.841879"}},{"country":"ci","city":"Aklou Kouadiokro","coordinates":{"lat":"7.946186","long":"-4.736045"}},{"country":"ci","city":"Ako","coordinates":{"lat":"5.258997","long":"-4.032653"}},{"country":"ci","city":"Akoatoukro","coordinates":{"lat":"7.813542","long":"-4.91068"}},{"country":"ci","city":"Akobi","coordinates":{"lat":"5.945652","long":"-4.421198"}},{"country":"ci","city":"Akoboissué","coordinates":{"lat":"6.96348","long":"-3.232404"}},{"country":"ci","city":"Akochi Yapi","coordinates":{"lat":"5.804973","long":"-4.097294"}},{"country":"ci","city":"Akoikrou","coordinates":{"lat":"6.775956","long":"-3.511761"}},{"country":"ci","city":"Akoki","coordinates":{"lat":"5.648424","long":"-3.748597"}},{"country":"ci","city":"Akokokro","coordinates":{"lat":"7.769913","long":"-5.232931"}},{"country":"ci","city":"Akokoro","coordinates":{"lat":"6.775956","long":"-3.511761"}},{"country":"ci","city":"Akokouro","coordinates":{"lat":"7.35","long":"-3.916667"}},{"country":"ci","city":"Akokrou","coordinates":{"lat":"6.600556","long":"-3.269722"}},{"country":"ci","city":"Akoliakro","coordinates":{"lat":"7.358584","long":"-4.587779"}},{"country":"ci","city":"Akomo Atté","coordinates":{"lat":"5.912177","long":"-4.401144"}},{"country":"ci","city":"Akongba","coordinates":{"lat":"7.083333","long":"-4.233333"}},{"country":"ci","city":"Akoniaba","coordinates":{"lat":"5.218665","long":"-3.800327"}},{"country":"ci","city":"Akoromyébra","coordinates":{"lat":"7.915837","long":"-4.618204"}},{"country":"ci","city":"Akossi","coordinates":{"lat":"5.501313","long":"-4.42849"}},{"country":"ci","city":"Akossi Gbouesso","coordinates":{"lat":"5.411687","long":"-4.145412"}},{"country":"ci","city":"Akossikro","coordinates":{"lat":"7.169396","long":"-4.403846"}},{"country":"ci","city":"Akossiom","coordinates":{"lat":"7.566667","long":"-2.983333"}},{"country":"ci","city":"Akosso Kohora","coordinates":{"lat":"5.968765","long":"-4.302087"}},{"country":"ci","city":"Ako Tetchi","coordinates":{"lat":"5.961005","long":"-4.287696"}},{"country":"ci","city":"Akotiakro","coordinates":{"lat":"7.374852","long":"-5.736265"}},{"country":"ci","city":"Akotiakro","coordinates":{"lat":"7.358584","long":"-4.587779"}},{"country":"ci","city":"Akoua","coordinates":{"lat":"7.530675","long":"-4.997952"}},{"country":"ci","city":"Akouaba","coordinates":{"lat":"6.541138","long":"-3.419709"}},{"country":"ci","city":"Akouadio","coordinates":{"lat":"5.349052","long":"-3.951872"}},{"country":"ci","city":"Akouado","coordinates":{"lat":"5.293171","long":"-4.141587"}},{"country":"ci","city":"Akouadoukro","coordinates":{"lat":"7.813542","long":"-4.91068"}},{"country":"ci","city":"Akou","coordinates":{"lat":"5.625528","long":"-4.025333"}},{"country":"ci","city":"Akouakro","coordinates":{"lat":"6.345556","long":"-3.247778"}},{"country":"ci","city":"Akouakro","coordinates":{"lat":"7.601215","long":"-5.189529"}},{"country":"ci","city":"Akouassanou","coordinates":{"lat":"7.353851","long":"-4.450738"}},{"country":"ci","city":"Akouassikro","coordinates":{"lat":"7.169396","long":"-4.403846"}},{"country":"ci","city":"Akouatano","coordinates":{"lat":"7.8","long":"-3.933333"}},{"country":"ci","city":"Akouaviénou","coordinates":{"lat":"7.233333","long":"-4.25"}},{"country":"ci","city":"Akoua Yapi","coordinates":{"lat":"5.765224","long":"-3.703055"}},{"country":"ci","city":"Akoudzin","coordinates":{"lat":"6.026389","long":"-3.983333"}},{"country":"ci","city":"Akoué Agban","coordinates":{"lat":"5.310621","long":"-3.855631"}},{"country":"ci","city":"Akouéboué","coordinates":{"lat":"7.445479","long":"-4.144603"}},{"country":"ci","city":"Akouédo","coordinates":{"lat":"5.349052","long":"-3.951872"}},{"country":"ci","city":"Akouèdo Attié","coordinates":{"lat":"5.357143","long":"-3.929099"}},{"country":"ci","city":"Akoué Kouadiokro","coordinates":{"lat":"6.627728","long":"-5.016761"}},{"country":"ci","city":"Akoue Ndénou","coordinates":{"lat":"7.238296","long":"-5.070719"}},{"country":"ci","city":"Akoué Santé","coordinates":{"lat":"5.366714","long":"-3.898751"}},{"country":"ci","city":"Akouessi","coordinates":{"lat":"7.568622","long":"-4.956938"}},{"country":"ci","city":"Akouessou","coordinates":{"lat":"7.05","long":"-4.366667"}},{"country":"ci","city":"Akouiakro","coordinates":{"lat":"7.176386","long":"-3.887586"}},{"country":"ci","city":"Akoumanou","coordinates":{"lat":"7.9","long":"-2.866667"}},{"country":"ci","city":"Akoumiakro","coordinates":{"lat":"7.874208","long":"-5.578714"}},{"country":"ci","city":"Akounadougou","coordinates":{"lat":"7.6","long":"-3.85"}},{"country":"ci","city":"Akoundoukro","coordinates":{"lat":"7.034098","long":"-5.684974"}},{"country":"ci","city":"Akoungou","coordinates":{"lat":"5.669877","long":"-4.785765"}},{"country":"ci","city":"Akounougbé","coordinates":{"lat":"5.182782","long":"-3.17836"}},{"country":"ci","city":"Akoupé","coordinates":{"lat":"6.38423","long":"-3.887589"}},{"country":"ci","city":"Akoupé","coordinates":{"lat":"5.481147","long":"-4.155016"}},{"country":"ci","city":"Akouré","coordinates":{"lat":"5.377424","long":"-3.74779"}},{"country":"ci","city":"Akou Toué Nguessankro","coordinates":{"lat":"7.965427","long":"-5.14003"}},{"country":"ci","city":"Akou Yapo","coordinates":{"lat":"5.826546","long":"-4.018932"}},{"country":"ci","city":"Akoviébo","coordinates":{"lat":"7.449602","long":"-5.677888"}},{"country":"ci","city":"Akoyakro","coordinates":{"lat":"7.366667","long":"-4.116667"}},{"country":"ci","city":"Akoyaté","coordinates":{"lat":"5.386254","long":"-3.847329"}},{"country":"ci","city":"Akoyébo","coordinates":{"lat":"7.449602","long":"-5.677888"}},{"country":"ci","city":"Akoye Ndénou","coordinates":{"lat":"7.238296","long":"-5.070719"}},{"country":"ci","city":"Akpangne","coordinates":{"lat":"5.110599","long":"-3.139783"}},{"country":"ci","city":"Akpatoufoué","coordinates":{"lat":"7.248886","long":"-4.621945"}},{"country":"ci","city":"Akpé Ojé","coordinates":{"lat":"5.740687","long":"-4.211209"}},{"country":"ci","city":"Akpesse","coordinates":{"lat":"7.568622","long":"-4.956938"}},{"country":"ci","city":"Akpessékro","coordinates":{"lat":"6.724878","long":"-5.306015"}},{"country":"ci","city":"Akpokro","coordinates":{"lat":"7.857191","long":"-5.057728"}},{"country":"ci","city":"Akpoué Kouassikro","coordinates":{"lat":"7.82715","long":"-4.533386"}},{"country":"ci","city":"Akpouéssékro","coordinates":{"lat":"6.724878","long":"-5.306015"}},{"country":"ci","city":"Akproabo","coordinates":{"lat":"7.644712","long":"-5.313775"}},{"country":"ci","city":"Akpuibo","coordinates":{"lat":"7.501451","long":"-5.040834"}},{"country":"ci","city":"Akradio","coordinates":{"lat":"5.437189","long":"-4.363534"}},{"country":"ci","city":"Akradjin","coordinates":{"lat":"5.267227","long":"-4.094819"}},{"country":"ci","city":"Akrakro","coordinates":{"lat":"7.261103","long":"-5.260567"}},{"country":"ci","city":"Akrankakro","coordinates":{"lat":"7.533333","long":"-4.016667"}},{"country":"ci","city":"Akrarinkro","coordinates":{"lat":"7.398844","long":"-3.851121"}},{"country":"ci","city":"Akrassikro","coordinates":{"lat":"7.659473","long":"-3.290549"}},{"country":"ci","city":"Akrébi","coordinates":{"lat":"6.143524","long":"-3.385394"}},{"country":"ci","city":"Akréby","coordinates":{"lat":"6.143524","long":"-3.385394"}},{"country":"ci","city":"Akré Nguessandon","coordinates":{"lat":"5.15","long":"-4.816667"}},{"country":"ci","city":"Akrési","coordinates":{"lat":"5.666422","long":"-3.078209"}},{"country":"ci","city":"Akréssé","coordinates":{"lat":"5.666422","long":"-3.078209"}},{"country":"ci","city":"Akressi","coordinates":{"lat":"5.666422","long":"-3.078209"}},{"country":"ci","city":"Akrétia","coordinates":{"lat":"7.264891","long":"-5.287261"}},{"country":"ci","city":"Akrézi","coordinates":{"lat":"5.666422","long":"-3.078209"}},{"country":"ci","city":"Akridou","coordinates":{"lat":"5.626677","long":"-5.606814"}},{"country":"ci","city":"Akridu","coordinates":{"lat":"5.626677","long":"-5.606814"}},{"country":"ci","city":"Akrifoukro","coordinates":{"lat":"7.485028","long":"-4.350952"}},{"country":"ci","city":"Akroaba Akoudjekoa","coordinates":{"lat":"5.415202","long":"-3.507017"}},{"country":"ci","city":"Akroaba Beniekoa","coordinates":{"lat":"5.395673","long":"-3.504551"}},{"country":"ci","city":"Akroaba Biéssiékro","coordinates":{"lat":"5.388835","long":"-3.500663"}},{"country":"ci","city":"Akroabo","coordinates":{"lat":"7.644712","long":"-5.313775"}},{"country":"ci","city":"Akrokro","coordinates":{"lat":"7.6525","long":"-4.883889"}},{"country":"ci","city":"Akromiabra","coordinates":{"lat":"5.301994","long":"-3.339594"}},{"country":"ci","city":"Akromiopla","coordinates":{"lat":"7.336087","long":"-5.025031"}},{"country":"ci","city":"Akrou","coordinates":{"lat":"5.208137","long":"-4.357199"}},{"country":"ci","city":"Akrouakrou","coordinates":{"lat":"6.775956","long":"-3.511761"}},{"country":"ci","city":"Akroubangbokro","coordinates":{"lat":"7.671623","long":"-4.841879"}},{"country":"ci","city":"Akroufla","coordinates":{"lat":"6.339651","long":"-5.491232"}},{"country":"ci","city":"Akroufra","coordinates":{"lat":"6.339651","long":"-5.491232"}},{"country":"ci","city":"Akroukro","coordinates":{"lat":"6.545222","long":"-5.268385"}},{"country":"ci","city":"Akuio Late","coordinates":{"lat":"5.504368","long":"-4.407362"}},{"country":"ci","city":"Akukuma","coordinates":{"lat":"5.512356","long":"-3.648893"}},{"country":"ci","city":"Akumvikro","coordinates":{"lat":"6.551283","long":"-4.854388"}},{"country":"ci","city":"Akun","coordinates":{"lat":"7.484722","long":"-3.253611"}},{"country":"ci","city":"Akupe","coordinates":{"lat":"6.38423","long":"-3.887589"}},{"country":"ci","city":"Akuvikro","coordinates":{"lat":"6.551283","long":"-4.854388"}},{"country":"ci","city":"Akwakru","coordinates":{"lat":"6.775956","long":"-3.511761"}},{"country":"ci","city":"Alakanou","coordinates":{"lat":"6.742778","long":"-3.323611"}},{"country":"ci","city":"Alaka Sakassou","coordinates":{"lat":"7.781247","long":"-5.385565"}},{"country":"ci","city":"Alakouakrou","coordinates":{"lat":"5.293531","long":"-2.890874"}},{"country":"ci","city":"Alakro","coordinates":{"lat":"7.063675","long":"-3.698787"}},{"country":"ci","city":"Alakro","coordinates":{"lat":"7.3","long":"-3.716667"}},{"country":"ci","city":"Alakro","coordinates":{"lat":"8.03591","long":"-5.313024"}},{"country":"ci","city":"Alamandiougoukaha","coordinates":{"lat":"9.450599","long":"-5.131771"}},{"country":"ci","city":"Alamandyougoukaha","coordinates":{"lat":"9.450599","long":"-5.131771"}},{"country":"ci","city":"Alamanou","coordinates":{"lat":"7.968271","long":"-4.837508"}},{"country":"ci","city":"Alamingoro","coordinates":{"lat":"8.697944","long":"-3.19229"}},{"country":"ci","city":"Alamin Saié","coordinates":{"lat":"5.902468","long":"-4.002646"}},{"country":"ci","city":"Alangoua","coordinates":{"lat":"7.207222","long":"-5.602778"}},{"country":"ci","city":"Alangouanou","coordinates":{"lat":"6.326944","long":"-3.443611"}},{"country":"ci","city":"Alangouanou","coordinates":{"lat":"5.152114","long":"-2.935177"}},{"country":"ci","city":"Alangouassi","coordinates":{"lat":"7.509259","long":"-4.582461"}},{"country":"ci","city":"Alangouassou","coordinates":{"lat":"7.509259","long":"-4.582461"}},{"country":"ci","city":"Alanguasu","coordinates":{"lat":"7.509259","long":"-4.582461"}},{"country":"ci","city":"Alanikro","coordinates":{"lat":"7.335745","long":"-4.868453"}},{"country":"ci","city":"Alaninkoro","coordinates":{"lat":"8.697944","long":"-3.19229"}},{"country":"ci","city":"Alaou","coordinates":{"lat":"7.14135","long":"-5.035267"}},{"country":"ci","city":"Alaou","coordinates":{"lat":"7.037276","long":"-5.517223"}},{"country":"ci","city":"Alaou Bassi","coordinates":{"lat":"7.037276","long":"-5.517223"}},{"country":"ci","city":"Alatissibo","coordinates":{"lat":"7.745414","long":"-5.550702"}},{"country":"ci","city":"Alé","coordinates":{"lat":"7.553123","long":"-5.136634"}},{"country":"ci","city":"Alé Assamoua","coordinates":{"lat":"5.58757","long":"-3.650546"}},{"country":"ci","city":"Alé Asso","coordinates":{"lat":"5.588416","long":"-3.641565"}},{"country":"ci","city":"Alébla","coordinates":{"lat":"7.65861","long":"-5.393626"}},{"country":"ci","city":"Alébonou","coordinates":{"lat":"7.545556","long":"-5.059444"}},{"country":"ci","city":"Alechikoua","coordinates":{"lat":"5.447608","long":"-4.030388"}},{"country":"ci","city":"Alekédon","coordinates":{"lat":"5.113817","long":"-5.324255"}},{"country":"ci","city":"Alékikoua","coordinates":{"lat":"5.461723","long":"-4.011451"}},{"country":"ci","city":"Alekokofi","coordinates":{"lat":"7.1","long":"-4.433333"}},{"country":"ci","city":"Alékro","coordinates":{"lat":"7.965301","long":"-5.530237"}},{"country":"ci","city":"Alékrou","coordinates":{"lat":"7.965301","long":"-5.530237"}},{"country":"ci","city":"Alépé","coordinates":{"lat":"5.500397","long":"-3.663083"}},{"country":"ci","city":"Alèri","coordinates":{"lat":"5.451591","long":"-4.112316"}},{"country":"ci","city":"Aley","coordinates":{"lat":"6.969341","long":"-5.498965"}},{"country":"ci","city":"Aley Yaokro","coordinates":{"lat":"6.977264","long":"-5.494941"}},{"country":"ci","city":"Al Hadj Dialo","coordinates":{"lat":"7.583333","long":"-4.283333"}},{"country":"ci","city":"Ali","coordinates":{"lat":"5.897889","long":"-4.385638"}},{"country":"ci","city":"Ali","coordinates":{"lat":"5.301234","long":"-3.876043"}},{"country":"ci","city":"Ali Alikro","coordinates":{"lat":"7.382081","long":"-5.037555"}},{"country":"ci","city":"Ali-Alikro","coordinates":{"lat":"7.382081","long":"-5.037555"}},{"country":"ci","city":"Aliboti","coordinates":{"lat":"7.584161","long":"-5.244684"}},{"country":"ci","city":"Ali Coulibaly","coordinates":{"lat":"5.924714","long":"-4.252111"}},{"country":"ci","city":"Aliéman","coordinates":{"lat":"5.346437","long":"-3.26329"}},{"country":"ci","city":"Aliemano","coordinates":{"lat":"5.346437","long":"-3.26329"}},{"country":"ci","city":"Aligérikouadiokro","coordinates":{"lat":"6.75","long":"-4.616667"}},{"country":"ci","city":"Alikoassué","coordinates":{"lat":"7.193941","long":"-2.98796"}},{"country":"ci","city":"Alikro","coordinates":{"lat":"5.222515","long":"-3.320992"}},{"country":"ci","city":"Alikrou","coordinates":{"lat":"7.794634","long":"-3.614388"}},{"country":"ci","city":"Alimingoro","coordinates":{"lat":"8.697944","long":"-3.19229"}},{"country":"ci","city":"Alinguié","coordinates":{"lat":"5.467386","long":"-4.185492"}},{"country":"ci","city":"Alinja","coordinates":{"lat":"5.196926","long":"-4.467526"}},{"country":"ci","city":"Alla","coordinates":{"lat":"5.527108","long":"-4.086717"}},{"country":"ci","city":"Allaba","coordinates":{"lat":"5.283662","long":"-4.348592"}},{"country":"ci","city":"Allahin","coordinates":{"lat":"5.63238","long":"-4.195721"}},{"country":"ci","city":"Alla Kouassi","coordinates":{"lat":"5.9073","long":"-4.296895"}},{"country":"ci","city":"Allakro","coordinates":{"lat":"6.329363","long":"-4.548236"}},{"country":"ci","city":"Allakro","coordinates":{"lat":"5.293531","long":"-2.890874"}},{"country":"ci","city":"Allangouanou","coordinates":{"lat":"5.152114","long":"-2.935177"}},{"country":"ci","city":"Allekro","coordinates":{"lat":"5.360491","long":"-3.205771"}},{"country":"ci","city":"Allo","coordinates":{"lat":"5.299019","long":"-3.886955"}},{"country":"ci","city":"Allokoa","coordinates":{"lat":"5.397383","long":"-4.14884"}},{"country":"ci","city":"Allokokro","coordinates":{"lat":"7.726492","long":"-5.098151"}},{"country":"ci","city":"Allosépé","coordinates":{"lat":"5.239734","long":"-3.44362"}},{"country":"ci","city":"Allowéuré","coordinates":{"lat":"5.266374","long":"-3.438851"}},{"country":"ci","city":"Alluminankro","coordinates":{"lat":"6.390458","long":"-5.072765"}},{"country":"ci","city":"Alokanou","coordinates":{"lat":"6.742778","long":"-3.323611"}},{"country":"ci","city":"Alokokmikro","coordinates":{"lat":"7.216667","long":"-4.283333"}},{"country":"ci","city":"Aloko Koffikro","coordinates":{"lat":"7.274675","long":"-4.436642"}},{"country":"ci","city":"Aloko-Kofikro","coordinates":{"lat":"7.274675","long":"-4.436642"}},{"country":"ci","city":"Aloko Kouakoukro","coordinates":{"lat":"6.808578","long":"-4.435153"}},{"country":"ci","city":"Alokokro","coordinates":{"lat":"7.188483","long":"-4.844526"}},{"country":"ci","city":"Alokokro","coordinates":{"lat":"6.879488","long":"-4.504868"}},{"country":"ci","city":"Alokokro","coordinates":{"lat":"8.081921","long":"-5.441679"}},{"country":"ci","city":"Alokonou","coordinates":{"lat":"8.021978","long":"-5.218378"}},{"country":"ci","city":"Alokoua","coordinates":{"lat":"5.397383","long":"-4.14884"}},{"country":"ci","city":"Alokoukro","coordinates":{"lat":"7.188483","long":"-4.844526"}},{"country":"ci","city":"Alokoukro","coordinates":{"lat":"7.726492","long":"-5.098151"}},{"country":"ci","city":"Alokouyakro","coordinates":{"lat":"7.783333","long":"-5.083333"}},{"country":"ci","city":"Aloko Yobouekro","coordinates":{"lat":"7.405819","long":"-4.895306"}},{"country":"ci","city":"Alomanou","coordinates":{"lat":"7.968271","long":"-4.837508"}},{"country":"ci","city":"Alomin","coordinates":{"lat":"5.534568","long":"-3.591413"}},{"country":"ci","city":"Alongo","coordinates":{"lat":"6.379465","long":"-4.468522"}},{"country":"ci","city":"Aloso","coordinates":{"lat":"5.653364","long":"-3.549669"}},{"country":"ci","city":"Alosso","coordinates":{"lat":"5.653364","long":"-3.549669"}},{"country":"ci","city":"Alosso I","coordinates":{"lat":"5.653364","long":"-3.549669"}},{"country":"ci","city":"Alosso-II","coordinates":{"lat":"5.564374","long":"-3.500352"}},{"country":"ci","city":"Alosso Un","coordinates":{"lat":"5.653364","long":"-3.549669"}},{"country":"ci","city":"Alouakro","coordinates":{"lat":"5.458889","long":"-3.153056"}},{"country":"ci","city":"Alouibo","coordinates":{"lat":"7.585278","long":"-5.643611"}},{"country":"ci","city":"Aloukokro","coordinates":{"lat":"8.081921","long":"-5.441679"}},{"country":"ci","city":"Alouko Sakassou","coordinates":{"lat":"7.781247","long":"-5.385565"}},{"country":"ci","city":"Aloukoukro","coordinates":{"lat":"6.879488","long":"-4.504868"}},{"country":"ci","city":"Aloukro","coordinates":{"lat":"7.447125","long":"-5.309601"}},{"country":"ci","city":"Aloukro Diékro","coordinates":{"lat":"7.346806","long":"-5.25833"}},{"country":"ci","city":"Aloukro Drékro","coordinates":{"lat":"7.346806","long":"-5.25833"}},{"country":"ci","city":"Aloukro Namouéno","coordinates":{"lat":"7.814709","long":"-5.502033"}},{"country":"ci","city":"Aloumabo","coordinates":{"lat":"7.770278","long":"-4.916667"}},{"country":"ci","city":"Alounamouénou","coordinates":{"lat":"7.524444","long":"-3.801389"}},{"country":"ci","city":"Aloussou","coordinates":{"lat":"7.608359","long":"-3.79793"}},{"country":"ci","city":"Alubo","coordinates":{"lat":"7.3","long":"-4.733333"}},{"country":"ci","city":"Alumnankro","coordinates":{"lat":"6.390458","long":"-5.072765"}},{"country":"ci","city":"Alunkro","coordinates":{"lat":"5.479441","long":"-3.228952"}},{"country":"ci","city":"Ama Akoto","coordinates":{"lat":"5.816183","long":"-4.017765"}},{"country":"ci","city":"Amadou","coordinates":{"lat":"5.335001","long":"-3.918571"}},{"country":"ci","city":"Amadoukro","coordinates":{"lat":"7.716667","long":"-3.85"}},{"country":"ci","city":"Amadou Namoun","coordinates":{"lat":"7.466667","long":"-4.3"}},{"country":"ci","city":"Amadou Sangaré","coordinates":{"lat":"5.373605","long":"-4.229504"}},{"country":"ci","city":"Amagoua","coordinates":{"lat":"5.915149","long":"-4.028501"}},{"country":"ci","city":"Amah","coordinates":{"lat":"5.625531","long":"-3.679589"}},{"country":"ci","city":"Amakro","coordinates":{"lat":"7.813889","long":"-4.420556"}},{"country":"ci","city":"Amamou","coordinates":{"lat":"5.235","long":"-3.877969"}},{"country":"ci","city":"Amanakro","coordinates":{"lat":"6.982963","long":"-4.65517"}},{"country":"ci","city":"Aman","coordinates":{"lat":"5.904447","long":"-3.811043"}},{"country":"ci","city":"Aman","coordinates":{"lat":"5.444437","long":"-4.07883"}},{"country":"ci","city":"Amandi Afoué","coordinates":{"lat":"5.923045","long":"-3.178868"}},{"country":"ci","city":"Amanékro","coordinates":{"lat":"5.425093","long":"-3.347109"}},{"country":"ci","city":"Amanékro","coordinates":{"lat":"7.876461","long":"-4.91703"}},{"country":"ci","city":"Amangbo","coordinates":{"lat":"6.020595","long":"-4.371413"}},{"country":"ci","city":"Amangouakro","coordinates":{"lat":"6.866642","long":"-3.769728"}},{"country":"ci","city":"Amangouakrou","coordinates":{"lat":"6.866642","long":"-3.769728"}},{"country":"ci","city":"Amani Houchou","coordinates":{"lat":"5.923766","long":"-4.284835"}},{"country":"ci","city":"Amani Kola","coordinates":{"lat":"5.668712","long":"-4.483079"}},{"country":"ci","city":"Amanikoti","coordinates":{"lat":"7.17557","long":"-3.904165"}},{"country":"ci","city":"Amanikro","coordinates":{"lat":"7.016667","long":"-3.866667"}},{"country":"ci","city":"Amanikro","coordinates":{"lat":"5.425136","long":"-3.386764"}},{"country":"ci","city":"Amanikro","coordinates":{"lat":"7.579745","long":"-5.023113"}},{"country":"ci","city":"Amani Ménou","coordinates":{"lat":"6.083595","long":"-4.983302"}},{"country":"ci","city":"Aman Kofikro","coordinates":{"lat":"7.229498","long":"-5.577435"}},{"country":"ci","city":"Amankokro","coordinates":{"lat":"5.431639","long":"-3.314739"}},{"country":"ci","city":"Amankro","coordinates":{"lat":"7.416423","long":"-3.995419"}},{"country":"ci","city":"Amankro","coordinates":{"lat":"5.546048","long":"-3.176811"}},{"country":"ci","city":"Amanoukro","coordinates":{"lat":"5.425093","long":"-3.347109"}},{"country":"ci","city":"Aman-Pokoukro","coordinates":{"lat":"6.940736","long":"-4.771398"}},{"country":"ci","city":"Aman Salékro","coordinates":{"lat":"7.225769","long":"-5.574035"}},{"country":"ci","city":"Amanvi","coordinates":{"lat":"7.969722","long":"-3.138889"}},{"country":"ci","city":"Aman Yapi","coordinates":{"lat":"5.797093","long":"-3.657971"}},{"country":"ci","city":"Amanzé","coordinates":{"lat":"7.2379","long":"-5.629368"}},{"country":"ci","city":"Amanzi","coordinates":{"lat":"7.2379","long":"-5.629368"}},{"country":"ci","city":"Amara","coordinates":{"lat":"7.35","long":"-3.85"}},{"country":"ci","city":"Amarakro","coordinates":{"lat":"7.099253","long":"-3.662602"}},{"country":"ci","city":"Amarando","coordinates":{"lat":"7.866667","long":"-3.25"}},{"country":"ci","city":"Amata","coordinates":{"lat":"7.837166","long":"-2.987604"}},{"country":"ci","city":"Amatikoua","coordinates":{"lat":"5.666469","long":"-3.931812"}},{"country":"ci","city":"Ambénou","coordinates":{"lat":"5.565011","long":"-3.662817"}},{"country":"ci","city":"Améakouro","coordinates":{"lat":"7.283921","long":"-3.30235"}},{"country":"ci","city":"Amékrou","coordinates":{"lat":"6.750679","long":"-4.111281"}},{"country":"ci","city":"Amekru","coordinates":{"lat":"6.750679","long":"-4.111281"}},{"country":"ci","city":"Amélékia","coordinates":{"lat":"6.830358","long":"-3.575224"}},{"country":"ci","city":"Améléya","coordinates":{"lat":"6.830358","long":"-3.575224"}},{"country":"ci","city":"Améliakro","coordinates":{"lat":"7.099408","long":"-3.528214"}},{"country":"ci","city":"Améliakrou","coordinates":{"lat":"7.099408","long":"-3.528214"}},{"country":"ci","city":"Amenaiboué","coordinates":{"lat":"5.76354","long":"-5.448388"}},{"country":"ci","city":"Amessan","coordinates":{"lat":"5.148277","long":"-4.835969"}},{"country":"ci","city":"Amessandon","coordinates":{"lat":"5.148277","long":"-4.835969"}},{"country":"ci","city":"Amgama-Kouadioukro","coordinates":{"lat":"7.65","long":"-5.2"}},{"country":"ci","city":"Amia Akaffou","coordinates":{"lat":"5.868144","long":"-4.059733"}},{"country":"ci","city":"Amia","coordinates":{"lat":"5.383056","long":"-3.536667"}},{"country":"ci","city":"Amiakro","coordinates":{"lat":"5.582723","long":"-3.493482"}},{"country":"ci","city":"Amiakro","coordinates":{"lat":"7.55942","long":"-3.961498"}},{"country":"ci","city":"Amiakrou","coordinates":{"lat":"7.317794","long":"-3.138342"}},{"country":"ci","city":"Amiankro","coordinates":{"lat":"7.136266","long":"-4.944224"}},{"country":"ci","city":"Amianou","coordinates":{"lat":"7.60279","long":"-5.036612"}},{"country":"ci","city":"Amicoukro","coordinates":{"lat":"5.54986","long":"-3.535534"}},{"country":"ci","city":"Amienkro","coordinates":{"lat":"7.136266","long":"-4.944224"}},{"country":"ci","city":"Amin Anon","coordinates":{"lat":"5.894983","long":"-3.874874"}},{"country":"ci","city":"Amindi","coordinates":{"lat":"9.714694","long":"-3.565474"}},{"country":"ci","city":"Amissiakro","coordinates":{"lat":"5.100121","long":"-3.14421"}},{"country":"ci","city":"Amiti","coordinates":{"lat":"5.255283","long":"-3.815048"}},{"country":"ci","city":"Amlakro","coordinates":{"lat":"5.394974","long":"-3.402437"}},{"country":"ci","city":"Amodi","coordinates":{"lat":"8.134835","long":"-3.070697"}},{"country":"ci","city":"Amoichi","coordinates":{"lat":"5.862126","long":"-4.376913"}},{"country":"ci","city":"Amoikro","coordinates":{"lat":"5.545953","long":"-3.168803"}},{"country":"ci","city":"Amokouabenakroum","coordinates":{"lat":"7.7","long":"-2.983333"}},{"country":"ci","city":"Amon","coordinates":{"lat":"5.560194","long":"-3.852426"}},{"country":"ci","city":"Amonkro","coordinates":{"lat":"7.084975","long":"-5.031042"}},{"country":"ci","city":"Amon Ncho","coordinates":{"lat":"5.901606","long":"-4.035278"}},{"country":"ci","city":"Amon Séka","coordinates":{"lat":"5.896447","long":"-4.032173"}},{"country":"ci","city":"Amon Yangoran","coordinates":{"lat":"5.928901","long":"-3.735675"}},{"country":"ci","city":"Amon Yapo","coordinates":{"lat":"5.895716","long":"-4.040939"}},{"country":"ci","city":"Amoriakro","coordinates":{"lat":"7.099408","long":"-3.528214"}},{"country":"ci","city":"Amoriki","coordinates":{"lat":"7.087934","long":"-4.161551"}},{"country":"ci","city":"Amorofikroum","coordinates":{"lat":"7.601056","long":"-3.14964"}},{"country":"ci","city":"Amou","coordinates":{"lat":"5.742071","long":"-4.359331"}},{"country":"ci","city":"Amouaténé","coordinates":{"lat":"8.096653","long":"-3.084545"}},{"country":"ci","city":"Amoudji","coordinates":{"lat":"5.629708","long":"-4.249643"}},{"country":"ci","city":"Amoukoukro","coordinates":{"lat":"7.115573","long":"-3.628336"}},{"country":"ci","city":"Amoukrou","coordinates":{"lat":"6.063611","long":"-3.110556"}},{"country":"ci","city":"Amounakro","coordinates":{"lat":"7.25","long":"-3.733333"}},{"country":"ci","city":"Amprompromou","coordinates":{"lat":"7.001289","long":"-3.360166"}},{"country":"ci","city":"Amukou","coordinates":{"lat":"5.581639","long":"-3.630644"}},{"country":"ci","city":"Amurwan","coordinates":{"lat":"5.52018","long":"-3.589355"}},{"country":"ci","city":"Anakikro","coordinates":{"lat":"7.566667","long":"-3.333333"}},{"country":"ci","city":"Anamakro","coordinates":{"lat":"7.359493","long":"-4.001191"}},{"country":"ci","city":"Anamoué","coordinates":{"lat":"5.2","long":"-7.35"}},{"country":"ci","city":"Ananda","coordinates":{"lat":"7.283333","long":"-4.266667"}},{"country":"ci","city":"Anandakassikro","coordinates":{"lat":"7.284886","long":"-4.244457"}},{"country":"ci","city":"Ananda-Koidiokro","coordinates":{"lat":"7.283587","long":"-4.255192"}},{"country":"ci","city":"Ananda-Kouassikro","coordinates":{"lat":"7.284886","long":"-4.244457"}},{"country":"ci","city":"Anando Kouassikro","coordinates":{"lat":"7.284886","long":"-4.244457"}},{"country":"ci","city":"Ananguié","coordinates":{"lat":"6.066495","long":"-4.477069"}},{"country":"ci","city":"Anani","coordinates":{"lat":"5.236343","long":"-3.873088"}},{"country":"ci","city":"Anapé","coordinates":{"lat":"5.906118","long":"-3.769865"}},{"country":"ci","city":"Anassin Egou","coordinates":{"lat":"5.971442","long":"-3.886643"}},{"country":"ci","city":"Anaviblé","coordinates":{"lat":"5.286667","long":"-3.848889"}},{"country":"ci","city":"Anboufinou","coordinates":{"lat":"7.116667","long":"-3.95"}},{"country":"ci","city":"Ancien Koumassi","coordinates":{"lat":"5.274857","long":"-3.967169"}},{"country":"ci","city":"Andan","coordinates":{"lat":"9.90678","long":"-3.721033"}},{"country":"ci","city":"Andé","coordinates":{"lat":"5.946227","long":"-4.424831"}},{"country":"ci","city":"Andé","coordinates":{"lat":"6.781764","long":"-4.085171"}},{"country":"ci","city":"Andé Hinon","coordinates":{"lat":"5.80318","long":"-4.366176"}},{"country":"ci","city":"Andi","coordinates":{"lat":"7.561186","long":"-5.616346"}},{"country":"ci","city":"Andianou","coordinates":{"lat":"6.716341","long":"-4.631139"}},{"country":"ci","city":"Andianou","coordinates":{"lat":"7.737743","long":"-5.614163"}},{"country":"ci","city":"Ando","coordinates":{"lat":"7.509008","long":"-5.574859"}},{"country":"ci","city":"Ando Blékro","coordinates":{"lat":"7.272422","long":"-5.33072"}},{"country":"ci","city":"Andobo","coordinates":{"lat":"7.402985","long":"-5.299873"}},{"country":"ci","city":"Andofoué","coordinates":{"lat":"7.381723","long":"-5.239631"}},{"country":"ci","city":"Andokakro","coordinates":{"lat":"5.396689","long":"-3.306154"}},{"country":"ci","city":"Andokoi-Kokrékro","coordinates":{"lat":"6.983907","long":"-4.841194"}},{"country":"ci","city":"Ando Koua Kauamikro","coordinates":{"lat":"7.289746","long":"-4.875528"}},{"country":"ci","city":"Andokoua-Kouamékro","coordinates":{"lat":"7.289746","long":"-4.875528"}},{"country":"ci","city":"Andokoy-Kokorékro","coordinates":{"lat":"6.983907","long":"-4.841194"}},{"country":"ci","city":"Andokro","coordinates":{"lat":"6.681206","long":"-4.873761"}},{"country":"ci","city":"Andokro","coordinates":{"lat":"7.434338","long":"-5.121097"}},{"country":"ci","city":"Andokro Kouakou","coordinates":{"lat":"7.659388","long":"-5.315273"}},{"country":"ci","city":"Andoufoué","coordinates":{"lat":"7.381723","long":"-5.239631"}},{"country":"ci","city":"Andouin","coordinates":{"lat":"5.28995","long":"-4.137119"}},{"country":"ci","city":"Andou Mbato","coordinates":{"lat":"5.404886","long":"-3.656998"}},{"country":"ci","city":"Andou Mbatto","coordinates":{"lat":"5.404886","long":"-3.656998"}},{"country":"ci","city":"André Soboua","coordinates":{"lat":"5.797751","long":"-4.376501"}},{"country":"ci","city":"Anediou Massi","coordinates":{"lat":"5.572378","long":"-4.489475"}},{"country":"ci","city":"Anendiué","coordinates":{"lat":"5.183333","long":"-3.333333"}},{"country":"ci","city":"Anépé","coordinates":{"lat":"5.906118","long":"-3.769865"}},{"country":"ci","city":"Anga","coordinates":{"lat":"5.214698","long":"-3.287739"}},{"country":"ci","city":"Anga-Hui","coordinates":{"lat":"8.058117","long":"-3.326372"}},{"country":"ci","city":"Angakro","coordinates":{"lat":"7.496111","long":"-5.075556"}},{"country":"ci","city":"Angamaki","coordinates":{"lat":"6.490217","long":"-4.442815"}},{"country":"ci","city":"Angama Kouassikro","coordinates":{"lat":"7.498306","long":"-5.174699"}},{"country":"ci","city":"Angamankro","coordinates":{"lat":"7.498306","long":"-5.174699"}},{"country":"ci","city":"Angan Koffikro","coordinates":{"lat":"7.510462","long":"-4.894136"}},{"country":"ci","city":"Angankro","coordinates":{"lat":"7.782451","long":"-5.054679"}},{"country":"ci","city":"Angaossoukro","coordinates":{"lat":"7.55","long":"-4.866667"}},{"country":"ci","city":"Angaye","coordinates":{"lat":"9.590273","long":"-3.2891"}},{"country":"ci","city":"Angban Broukro","coordinates":{"lat":"7.811708","long":"-4.420941"}},{"country":"ci","city":"Angbannikro","coordinates":{"lat":"7.372344","long":"-4.627729"}},{"country":"ci","city":"Angbara","coordinates":{"lat":"8.072756","long":"-5.326787"}},{"country":"ci","city":"Angbavia","coordinates":{"lat":"6.386425","long":"-5.016243"}},{"country":"ci","city":"Angboko","coordinates":{"lat":"5.1925","long":"-3.640673"}},{"country":"ci","city":"Angboudjou","coordinates":{"lat":"5.154078","long":"-3.207181"}},{"country":"ci","city":"Anglanou","coordinates":{"lat":"6.295068","long":"-4.484196"}},{"country":"ci","city":"Angoakro","coordinates":{"lat":"7.360993","long":"-4.315893"}},{"country":"ci","city":"Angoa Madjibre","coordinates":{"lat":"5.577575","long":"-4.49576"}},{"country":"ci","city":"Ango","coordinates":{"lat":"5.941614","long":"-4.236547"}},{"country":"ci","city":"Angobila","coordinates":{"lat":"8.469794","long":"-3.561725"}},{"country":"ci","city":"Angodoua","coordinates":{"lat":"5.987407","long":"-3.721947"}},{"country":"ci","city":"Ango Kouamékro","coordinates":{"lat":"7.80142","long":"-5.503268"}},{"country":"ci","city":"Angoli Ngbesso","coordinates":{"lat":"5.909155","long":"-4.363695"}},{"country":"ci","city":"Angolokaha","coordinates":{"lat":"8.518251","long":"-5.175674"}},{"country":"ci","city":"Angonanssou","coordinates":{"lat":"7.504169","long":"-5.602986"}},{"country":"ci","city":"Angoran Couao","coordinates":{"lat":"5.803345","long":"-4.089303"}},{"country":"ci","city":"Angorankoua","coordinates":{"lat":"5.410945","long":"-3.905772"}},{"country":"ci","city":"Angoua Kouassi","coordinates":{"lat":"5.455514","long":"-4.085506"}},{"country":"ci","city":"Angouakoukro","coordinates":{"lat":"6.721193","long":"-4.856259"}},{"country":"ci","city":"Angouakro","coordinates":{"lat":"7.194405","long":"-3.607964"}},{"country":"ci","city":"Angouakro","coordinates":{"lat":"7.2","long":"-3.933333"}},{"country":"ci","city":"Angouakrou","coordinates":{"lat":"7.194405","long":"-3.607964"}},{"country":"ci","city":"Angouakrou","coordinates":{"lat":"7.360993","long":"-4.315893"}},{"country":"ci","city":"Angouanikro","coordinates":{"lat":"7.372344","long":"-4.627729"}},{"country":"ci","city":"Angouassi","coordinates":{"lat":"7.001389","long":"-5.403611"}},{"country":"ci","city":"Angoubékoua","coordinates":{"lat":"5.67193","long":"-3.910179"}},{"country":"ci","city":"Angoukrou","coordinates":{"lat":"5.359589","long":"-3.639545"}},{"country":"ci","city":"Angounakro","coordinates":{"lat":"7.183333","long":"-4"}},{"country":"ci","city":"Angovia","coordinates":{"lat":"7.033051","long":"-5.536973"}},{"country":"ci","city":"Angra","coordinates":{"lat":"5.646494","long":"-4.023379"}},{"country":"ci","city":"Angwakro","coordinates":{"lat":"8.007256","long":"-5.428955"}},{"country":"ci","city":"Anhounzankro","coordinates":{"lat":"7.277028","long":"-4.653035"}},{"country":"ci","city":"Anhounzankro","coordinates":{"lat":"7.737308","long":"-4.768867"}},{"country":"ci","city":"Ania Adou","coordinates":{"lat":"5.865911","long":"-4.060132"}},{"country":"ci","city":"Ania-Assikasso","coordinates":{"lat":"7.109589","long":"-4.065712"}},{"country":"ci","city":"Aniaka","coordinates":{"lat":"5.402002","long":"-3.957487"}},{"country":"ci","city":"Anialesso","coordinates":{"lat":"6.523742","long":"-4.318966"}},{"country":"ci","city":"Aniama","coordinates":{"lat":"5.494622","long":"-4.051831"}},{"country":"ci","city":"Aniaman","coordinates":{"lat":"5.265797","long":"-3.52198"}},{"country":"ci","city":"Aniassué","coordinates":{"lat":"6.65368","long":"-3.681033"}},{"country":"ci","city":"Aniasué","coordinates":{"lat":"6.65368","long":"-3.681033"}},{"country":"ci","city":"Anibelekru","coordinates":{"lat":"7.131132","long":"-3.204147"}},{"country":"ci","city":"Anibossué","coordinates":{"lat":"6.600833","long":"-3.303056"}},{"country":"ci","city":"Anikro","coordinates":{"lat":"6.625358","long":"-5.11007"}},{"country":"ci","city":"Anin","coordinates":{"lat":"5.802993","long":"-3.613278"}},{"country":"ci","city":"Ankoyaté","coordinates":{"lat":"5.386254","long":"-3.847329"}},{"country":"ci","city":"Anna","coordinates":{"lat":"5.324539","long":"-3.878759"}},{"country":"ci","city":"Annassoukro","coordinates":{"lat":"5.196935","long":"-3.39019"}},{"country":"ci","city":"Annékrou","coordinates":{"lat":"6.750679","long":"-4.111281"}},{"country":"ci","city":"Annépé","coordinates":{"lat":"5.906118","long":"-3.769865"}},{"country":"ci","city":"Anno","coordinates":{"lat":"5.859525","long":"-4.379022"}},{"country":"ci","city":"Anno","coordinates":{"lat":"5.525638","long":"-4.407579"}},{"country":"ci","city":"Ano","coordinates":{"lat":"5.859525","long":"-4.379022"}},{"country":"ci","city":"Ano","coordinates":{"lat":"5.525638","long":"-4.407579"}},{"country":"ci","city":"Ano Doupa","coordinates":{"lat":"7.27667","long":"-5.392138"}},{"country":"ci","city":"Anokro","coordinates":{"lat":"7.434338","long":"-5.121097"}},{"country":"ci","city":"Anoma","coordinates":{"lat":"5.962709","long":"-4.486937"}},{"country":"ci","city":"Anoma","coordinates":{"lat":"5.403576","long":"-3.964635"}},{"country":"ci","city":"Anomaou Ahoso","coordinates":{"lat":"5.931267","long":"-4.494971"}},{"country":"ci","city":"Anombakro","coordinates":{"lat":"6.96271","long":"-3.744531"}},{"country":"ci","city":"Anomikro","coordinates":{"lat":"5.468141","long":"-4.501953"}},{"country":"ci","city":"Anon","coordinates":{"lat":"5.925848","long":"-3.994111"}},{"country":"ci","city":"Anon","coordinates":{"lat":"5.521078","long":"-4.371324"}},{"country":"ci","city":"Anonkoua","coordinates":{"lat":"5.439141","long":"-4.120317"}},{"country":"ci","city":"Anonkoua-Kouté","coordinates":{"lat":"5.439141","long":"-4.120317"}},{"country":"ci","city":"Anonkpo Kouassi","coordinates":{"lat":"5.436877","long":"-4.164903"}},{"country":"ci","city":"Anonkro","coordinates":{"lat":"5.575678","long":"-3.549317"}},{"country":"ci","city":"Anono","coordinates":{"lat":"5.342214","long":"-3.974104"}},{"country":"ci","city":"Anontcho","coordinates":{"lat":"5.465252","long":"-4.127607"}},{"country":"ci","city":"Anopo Assikoua","coordinates":{"lat":"5.66678","long":"-3.950361"}},{"country":"ci","city":"Ano Simbé","coordinates":{"lat":"7.288188","long":"-5.363503"}},{"country":"ci","city":"Anouan Kouamikro","coordinates":{"lat":"7.23207","long":"-4.985521"}},{"country":"ci","city":"Anouanze Bokaha","coordinates":{"lat":"7.00797","long":"-4.841507"}},{"country":"ci","city":"Anoublékro","coordinates":{"lat":"7.580368","long":"-5.27985"}},{"country":"ci","city":"Anoufoué Bounou","coordinates":{"lat":"7.381723","long":"-5.239631"}},{"country":"ci","city":"Anougbakro","coordinates":{"lat":"6.96271","long":"-3.744531"}},{"country":"ci","city":"Anougbré Kouassi","coordinates":{"lat":"5.969751","long":"-4.176841"}},{"country":"ci","city":"Anoukoua-Kouté","coordinates":{"lat":"5.439141","long":"-4.120317"}},{"country":"ci","city":"Anoukoua Kouté","coordinates":{"lat":"5.438602","long":"-4.120515"}},{"country":"ci","city":"Anoukro","coordinates":{"lat":"5.581246","long":"-3.553258"}},{"country":"ci","city":"Anoulekouamikro","coordinates":{"lat":"7.580368","long":"-5.27985"}},{"country":"ci","city":"Anoumaba","coordinates":{"lat":"6.337354","long":"-4.516263"}},{"country":"ci","city":"Anoumabo","coordinates":{"lat":"5.308757","long":"-3.967285"}},{"country":"ci","city":"Anoumabo","coordinates":{"lat":"7.092695","long":"-3.953265"}},{"country":"ci","city":"Anoumabou","coordinates":{"lat":"5.621438","long":"-5.108239"}},{"country":"ci","city":"Anoumagoua","coordinates":{"lat":"6.708121","long":"-5.222832"}},{"country":"ci","city":"Anoumangoua","coordinates":{"lat":"6.708121","long":"-5.222832"}},{"country":"ci","city":"Anoumankro","coordinates":{"lat":"5.422479","long":"-3.863601"}},{"country":"ci","city":"Anoumbakro","coordinates":{"lat":"6.96271","long":"-3.744531"}},{"country":"ci","city":"Anponou","coordinates":{"lat":"8.207836","long":"-3.03471"}},{"country":"ci","city":"Ansomanakouro","coordinates":{"lat":"7.75","long":"-3.783333"}},{"country":"ci","city":"Anson","coordinates":{"lat":"9.229194","long":"-3.060527"}},{"country":"ci","city":"Ansou","coordinates":{"lat":"9.229194","long":"-3.060527"}},{"country":"ci","city":"Ansoum","coordinates":{"lat":"9.229194","long":"-3.060527"}},{"country":"ci","city":"Anuanua","coordinates":{"lat":"6.726118","long":"-3.554107"}},{"country":"ci","city":"Anumaba","coordinates":{"lat":"6.337354","long":"-4.516263"}},{"country":"ci","city":"Anvahi","coordinates":{"lat":"8.533333","long":"-3.083333"}},{"country":"ci","city":"Anvéyo","coordinates":{"lat":"8.5374","long":"-3.498069"}},{"country":"ci","city":"Anveyo Siendé","coordinates":{"lat":"8.5374","long":"-3.498069"}},{"country":"ci","city":"Anyama Adjamé","coordinates":{"lat":"5.480409","long":"-4.044691"}},{"country":"ci","city":"Anyama Ahouabo","coordinates":{"lat":"5.5043","long":"-4.02491"}},{"country":"ci","city":"Anyama","coordinates":{"lat":"5.494622","long":"-4.051831"}},{"country":"ci","city":"Anyama Sossokoua","coordinates":{"lat":"5.494622","long":"-4.051831"}},{"country":"ci","city":"Anyanfoutou","coordinates":{"lat":"7.200749","long":"-3.247771"}},{"country":"ci","city":"Anyanou","coordinates":{"lat":"7.687202","long":"-3.757466"}},{"country":"ci","city":"Anyen","coordinates":{"lat":"6.5","long":"-4.483333"}},{"country":"ci","city":"Anyerékoffikro","coordinates":{"lat":"6.805072","long":"-4.919301"}},{"country":"ci","city":"Anyibonou","coordinates":{"lat":"7.429839","long":"-5.440482"}},{"country":"ci","city":"Anzandougou","coordinates":{"lat":"7.769722","long":"-4.256389"}},{"country":"ci","city":"Anze Assahoun","coordinates":{"lat":"5.115803","long":"-3.180756"}},{"country":"ci","city":"Aobé","coordinates":{"lat":"7.453352","long":"-5.188848"}},{"country":"ci","city":"Aokokro","coordinates":{"lat":"7.805796","long":"-5.450995"}},{"country":"ci","city":"Aolikro","coordinates":{"lat":"8.006368","long":"-5.446106"}},{"country":"ci","city":"Aon","coordinates":{"lat":"5.60356","long":"-3.963913"}},{"country":"ci","city":"Aondo","coordinates":{"lat":"6.821809","long":"-5.142258"}},{"country":"ci","city":"Aondo","coordinates":{"lat":"6.28234","long":"-5.152795"}},{"country":"ci","city":"Aonédiou","coordinates":{"lat":"5.437189","long":"-4.363534"}},{"country":"ci","city":"Aorobo","coordinates":{"lat":"6.893411","long":"-3.857994"}},{"country":"ci","city":"Aossi Lossankro","coordinates":{"lat":"7.492822","long":"-4.496459"}},{"country":"ci","city":"Aotokro","coordinates":{"lat":"7.805796","long":"-5.450995"}},{"country":"ci","city":"Aoua","coordinates":{"lat":"5.793798","long":"-4.812009"}},{"country":"ci","city":"Aouabo","coordinates":{"lat":"6.239584","long":"-3.79218"}},{"country":"ci","city":"Aouaénou","coordinates":{"lat":"7.831726","long":"-5.305785"}},{"country":"ci","city":"Aouakamissi","coordinates":{"lat":"7.44039","long":"-3.550621"}},{"country":"ci","city":"Aouakro","coordinates":{"lat":"6.119872","long":"-4.872376"}},{"country":"ci","city":"Aouakro","coordinates":{"lat":"7.422486","long":"-5.411392"}},{"country":"ci","city":"Aouan","coordinates":{"lat":"7.519447","long":"-3.667476"}},{"country":"ci","city":"Aouaniénou","coordinates":{"lat":"7.831726","long":"-5.305785"}},{"country":"ci","city":"Aouan-Komoénou","coordinates":{"lat":"7.572963","long":"-3.629754"}},{"country":"ci","city":"Aouanou","coordinates":{"lat":"5.894789","long":"-5.157458"}},{"country":"ci","city":"Aouati","coordinates":{"lat":"6.1096","long":"-4.973039"}},{"country":"ci","city":"Aouati","coordinates":{"lat":"5.877439","long":"-5.164584"}},{"country":"ci","city":"Aouchikoua","coordinates":{"lat":"5.60135","long":"-3.938962"}},{"country":"ci","city":"Aoué-Broukro","coordinates":{"lat":"7.370928","long":"-5.219023"}},{"country":"ci","city":"Aoué-Kansi","coordinates":{"lat":"7.367227","long":"-5.212626"}},{"country":"ci","city":"Aoué-Ziziessou","coordinates":{"lat":"7.394891","long":"-5.223961"}},{"country":"ci","city":"Aouinti","coordinates":{"lat":"7.852222","long":"-5.622222"}},{"country":"ci","city":"Aoukoukro","coordinates":{"lat":"5.555885","long":"-3.565018"}},{"country":"ci","city":"Aoukro","coordinates":{"lat":"7.052769","long":"-5.075521"}},{"country":"ci","city":"Aoukro","coordinates":{"lat":"7.25","long":"-3.716667"}},{"country":"ci","city":"Aoukro","coordinates":{"lat":"7.422486","long":"-5.411392"}},