[{"country":"bf","city":"Abanga","coordinates":{"lat":"13.3333333","long":"0.3166667"}},{"country":"bf","city":"Abérékui","coordinates":{"lat":"12.5","long":"-3.4166667"}},{"country":"bf","city":"Abra","coordinates":{"lat":"13.7666667","long":"-1.4833333"}},{"country":"bf","city":"Abra","coordinates":{"lat":"13.1","long":"-1.35"}},{"country":"bf","city":"Absendo","coordinates":{"lat":"12.1166667","long":"-1.7833333"}},{"country":"bf","city":"Absouma","coordinates":{"lat":"12.4258333","long":"-1.4358333"}},{"country":"bf","city":"Absouya","coordinates":{"lat":"12.64","long":"-1.0555556"}},{"country":"bf","city":"Adjan","coordinates":{"lat":"11.7833333","long":"-2.3833333"}},{"country":"bf","city":"Adoudji","coordinates":{"lat":"13.8333333","long":"-0.3666667"}},{"country":"bf","city":"Afini","coordinates":{"lat":"12.35","long":"1.8833333"}},{"country":"bf","city":"Ahkoudèwe","coordinates":{"lat":"12.4833333","long":"1.8166667"}},{"country":"bf","city":"Akoundèl","coordinates":{"lat":"13.95","long":"0.3666667"}},{"country":"bf","city":"Aladiou","coordinates":{"lat":"14.05","long":"-0.9333333"}},{"country":"bf","city":"Alaga","coordinates":{"lat":"13.0166667","long":"-0.95"}},{"country":"bf","city":"Alalé","coordinates":{"lat":"13.7666667","long":"-0.05"}},{"country":"bf","city":"Alalé","coordinates":{"lat":"13.8833333","long":"-1.4333333"}},{"country":"bf","city":"Alamini","coordinates":{"lat":"13.8666667","long":"-1.5666667"}},{"country":"bf","city":"Alamou","coordinates":{"lat":"13.45","long":"-1.1166667"}},{"country":"bf","city":"Alana","coordinates":{"lat":"10.6333333","long":"-5.1"}},{"country":"bf","city":"Alapéra","coordinates":{"lat":"9.7833333","long":"-3.05"}},{"country":"bf","city":"Alfiré","coordinates":{"lat":"13.2166667","long":"-0.6166667"}},{"country":"bf","city":"Aligaga","coordinates":{"lat":"13.7666667","long":"0.4"}},{"country":"bf","city":"Alkoma","coordinates":{"lat":"14.2666667","long":"0.0666667"}},{"country":"bf","city":"Alkousiri","coordinates":{"lat":"13.0333333","long":"0.0"}},{"country":"bf","city":"Almandé","coordinates":{"lat":"13.0166667","long":"0.2333333"}},{"country":"bf","city":"Alobiga","coordinates":{"lat":"11.0","long":"-0.9166667"}},{"country":"bf","city":"Alondi","coordinates":{"lat":"12.6333333","long":"1.4666667"}},{"country":"bf","city":"Alondigwéna","coordinates":{"lat":"12.0333333","long":"0.9333333"}},{"country":"bf","city":"Alora","coordinates":{"lat":"14.0666667","long":"-0.85"}},{"country":"bf","city":"Alouba","coordinates":{"lat":"12.05","long":"0.9666667"}},{"country":"bf","city":"Amdalay","coordinates":{"lat":"14.2333333","long":"-1.95"}},{"country":"bf","city":"Améné","coordinates":{"lat":"13.9833333","long":"-2.55"}},{"country":"bf","city":"Aménékui","coordinates":{"lat":"12.4833333","long":"-3.9833333"}},{"country":"bf","city":"Aminbiri","coordinates":{"lat":"9.9333333","long":"-3.1"}},{"country":"bf","city":"Amvo","coordinates":{"lat":"14.1333333","long":"-0.8666667"}},{"country":"bf","city":"Anaga","coordinates":{"lat":"12.4333333","long":"2.2333333"}},{"country":"bf","city":"Anbarkoura","coordinates":{"lat":"10.0666667","long":"-3.1833333"}},{"country":"bf","city":"Andékanda","coordinates":{"lat":"13.9666667","long":"-2.25"}},{"country":"bf","city":"Andemtenga","coordinates":{"lat":"12.3241667","long":"-0.3091667"}},{"country":"bf","city":"Andem Yarsé","coordinates":{"lat":"12.75","long":"-1.2166667"}},{"country":"bf","city":"Andeulay","coordinates":{"lat":"13.0833333","long":"0.65"}},{"country":"bf","city":"Anékui","coordinates":{"lat":"11.8166667","long":"-3.6833333"}},{"country":"bf","city":"Ankouma","coordinates":{"lat":"13.7333333","long":"-0.75"}},{"country":"bf","city":"Ankouna","coordinates":{"lat":"13.7333333","long":"-0.75"}},{"country":"bf","city":"Ankuna","coordinates":{"lat":"13.7333333","long":"-0.75"}},{"country":"bf","city":"Ansolma","coordinates":{"lat":"13.6833333","long":"-2.1833333"}},{"country":"bf","city":"Ansouara","coordinates":{"lat":"12.9333333","long":"-0.65"}},{"country":"bf","city":"Ansouri","coordinates":{"lat":"13.3166667","long":"-1.7666667"}},{"country":"bf","city":"Antia","coordinates":{"lat":"13.45","long":"-0.0666667"}},{"country":"bf","city":"Antoa","coordinates":{"lat":"12.9166667","long":"-0.9666667"}},{"country":"bf","city":"Antoua","coordinates":{"lat":"12.9166667","long":"-0.9666667"}},{"country":"bf","city":"Aoréama","coordinates":{"lat":"13.6666667","long":"-2.3333333"}},{"country":"bf","city":"Aoura","coordinates":{"lat":"13.15","long":"0.9333333"}},{"country":"bf","city":"Aourèma","coordinates":{"lat":"13.3333333","long":"-3.9166667"}},{"country":"bf","city":"Ara","coordinates":{"lat":"14.3166667","long":"-0.9333333"}},{"country":"bf","city":"Arakora","coordinates":{"lat":"10.2","long":"-3.3333333"}},{"country":"bf","city":"Aranboura","coordinates":{"lat":"10.0333333","long":"-3.1"}},{"country":"bf","city":"Arbèté","coordinates":{"lat":"13.8333333","long":"-2.5833333"}},{"country":"bf","city":"Arbollé","coordinates":{"lat":"12.85","long":"-2.05"}},{"country":"bf","city":"Aribinda","coordinates":{"lat":"14.2325","long":"-0.8663889"}},{"country":"bf","city":"Ariblana","coordinates":{"lat":"10.9166667","long":"-5.0666667"}},{"country":"bf","city":"Arly","coordinates":{"lat":"11.5833333","long":"1.4666667"}},{"country":"bf","city":"Arofo","coordinates":{"lat":"13.1333333","long":"-1.3833333"}},{"country":"bf","city":"Arouesma","coordinates":{"lat":"13.1","long":"-1.2666667"}},{"country":"bf","city":"Assio","coordinates":{"lat":"11.6666667","long":"-3.1333333"}},{"country":"bf","city":"Attoum","coordinates":{"lat":"10.6333333","long":"-2.9833333"}},{"country":"bf","city":"Atyéri","coordinates":{"lat":"12.8833333","long":"0.25"}},{"country":"bf","city":"Atyoungbana","coordinates":{"lat":"12.05","long":"0.9333333"}},{"country":"bf","city":"Avogonia","coordinates":{"lat":"11.0","long":"-1.1333333"}},{"country":"bf","city":"Ayaraba","coordinates":{"lat":"12.8","long":"-1.0666667"}},{"country":"bf","city":"Ayoubakolon","coordinates":{"lat":"12.6333333","long":"-4.0833333"}},{"country":"bf","city":"Aziga","coordinates":{"lat":"11.8666667","long":"-2.3666667"}},{"country":"bf","city":"Bâa","coordinates":{"lat":"12.0833333","long":"-3.2333333"}},{"country":"bf","city":"Bâ","coordinates":{"lat":"11.2833333","long":"-3.9833333"}},{"country":"bf","city":"Ba","coordinates":{"lat":"13.35","long":"-4.0166667"}},{"country":"bf","city":"Babanloua","coordinates":{"lat":"12.0333333","long":"0.5166667"}},{"country":"bf","city":"Babé","coordinates":{"lat":"12.7166667","long":"-1.5"}},{"country":"bf","city":"Babéden","coordinates":{"lat":"12.9166667","long":"-0.4666667"}},{"country":"bf","city":"Babédo","coordinates":{"lat":"11.9833333","long":"-1.5833333"}},{"country":"bf","city":"Babéré","coordinates":{"lat":"12.95","long":"0.0666667"}},{"country":"bf","city":"Babéréké","coordinates":{"lat":"13.15","long":"-1.0333333"}},{"country":"bf","city":"Babié","coordinates":{"lat":"10.6833333","long":"-3.0166667"}},{"country":"bf","city":"Babié","coordinates":{"lat":"10.3166667","long":"-3.9166667"}},{"country":"bf","city":"Babiétéoun","coordinates":{"lat":"9.8166667","long":"-2.75"}},{"country":"bf","city":"Babirka","coordinates":{"lat":"13.8","long":"-0.15"}},{"country":"bf","city":"Babo","coordinates":{"lat":"13.85","long":"-1.9"}},{"country":"bf","city":"Babonga","coordinates":{"lat":"13.1166667","long":"0.6"}},{"country":"bf","city":"Babouadi","coordinates":{"lat":"12.9833333","long":"0.4333333"}},{"country":"bf","city":"Babou","coordinates":{"lat":"12.8833333","long":"-1.5833333"}},{"country":"bf","city":"Baboura","coordinates":{"lat":"10.0666667","long":"-3.85"}},{"country":"bf","city":"Bacibédo","coordinates":{"lat":"11.7333333","long":"-0.1666667"}},{"country":"bf","city":"Bada","coordinates":{"lat":"13.15","long":"0.3833333"}},{"country":"bf","city":"Badabiessan","coordinates":{"lat":"11.05","long":"-0.9333333"}},{"country":"bf","city":"Badala","coordinates":{"lat":"11.3833333","long":"-4.3666667"}},{"country":"bf","city":"Badalougou","coordinates":{"lat":"12.8","long":"-0.2166667"}},{"country":"bf","city":"Badara","coordinates":{"lat":"10.7833333","long":"-3.8166667"}},{"country":"bf","city":"Badara","coordinates":{"lat":"10.4666667","long":"-5.0833333"}},{"country":"bf","city":"Badèdsi","coordinates":{"lat":"12.5","long":"1.6"}},{"country":"bf","city":"Badéma","coordinates":{"lat":"11.1833333","long":"-0.3166667"}},{"country":"bf","city":"Badema","coordinates":{"lat":"11.65","long":"-4.25"}},{"country":"bf","city":"Badéna","coordinates":{"lat":"11.65","long":"-4.25"}},{"country":"bf","city":"Badet","coordinates":{"lat":"10.45","long":"-4.1"}},{"country":"bf","city":"Badiéré","coordinates":{"lat":"11.2","long":"-3.1666667"}},{"country":"bf","city":"Badigna","coordinates":{"lat":"12.3666667","long":"-4.2"}},{"country":"bf","city":"Badinga","coordinates":{"lat":"12.0833333","long":"0.6833333"}},{"country":"bf","city":"Badinga","coordinates":{"lat":"12.3666667","long":"-4.2"}},{"country":"bf","city":"Badinogo","coordinates":{"lat":"13.3333333","long":"-1.6"}},{"country":"bf","city":"Badinogo","coordinates":{"lat":"12.5833333","long":"-0.7"}},{"country":"bf","city":"Badinogou","coordinates":{"lat":"14.0666667","long":"-1.6166667"}},{"country":"bf","city":"Badnogo","coordinates":{"lat":"11.8833333","long":"-1.4166667"}},{"country":"bf","city":"Badnogo","coordinates":{"lat":"12.1333333","long":"-0.5"}},{"country":"bf","city":"Badnogo","coordinates":{"lat":"12.2705556","long":"-1.3661111"}},{"country":"bf","city":"Badnogo","coordinates":{"lat":"13.5833333","long":"-0.8833333"}},{"country":"bf","city":"Badnogo","coordinates":{"lat":"12.9666667","long":"-0.5"}},{"country":"bf","city":"Badnogo I","coordinates":{"lat":"12.4666667","long":"-1.3"}},{"country":"bf","city":"Badnogo II","coordinates":{"lat":"12.2705556","long":"-1.3661111"}},{"country":"bf","city":"Bado","coordinates":{"lat":"11.6333333","long":"-0.45"}},{"country":"bf","city":"Bado","coordinates":{"lat":"12.5","long":"0.6"}},{"country":"bf","city":"Badongo","coordinates":{"lat":"11.1833333","long":"-0.9666667"}},{"country":"bf","city":"Badongo","coordinates":{"lat":"11.1166667","long":"-1.1666667"}},{"country":"bf","city":"Badora","coordinates":{"lat":"10.3","long":"-3.0333333"}},{"country":"bf","city":"Badoré","coordinates":{"lat":"12.9833333","long":"-0.1333333"}},{"country":"bf","city":"Badorio","coordinates":{"lat":"13.7666667","long":"-2.1166667"}},{"country":"bf","city":"Badougou","coordinates":{"lat":"11.1166667","long":"-0.6166667"}},{"country":"bf","city":"Bafèlè","coordinates":{"lat":"14.0666667","long":"0.0333333"}},{"country":"bf","city":"Bafina","coordinates":{"lat":"13.6833333","long":"-0.9833333"}},{"country":"bf","city":"Baforo","coordinates":{"lat":"11.0333333","long":"-3.1"}},{"country":"bf","city":"Bagaben","coordinates":{"lat":"12.1072222","long":"-1.5097222"}},{"country":"bf","city":"Bagaben","coordinates":{"lat":"12.8","long":"-0.8"}},{"country":"bf","city":"Bagadé","coordinates":{"lat":"13.0333333","long":"-0.5333333"}},{"country":"bf","city":"Bagadogo","coordinates":{"lat":"11.9","long":"-1.3666667"}},{"country":"bf","city":"Bagadogo","coordinates":{"lat":"12.8833333","long":"-0.8333333"}},{"country":"bf","city":"Bagadowoégen","coordinates":{"lat":"12.3","long":"-1.8"}},{"country":"bf","city":"Bagahanba","coordinates":{"lat":"12.15","long":"1.8166667"}},{"country":"bf","city":"Bagala","coordinates":{"lat":"12.6","long":"-3.8333333"}},{"country":"bf","city":"Bagammssi","coordinates":{"lat":"11.7833333","long":"-1.1"}},{"country":"bf","city":"Bagamnini","coordinates":{"lat":"12.0141667","long":"-1.55"}},{"country":"bf","city":"Bagandé","coordinates":{"lat":"12.85","long":"-0.35"}},{"country":"bf","city":"Bagané","coordinates":{"lat":"12.0333333","long":"-2.3166667"}},{"country":"bf","city":"Bagané","coordinates":{"lat":"10.9666667","long":"-3.05"}},{"country":"bf","city":"Bagane","coordinates":{"lat":"11.2","long":"-3.1833333"}},{"country":"bf","city":"Bagarao","coordinates":{"lat":"12.2563889","long":"-1.6886111"}},{"country":"bf","city":"Bagaré","coordinates":{"lat":"13.45","long":"-1.4833333"}},{"country":"bf","city":"Bagaré","coordinates":{"lat":"12.9166667","long":"-2.6"}},{"country":"bf","city":"Bagaré","coordinates":{"lat":"13.3","long":"-2.35"}},{"country":"bf","city":"Bagari","coordinates":{"lat":"12.1333333","long":"1.85"}},{"country":"bf","city":"Bagassi","coordinates":{"lat":"11.75","long":"-3.3"}},{"country":"bf","city":"Bagata","coordinates":{"lat":"11.7669444","long":"-1.8497222"}},{"country":"bf","city":"Bagayiri","coordinates":{"lat":"12.4772222","long":"-1.2716667"}},{"country":"bf","city":"Bagbanano","coordinates":{"lat":"10.6833333","long":"-3.15"}},{"country":"bf","city":"Bagbanao","coordinates":{"lat":"10.6833333","long":"-3.15"}},{"country":"bf","city":"Bagbili","coordinates":{"lat":"12.2","long":"-0.6166667"}},{"country":"bf","city":"Bagéou","coordinates":{"lat":"12.2","long":"-2.9"}},{"country":"bf","city":"Bagéré","coordinates":{"lat":"12.5333333","long":"-1.3666667"}},{"country":"bf","city":"Baghélogo","coordinates":{"lat":"13.5833333","long":"-2.3333333"}},{"country":"bf","city":"Bagou","coordinates":{"lat":"12.3166667","long":"0.3666667"}},{"country":"bf","city":"Bagou","coordinates":{"lat":"11.2833333","long":"-2.2333333"}},{"country":"bf","city":"Bagoudé","coordinates":{"lat":"12.85","long":"-0.35"}},{"country":"bf","city":"Bagouédara","coordinates":{"lat":"10.0833333","long":"-3.9166667"}},{"country":"bf","city":"Bagouoko","coordinates":{"lat":"13.4333333","long":"-2.2166667"}},{"country":"bf","city":"Bagouzia","coordinates":{"lat":"11.2833333","long":"-2.1833333"}},{"country":"bf","city":"Bagozougou","coordinates":{"lat":"12.4166667","long":"-2.1666667"}},{"country":"bf","city":"Bagpélogo","coordinates":{"lat":"11.8833333","long":"-1.6333333"}},{"country":"bf","city":"Bagpélogo","coordinates":{"lat":"11.7166667","long":"-1.2166667"}},{"country":"bf","city":"Bagré","coordinates":{"lat":"12.5333333","long":"-1.3666667"}},{"country":"bf","city":"Bagsalogo","coordinates":{"lat":"13.4138889","long":"-1.0558333"}},{"country":"bf","city":"Bagtogodo","coordinates":{"lat":"12.2152778","long":"-1.5683333"}},{"country":"bf","city":"Baguemnini","coordinates":{"lat":"12.0141667","long":"-1.55"}},{"country":"bf","city":"Baguéra","coordinates":{"lat":"10.5333333","long":"-5.4166667"}},{"country":"bf","city":"Baguéré","coordinates":{"lat":"12.5333333","long":"-1.3666667"}},{"country":"bf","city":"Baguiomo","coordinates":{"lat":"12.0666667","long":"-2.55"}},{"country":"bf","city":"Bahamaka","coordinates":{"lat":"13.5166667","long":"-1.6833333"}},{"country":"bf","city":"Baham","coordinates":{"lat":"13.65","long":"0.7"}},{"country":"bf","city":"Bahanéré","coordinates":{"lat":"12.4","long":"-0.25"}},{"country":"bf","city":"Bahara","coordinates":{"lat":"12.7333333","long":"-0.9"}},{"country":"bf","city":"Bahiti","coordinates":{"lat":"11.85","long":"-3.1666667"}},{"country":"bf","city":"Bahniaga","coordinates":{"lat":"13.1166667","long":"-0.1166667"}},{"country":"bf","city":"Bahon","coordinates":{"lat":"11.4833333","long":"-3.7666667"}},{"country":"bf","city":"Bahoun","coordinates":{"lat":"11.4833333","long":"-3.7666667"}},{"country":"bf","city":"Baimbaiga","coordinates":{"lat":"11.1666667","long":"-0.4166667"}},{"country":"bf","city":"Baka","coordinates":{"lat":"12.25","long":"-0.4166667"}},{"country":"bf","city":"Bakara","coordinates":{"lat":"11.2","long":"-3.0166667"}},{"country":"bf","city":"Bakaribotégou","coordinates":{"lat":"11.05","long":"-5.1166667"}},{"country":"bf","city":"Bakaribougou","coordinates":{"lat":"11.05","long":"-5.1166667"}},{"country":"bf","city":"Bakaridougou","coordinates":{"lat":"11.05","long":"-5.1166667"}},{"country":"bf","city":"Bakata","coordinates":{"lat":"11.7669444","long":"-1.8497222"}},{"country":"bf","city":"Bakel","coordinates":{"lat":"10.5833333","long":"-3.2333333"}},{"country":"bf","city":"Bakiensom","coordinates":{"lat":"12.2991667","long":"-1.6125"}},{"country":"bf","city":"Bakina","coordinates":{"lat":"10.6166667","long":"-3.4166667"}},{"country":"bf","city":"Baklouté","coordinates":{"lat":"13.1666667","long":"-0.4"}},{"country":"bf","city":"Bako","coordinates":{"lat":"12.2833333","long":"-0.7166667"}},{"country":"bf","city":"Bako","coordinates":{"lat":"12.75","long":"-1.8666667"}},{"country":"bf","city":"Bakogo","coordinates":{"lat":"11.6","long":"-1.15"}},{"country":"bf","city":"Bakono","coordinates":{"lat":"10.35","long":"-3.1666667"}},{"country":"bf","city":"Bakonorisso","coordinates":{"lat":"11.8833333","long":"-4.2166667"}},{"country":"bf","city":"Bakori","coordinates":{"lat":"10.3","long":"-2.8333333"}},{"country":"bf","city":"Bakotinga","coordinates":{"lat":"11.0666667","long":"-2.7166667"}},{"country":"bf","city":"Bakotou","coordinates":{"lat":"13.2666667","long":"0.5166667"}},{"country":"bf","city":"Bakotourou","coordinates":{"lat":"11.0833333","long":"-2.6333333"}},{"country":"bf","city":"Bakouani","coordinates":{"lat":"11.1333333","long":"-5.2"}},{"country":"bf","city":"Bakou","coordinates":{"lat":"13.3833333","long":"-2.0"}},{"country":"bf","city":"Bakoui","coordinates":{"lat":"13.0166667","long":"-1.6333333"}},{"country":"bf","city":"Bakouléna","coordinates":{"lat":"10.3333333","long":"-3.1"}},{"country":"bf","city":"Bakoumba","coordinates":{"lat":"12.25","long":"-0.65"}},{"country":"bf","city":"Bakoun","coordinates":{"lat":"9.9666667","long":"-2.9"}},{"country":"bf","city":"Bakounbila","coordinates":{"lat":"12.65","long":"-1.25"}},{"country":"bf","city":"Bakouté","coordinates":{"lat":"10.4166667","long":"-4.0166667"}},{"country":"bf","city":"Bakouyo","coordinates":{"lat":"11.3666667","long":"-2.5833333"}},{"country":"bf","city":"Bakpara","coordinates":{"lat":"10.5666667","long":"-3.1666667"}},{"country":"bf","city":"Bala","coordinates":{"lat":"11.5","long":"-4.0833333"}},{"country":"bf","city":"Bala","coordinates":{"lat":"10.1166667","long":"-2.9166667"}},{"country":"bf","city":"Balabéssanko","coordinates":{"lat":"12.0833333","long":"-0.2833333"}},{"country":"bf","city":"Balam","coordinates":{"lat":"11.85","long":"-2.95"}},{"country":"bf","city":"Balambalo","coordinates":{"lat":"12.0947222","long":"-1.5916667"}},{"country":"bf","city":"Balandagou","coordinates":{"lat":"13.9333333","long":"0.1833333"}},{"country":"bf","city":"Balangadi","coordinates":{"lat":"10.9666667","long":"0.55"}},{"country":"bf","city":"Balanti","coordinates":{"lat":"10.3666667","long":"-3.3333333"}},{"country":"bf","city":"Balao","coordinates":{"lat":"11.85","long":"-2.95"}},{"country":"bf","city":"Balavé","coordinates":{"lat":"12.3833333","long":"-4.15"}},{"country":"bf","city":"Balayé","coordinates":{"lat":"12.3833333","long":"-4.15"}},{"country":"bf","city":"Balbara","coordinates":{"lat":"10.5666667","long":"-2.95"}},{"country":"bf","city":"Balbou","coordinates":{"lat":"13.3333333","long":"-1.2666667"}},{"country":"bf","city":"Balé","coordinates":{"lat":"13.3333333","long":"0.1"}},{"country":"bf","city":"Balé","coordinates":{"lat":"13.7","long":"-0.6166667"}},{"country":"bf","city":"Balé","coordinates":{"lat":"13.3833333","long":"0.1333333"}},{"country":"bf","city":"Balégogo","coordinates":{"lat":"10.1833333","long":"-4.0333333"}},{"country":"bf","city":"Balèl","coordinates":{"lat":"13.7333333","long":"-0.2666667"}},{"country":"bf","city":"Balel","coordinates":{"lat":"10.5833333","long":"-3.2333333"}},{"country":"bf","city":"Balèmba","coordinates":{"lat":"13.0666667","long":"0.0"}},{"country":"bf","city":"Balèmyouré","coordinates":{"lat":"12.1","long":"-0.5833333"}},{"country":"bf","city":"Balga","coordinates":{"lat":"12.2166667","long":"0.2"}},{"country":"bf","city":"Balingara","coordinates":{"lat":"10.2166667","long":"-3.15"}},{"country":"bf","city":"Baliniar","coordinates":{"lat":"10.8","long":"-3.2166667"}},{"country":"bf","city":"Balinséra","coordinates":{"lat":"9.85","long":"-3.0166667"}},{"country":"bf","city":"Balkoui","coordinates":{"lat":"12.2997222","long":"-1.4508333"}},{"country":"bf","city":"Balkouin","coordinates":{"lat":"12.2997222","long":"-1.4508333"}},{"country":"bf","city":"Balmen","coordinates":{"lat":"12.1666667","long":"-0.4166667"}},{"country":"bf","city":"Balo","coordinates":{"lat":"12.5152778","long":"-1.9327778"}},{"country":"bf","city":"Balo","coordinates":{"lat":"13.0","long":"-2.3333333"}},{"country":"bf","city":"Balogo","coordinates":{"lat":"11.4166667","long":"-1.5333333"}},{"country":"bf","city":"Baloko","coordinates":{"lat":"11.15","long":"-0.0166667"}},{"country":"bf","city":"Balolé","coordinates":{"lat":"12.2961111","long":"-1.7461111"}},{"country":"bf","city":"Balongé","coordinates":{"lat":"12.0394444","long":"-1.6730556"}},{"country":"bf","city":"Balongen","coordinates":{"lat":"12.05","long":"-1.4972222"}},{"country":"bf","city":"Balongodouo","coordinates":{"lat":"10.2333333","long":"-3.2333333"}},{"country":"bf","city":"Balonguen","coordinates":{"lat":"12.05","long":"-0.2"}},{"country":"bf","city":"Balonguen","coordinates":{"lat":"12.05","long":"-1.4972222"}},{"country":"bf","city":"Balonza","coordinates":{"lat":"13.5333333","long":"-2.5833333"}},{"country":"bf","city":"Baloum","coordinates":{"lat":"11.0333333","long":"-3.1"}},{"country":"bf","city":"Bama","coordinates":{"lat":"13.3666667","long":"-1.5166667"}},{"country":"bf","city":"Bama","coordinates":{"lat":"12.0333333","long":"-4.4"}},{"country":"bf","city":"Bama","coordinates":{"lat":"11.3833333","long":"-4.4166667"}},{"country":"bf","city":"Bama","coordinates":{"lat":"11.0333333","long":"-5.2833333"}},{"country":"bf","city":"Bamako","coordinates":{"lat":"10.9333333","long":"-3.3333333"}},{"country":"bf","city":"Bamako","coordinates":{"lat":"10.55","long":"-4.45"}},{"country":"bf","city":"Bambako","coordinates":{"lat":"10.9333333","long":"-3.3333333"}},{"country":"bf","city":"Bam","coordinates":{"lat":"13.3666667","long":"-1.5166667"}},{"country":"bf","city":"Bambara","coordinates":{"lat":"13.3666667","long":"-2.7833333"}},{"country":"bf","city":"Bambé","coordinates":{"lat":"12.0333333","long":"-4.6166667"}},{"country":"bf","city":"Bambéni","coordinates":{"lat":"13.3333333","long":"0.4"}},{"country":"bf","city":"Bamblé","coordinates":{"lat":"13.6666667","long":"-0.35"}},{"country":"bf","city":"Bambori","coordinates":{"lat":"13.45","long":"0.5"}},{"country":"bf","city":"Bamdékiri","coordinates":{"lat":"13.05","long":"-0.0666667"}},{"country":"bf","city":"Bamena","coordinates":{"lat":"9.8166667","long":"-2.95"}},{"country":"bf","city":"Baména","coordinates":{"lat":"10.4666667","long":"-3.3166667"}},{"country":"bf","city":"Bamga","coordinates":{"lat":"13.8833333","long":"-0.0833333"}},{"country":"bf","city":"Bamgué","coordinates":{"lat":"13.6833333","long":"-0.2"}},{"country":"bf","city":"Bamguèl","coordinates":{"lat":"14.2666667","long":"-0.8"}},{"country":"bf","city":"Bamgueul Ndao","coordinates":{"lat":"14.2","long":"0.35"}},{"country":"bf","city":"Bamguil","coordinates":{"lat":"12.45","long":"1.7833333"}},{"country":"bf","city":"Bamilaré","coordinates":{"lat":"13.2166667","long":"0.1833333"}},{"country":"bf","city":"Bamilari","coordinates":{"lat":"13.2166667","long":"0.1833333"}},{"country":"bf","city":"Bammilari","coordinates":{"lat":"13.2166667","long":"0.1833333"}},{"country":"bf","city":"Bamparou","coordinates":{"lat":"13.4833333","long":"0.6"}},{"country":"bf","city":"Bana","coordinates":{"lat":"13.2333333","long":"0.75"}},{"country":"bf","city":"Bana","coordinates":{"lat":"11.7","long":"-1.0166667"}},{"country":"bf","city":"Bana","coordinates":{"lat":"11.2333333","long":"-4.4666667"}},{"country":"bf","city":"Bana","coordinates":{"lat":"12.6","long":"-3.4833333"}},{"country":"bf","city":"Bana","coordinates":{"lat":"11.9166667","long":"-3.3833333"}},{"country":"bf","city":"Banahari","coordinates":{"lat":"12.5166667","long":"-0.0666667"}},{"country":"bf","city":"Banana","coordinates":{"lat":"13.3333333","long":"-4.05"}},{"country":"bf","city":"Bananba","coordinates":{"lat":"9.8166667","long":"-2.8833333"}},{"country":"bf","city":"Banankélédara","coordinates":{"lat":"11.3166667","long":"-4.3333333"}},{"country":"bf","city":"Banankoro","coordinates":{"lat":"11.1833333","long":"-5.1166667"}},{"country":"bf","city":"Banankoro","coordinates":{"lat":"13.0333333","long":"-3.9666667"}},{"country":"bf","city":"Banaorodougou","coordinates":{"lat":"11.3333333","long":"-4.35"}},{"country":"bf","city":"Banaouradougou","coordinates":{"lat":"11.3333333","long":"-4.35"}},{"country":"bf","city":"Bana Sokoura","coordinates":{"lat":"11.9333333","long":"-3.4"}},{"country":"bf","city":"Ban","coordinates":{"lat":"14.0833333","long":"-2.45"}},{"country":"bf","city":"Ban","coordinates":{"lat":"12.7","long":"-4.35"}},{"country":"bf","city":"Banbéou","coordinates":{"lat":"10.6","long":"-3.15"}},{"country":"bf","city":"Banbigouabri","coordinates":{"lat":"13.4","long":"-0.15"}},{"country":"bf","city":"Banboulo","coordinates":{"lat":"10.65","long":"-3.1166667"}},{"country":"bf","city":"Bandaguéra","coordinates":{"lat":"10.1333333","long":"-3.5"}},{"country":"bf","city":"Bandakélesso","coordinates":{"lat":"9.8333333","long":"-4.3833333"}},{"country":"bf","city":"Bandakoro","coordinates":{"lat":"10.4333333","long":"-4.2833333"}},{"country":"bf","city":"Bandalon","coordinates":{"lat":"12.1166667","long":"-2.6166667"}},{"country":"bf","city":"Banda Napoli","coordinates":{"lat":"12.05","long":"-2.5166667"}},{"country":"bf","city":"Bandania","coordinates":{"lat":"13.9333333","long":"-0.2333333"}},{"country":"bf","city":"Bandatenga","coordinates":{"lat":"12.4613889","long":"-1.635"}},{"country":"bf","city":"Bandatenga Koui","coordinates":{"lat":"12.4613889","long":"-1.635"}},{"country":"bf","city":"Bandé","coordinates":{"lat":"11.4833333","long":"-3.5333333"}},{"country":"bf","city":"Bandéga","coordinates":{"lat":"13.2833333","long":"-1.1833333"}},{"country":"bf","city":"Bandékiri","coordinates":{"lat":"13.05","long":"-0.0666667"}},{"country":"bf","city":"Bandéo-Naponé","coordinates":{"lat":"12.05","long":"-2.5166667"}},{"country":"bf","city":"Bandeo Naporé","coordinates":{"lat":"12.05","long":"-2.5166667"}},{"country":"bf","city":"Bandiédaga","coordinates":{"lat":"13.8833333","long":"0.25"}},{"country":"bf","city":"Bandikirini","coordinates":{"lat":"12.7666667","long":"0.4"}},{"country":"bf","city":"Bandio","coordinates":{"lat":"11.6833333","long":"-3.2666667"}},{"country":"bf","city":"Bandiosi","coordinates":{"lat":"13.3166667","long":"0.7166667"}},{"country":"bf","city":"Bandoué","coordinates":{"lat":"12.0333333","long":"-3.05"}},{"country":"bf","city":"Bandougou","coordinates":{"lat":"10.9666667","long":"-4.8666667"}},{"country":"bf","city":"Bané","coordinates":{"lat":"11.15","long":"-0.5"}},{"country":"bf","city":"Bané","coordinates":{"lat":"14.0833333","long":"-2.45"}},{"country":"bf","city":"Banébira","coordinates":{"lat":"10.4666667","long":"-3.5333333"}},{"country":"bf","city":"Banéga","coordinates":{"lat":"11.7","long":"-2.6"}},{"country":"bf","city":"Banemba","coordinates":{"lat":"9.8166667","long":"-2.8833333"}},{"country":"bf","city":"Banfaré","coordinates":{"lat":"10.95","long":"-2.9833333"}},{"country":"bf","city":"Banfora","coordinates":{"lat":"10.6333333","long":"-4.7666667"}},{"country":"bf","city":"Banfoulagué","coordinates":{"lat":"11.15","long":"-4.7333333"}},{"country":"bf","city":"Banfoutagué","coordinates":{"lat":"11.15","long":"-4.7333333"}},{"country":"bf","city":"Bangaba","coordinates":{"lat":"13.3666667","long":"0.3166667"}},{"country":"bf","city":"Bangabakha","coordinates":{"lat":"13.9833333","long":"-0.4"}},{"country":"bf","city":"Banga","coordinates":{"lat":"13.2","long":"0.8333333"}},{"country":"bf","city":"Banga","coordinates":{"lat":"12.1833333","long":"-3.3"}},{"country":"bf","city":"Bangala","coordinates":{"lat":"13.9333333","long":"-2.2666667"}},{"country":"bf","city":"Bangaré","coordinates":{"lat":"12.85","long":"-0.35"}},{"country":"bf","city":"Bangasoko","coordinates":{"lat":"13.3166667","long":"-2.9"}},{"country":"bf","city":"Bangassago","coordinates":{"lat":"13.3166667","long":"-2.9"}},{"country":"bf","city":"Bangassé","coordinates":{"lat":"13.2","long":"-1.0833333"}},{"country":"bf","city":"Bangassé","coordinates":{"lat":"13.1","long":"-2.6"}},{"country":"bf","city":"Bangassi","coordinates":{"lat":"12.7666667","long":"-4.1833333"}},{"country":"bf","city":"Bangassi","coordinates":{"lat":"11.75","long":"-3.3"}},{"country":"bf","city":"Bangassoko","coordinates":{"lat":"13.3166667","long":"-2.9"}},{"country":"bf","city":"Bangataka","coordinates":{"lat":"13.9833333","long":"-0.4"}},{"country":"bf","city":"Bangay","coordinates":{"lat":"13.0166667","long":"-0.3"}},{"country":"bf","city":"Bangèl","coordinates":{"lat":"13.2666667","long":"0.4166667"}},{"country":"bf","city":"Bangnésomé","coordinates":{"lat":"12.05","long":"-1.95"}},{"country":"bf","city":"Bango","coordinates":{"lat":"13.3166667","long":"-1.5333333"}},{"country":"bf","city":"Bango","coordinates":{"lat":"13.6666667","long":"-2.55"}},{"country":"bf","city":"Bango Mossi","coordinates":{"lat":"13.65","long":"-2.5333333"}},{"country":"bf","city":"Bangozougou","coordinates":{"lat":"12.1666667","long":"-2.4333333"}},{"country":"bf","city":"Bangré","coordinates":{"lat":"12.1538889","long":"-1.3283333"}},{"country":"bf","city":"Bangré","coordinates":{"lat":"13.0","long":"-1.4166667"}},{"country":"bf","city":"Bangrézanga","coordinates":{"lat":"12.25","long":"-0.8166667"}},{"country":"bf","city":"Banguéma","coordinates":{"lat":"12.1605556","long":"-1.6222222"}},{"country":"bf","city":"Banguèmsom","coordinates":{"lat":"12.45","long":"-1.8166667"}},{"country":"bf","city":"Banguessommba","coordinates":{"lat":"13.1333333","long":"-2.2"}},{"country":"bf","city":"Banguiou","coordinates":{"lat":"11.6833333","long":"-3.1666667"}},{"country":"bf","city":"Banguissamé","coordinates":{"lat":"11.7666667","long":"-1.1666667"}},{"country":"bf","city":"Banhassi","coordinates":{"lat":"13.1666667","long":"-3.2833333"}},{"country":"bf","city":"Banh","coordinates":{"lat":"14.0833333","long":"-2.45"}},{"country":"bf","city":"Banhié","coordinates":{"lat":"10.2666667","long":"-2.8833333"}},{"country":"bf","city":"Banhounou","coordinates":{"lat":"10.2666667","long":"-3.9333333"}},{"country":"bf","city":"Baniaba","coordinates":{"lat":"13.3666667","long":"0.7"}},{"country":"bf","city":"Baniara","coordinates":{"lat":"10.2","long":"-3.15"}},{"country":"bf","city":"Bani","coordinates":{"lat":"13.65","long":"-1.5"}},{"country":"bf","city":"Bani","coordinates":{"lat":"13.3666667","long":"-0.2666667"}},{"country":"bf","city":"Bani","coordinates":{"lat":"13.7213889","long":"-0.1722222"}},{"country":"bf","city":"Bani","coordinates":{"lat":"14.0166667","long":"-1.7"}},{"country":"bf","city":"Banidjoari","coordinates":{"lat":"13.4","long":"-0.15"}},{"country":"bf","city":"Banika","coordinates":{"lat":"13.5166667","long":"0.4"}},{"country":"bf","city":"Baniotenga","coordinates":{"lat":"12.8666667","long":"-2.7166667"}},{"country":"bf","city":"Baniou","coordinates":{"lat":"13.0","long":"-2.15"}},{"country":"bf","city":"Banipoulé","coordinates":{"lat":"10.5833333","long":"-2.9666667"}},{"country":"bf","city":"Baniri","coordinates":{"lat":"11.2166667","long":"-3.3666667"}},{"country":"bf","city":"Banizoumbou","coordinates":{"lat":"13.3419444","long":"1.1380556"}},{"country":"bf","city":"Bankandi","coordinates":{"lat":"11.25","long":"-3.0666667"}},{"country":"bf","city":"Bankatatougou","coordinates":{"lat":"12.2833333","long":"1.0666667"}},{"country":"bf","city":"Bankoni","coordinates":{"lat":"11.6333333","long":"-3.7"}},{"country":"bf","city":"Bankoré","coordinates":{"lat":"12.1083333","long":"-1.475"}},{"country":"bf","city":"Bankorosso Gamadou","coordinates":{"lat":"12.3166667","long":"-3.1"}},{"country":"bf","city":"Bankouma","coordinates":{"lat":"11.8833333","long":"-4.2666667"}},{"country":"bf","city":"Bankouma","coordinates":{"lat":"13.25","long":"-4.1833333"}},{"country":"bf","city":"Bankouma","coordinates":{"lat":"11.9166667","long":"-3.5666667"}},{"country":"bf","city":"Bankouman","coordinates":{"lat":"11.9166667","long":"-3.5666667"}},{"country":"bf","city":"Bankoumani","coordinates":{"lat":"12.6166667","long":"-3.9166667"}},{"country":"bf","city":"Bankoura","coordinates":{"lat":"10.1666667","long":"-3.15"}},{"country":"bf","city":"Bankui","coordinates":{"lat":"12.6166667","long":"-3.5666667"}},{"country":"bf","city":"Banlioura","coordinates":{"lat":"11.1833333","long":"-2.1666667"}},{"country":"bf","city":"Banlo","coordinates":{"lat":"10.5833333","long":"-3.2333333"}},{"country":"bf","city":"Banmbé","coordinates":{"lat":"12.0333333","long":"-4.6166667"}},{"country":"bf","city":"Banmbili","coordinates":{"lat":"12.9666667","long":"0.3"}},{"country":"bf","city":"Banmwanou","coordinates":{"lat":"12.3","long":"0.7333333"}},{"country":"bf","city":"Bannho","coordinates":{"lat":"13.0666667","long":"0.0333333"}},{"country":"bf","city":"Bannogo","coordinates":{"lat":"10.6","long":"-4.15"}},{"country":"bf","city":"Bannsyaga","coordinates":{"lat":"13.0166667","long":"0.5"}},{"country":"bf","city":"Banogo","coordinates":{"lat":"12.3038889","long":"-1.5083333"}},{"country":"bf","city":"Banogo","coordinates":{"lat":"10.6","long":"-4.15"}},{"country":"bf","city":"Banon","coordinates":{"lat":"11.1833333","long":"-1.1"}},{"country":"bf","city":"Banoualé","coordinates":{"lat":"11.7666667","long":"-4.2"}},{"country":"bf","city":"Banouban","coordinates":{"lat":"12.3166667","long":"-3.0333333"}},{"country":"bf","city":"Banou","coordinates":{"lat":"11.75","long":"-3.25"}},{"country":"bf","city":"Banou","coordinates":{"lat":"12.1666667","long":"-3.2"}},{"country":"bf","city":"Banou","coordinates":{"lat":"11.7666667","long":"-3.3666667"}},{"country":"bf","city":"Banouila","coordinates":{"lat":"12.9166667","long":"-0.9"}},{"country":"bf","city":"Banoumba","coordinates":{"lat":"12.3166667","long":"-3.0333333"}},{"country":"bf","city":"Banounou","coordinates":{"lat":"12.8166667","long":"-2.0333333"}},{"country":"bf","city":"Banpolé","coordinates":{"lat":"13.35","long":"-0.5666667"}},{"country":"bf","city":"Banpon","coordinates":{"lat":"10.5333333","long":"-2.9666667"}},{"country":"bf","city":"Banpourounga","coordinates":{"lat":"13.4666667","long":"-0.15"}},{"country":"bf","city":"Bansigui","coordinates":{"lat":"13.25","long":"-0.6833333"}},{"country":"bf","city":"Banta","coordinates":{"lat":"9.9833333","long":"-3.5333333"}},{"country":"bf","city":"Bantogodo","coordinates":{"lat":"12.4333333","long":"-1.95"}},{"country":"bf","city":"Bantolé","coordinates":{"lat":"12.4833333","long":"-2.4166667"}},{"country":"bf","city":"Bantouani","coordinates":{"lat":"12.5333333","long":"1.5333333"}},{"country":"bf","city":"Bantougdo","coordinates":{"lat":"12.4333333","long":"-1.95"}},{"country":"bf","city":"Banvar","coordinates":{"lat":"10.95","long":"-2.9833333"}},{"country":"bf","city":"Banzani","coordinates":{"lat":"11.4","long":"-5.2333333"}},{"country":"bf","city":"Banzo","coordinates":{"lat":"11.3166667","long":"-4.8"}},{"country":"bf","city":"Bao","coordinates":{"lat":"13.0","long":"-3.2166667"}},{"country":"bf","city":"Baodogo","coordinates":{"lat":"13.6166667","long":"-2.5"}},{"country":"bf","city":"Baoguen","coordinates":{"lat":"12.2383333","long":"-1.6933333"}},{"country":"bf","city":"Baola","coordinates":{"lat":"13.7333333","long":"-0.7"}},{"country":"bf","city":"Baongué","coordinates":{"lat":"13.7666667","long":"-1.7166667"}},{"country":"bf","city":"Baonoré","coordinates":{"lat":"12.3116667","long":"-1.6111111"}},{"country":"bf","city":"Baoudoumboin","coordinates":{"lat":"13.05","long":"-2.6333333"}},{"country":"bf","city":"Baouèné","coordinates":{"lat":"14.0333333","long":"-2.4166667"}},{"country":"bf","city":"Baougen","coordinates":{"lat":"12.3166667","long":"-2.1666667"}},{"country":"bf","city":"Baougou Poré","coordinates":{"lat":"13.9666667","long":"-0.45"}},{"country":"bf","city":"Baouiga","coordinates":{"lat":"11.6166667","long":"-1.65"}},{"country":"bf","city":"Bapla","coordinates":{"lat":"10.8666667","long":"-3.2666667"}},{"country":"bf","city":"Bara","coordinates":{"lat":"13.2333333","long":"0.75"}},{"country":"bf","city":"Bara","coordinates":{"lat":"12.0833333","long":"-3.2333333"}},{"country":"bf","city":"Bara","coordinates":{"lat":"13.0","long":"-4.25"}},{"country":"bf","city":"Baraboulé","coordinates":{"lat":"14.2080556","long":"-1.8580556"}},{"country":"bf","city":"Barabule","coordinates":{"lat":"14.2080556","long":"-1.8580556"}},{"country":"bf","city":"Baradogo","coordinates":{"lat":"12.3","long":"-1.8"}},{"country":"bf","city":"Barakpéré","coordinates":{"lat":"10.4333333","long":"-3.1833333"}},{"country":"bf","city":"Barakui","coordinates":{"lat":"12.55","long":"-3.6166667"}},{"country":"bf","city":"Barakyemdé Bangari","coordinates":{"lat":"13.6666667","long":"-0.8"}},{"country":"bf","city":"Barakyengo","coordinates":{"lat":"13.4333333","long":"0.9"}},{"country":"bf","city":"Baralé","coordinates":{"lat":"12.8833333","long":"-1.05"}},{"country":"bf","city":"Baraléongo","coordinates":{"lat":"11.9833333","long":"-1.4833333"}},{"country":"bf","city":"Baraliyiri","coordinates":{"lat":"12.0166667","long":"-1.8333333"}},{"country":"bf","city":"Baramini","coordinates":{"lat":"12.0141667","long":"-1.55"}},{"country":"bf","city":"Baramiougou","coordinates":{"lat":"13.55","long":"-1.0666667"}},{"country":"bf","city":"Barana","coordinates":{"lat":"12.0536111","long":"-1.64"}},{"country":"bf","city":"Barané","coordinates":{"lat":"12.1538889","long":"-1.3283333"}},{"country":"bf","city":"Barani","coordinates":{"lat":"13.1666667","long":"-3.8833333"}},{"country":"bf","city":"Barao","coordinates":{"lat":"13.9","long":"-0.6666667"}},{"country":"bf","city":"Baraptenga","coordinates":{"lat":"12.8","long":"-0.6666667"}},{"country":"bf","city":"Barbé","coordinates":{"lat":"12.55","long":"-1.4666667"}},{"country":"bf","city":"Baré","coordinates":{"lat":"11.0833333","long":"-4.1"}},{"country":"bf","city":"Baré","coordinates":{"lat":"12.85","long":"-3.7666667"}},{"country":"bf","city":"Baren","coordinates":{"lat":"12.6","long":"-0.3833333"}},{"country":"bf","city":"Barga","coordinates":{"lat":"13.6166667","long":"-0.7333333"}},{"country":"bf","city":"Barga","coordinates":{"lat":"13.7833333","long":"-2.2666667"}},{"country":"bf","city":"Bargabouga","coordinates":{"lat":"13.65","long":"0.6666667"}},{"country":"bf","city":"Bargaré","coordinates":{"lat":"13.8833333","long":"-0.15"}},{"country":"bf","city":"Barglinsé","coordinates":{"lat":"11.1666667","long":"-0.5166667"}},{"country":"bf","city":"Bargo","coordinates":{"lat":"13.4166667","long":"-1.5"}},{"country":"bf","city":"Bargo","coordinates":{"lat":"12.7333333","long":"-2.05"}},{"country":"bf","city":"Bargo","coordinates":{"lat":"14.15","long":"-2.1666667"}},{"country":"bf","city":"Bariba","coordinates":{"lat":"12.4833333","long":"-2.05"}},{"country":"bf","city":"Bari","coordinates":{"lat":"12.2833333","long":"1.4666667"}},{"country":"bf","city":"Bari","coordinates":{"lat":"11.0833333","long":"-4.1"}},{"country":"bf","city":"Bariboi","coordinates":{"lat":"12.4833333","long":"-2.05"}},{"country":"bf","city":"Baribsi","coordinates":{"lat":"13.3333333","long":"-1.7166667"}},{"country":"bf","city":"Baribsi","coordinates":{"lat":"12.4833333","long":"-2.05"}},{"country":"bf","city":"Baribsi","coordinates":{"lat":"12.85","long":"-2.45"}},{"country":"bf","city":"Bariéra","coordinates":{"lat":"10.4833333","long":"-3.1"}},{"country":"bf","city":"Barihiri","coordinates":{"lat":"12.55","long":"-1.4666667"}},{"country":"bf","city":"Baringira","coordinates":{"lat":"10.4333333","long":"-3.0166667"}},{"country":"bf","city":"Baringuira","coordinates":{"lat":"10.4333333","long":"-3.0166667"}},{"country":"bf","city":"Barkana","coordinates":{"lat":"13.6333333","long":"-1.7"}},{"country":"bf","city":"Barkéa","coordinates":{"lat":"14.0333333","long":"-0.1666667"}},{"country":"bf","city":"Barkoui","coordinates":{"lat":"12.55","long":"-3.6166667"}},{"country":"bf","city":"Barkoundouba","coordinates":{"lat":"12.6683333","long":"-1.2338889"}},{"country":"bf","city":"Barkoura","coordinates":{"lat":"10.3833333","long":"-3.35"}},{"country":"bf","city":"Barkuy","coordinates":{"lat":"12.55","long":"-3.6166667"}},{"country":"bf","city":"Barkwitenga","coordinates":{"lat":"12.6330556","long":"-1.3166667"}},{"country":"bf","city":"Barla","coordinates":{"lat":"12.6833333","long":"-2.5166667"}},{"country":"bf","city":"Barlara","coordinates":{"lat":"13.3","long":"-0.85"}},{"country":"bf","city":"Barlé","coordinates":{"lat":"13.3","long":"-1.7166667"}},{"country":"bf","city":"Barlé","coordinates":{"lat":"13.1333333","long":"-0.8"}},{"country":"bf","city":"Barlé","coordinates":{"lat":"12.55","long":"-0.5166667"}},{"country":"bf","city":"Barlé","coordinates":{"lat":"13.1166667","long":"-1.0666667"}},{"country":"bf","city":"Barma","coordinates":{"lat":"12.4941667","long":"-1.7388889"}},{"country":"bf","city":"Barma","coordinates":{"lat":"13.2333333","long":"-2.05"}},{"country":"bf","city":"Barnoro","coordinates":{"lat":"12.25","long":"-0.1166667"}},{"country":"bf","city":"Baro","coordinates":{"lat":"10.5166667","long":"-3.2333333"}},{"country":"bf","city":"Barogo","coordinates":{"lat":"12.4172222","long":"-1.4044444"}},{"country":"bf","city":"Barogo","coordinates":{"lat":"12.55","long":"-0.9666667"}},{"country":"bf","city":"Barolé","coordinates":{"lat":"12.6144444","long":"-1.3491667"}},{"country":"bf","city":"Barsa","coordinates":{"lat":"13.1","long":"-1.6333333"}},{"country":"bf","city":"Barsabologo","coordinates":{"lat":"13.1","long":"-1.8833333"}},{"country":"bf","city":"Barsalgo","coordinates":{"lat":"13.4138889","long":"-1.0558333"}},{"country":"bf","city":"Barsalogho","coordinates":{"lat":"13.4138889","long":"-1.0558333"}},{"country":"bf","city":"Barsalogo","coordinates":{"lat":"13.4138889","long":"-1.0558333"}},{"country":"bf","city":"Barssé","coordinates":{"lat":"11.6166667","long":"-1.2666667"}},{"country":"bf","city":"Bartenga","coordinates":{"lat":"12.7833333","long":"-1.3833333"}},{"country":"bf","city":"Bartera","coordinates":{"lat":"10.2833333","long":"-3.4333333"}},{"country":"bf","city":"Bartibogou","coordinates":{"lat":"12.8833333","long":"0.8"}},{"country":"bf","city":"Bartibogu","coordinates":{"lat":"12.8833333","long":"0.8"}},{"country":"bf","city":"Bartibougou","coordinates":{"lat":"12.8666667","long":"0.8"}},{"country":"bf","city":"Bartorogo","coordinates":{"lat":"11.8666667","long":"-1.5166667"}},{"country":"bf","city":"Bartyaga","coordinates":{"lat":"12.4166667","long":"1.75"}},{"country":"bf","city":"Baryou","coordinates":{"lat":"12.2333333","long":"-0.4333333"}},{"country":"bf","city":"Basabéga","coordinates":{"lat":"12.2166667","long":"0.1333333"}},{"country":"bf","city":"Basambougou","coordinates":{"lat":"12.2666667","long":"0.1"}},{"country":"bf","city":"Basanam","coordinates":{"lat":"12.85","long":"-2.8"}},{"country":"bf","city":"Basantenga","coordinates":{"lat":"12.85","long":"-2.55"}},{"country":"bf","city":"Basbèdo","coordinates":{"lat":"12.7666667","long":"-2.3333333"}},{"country":"bf","city":"Basbédo","coordinates":{"lat":"11.55","long":"-1.0166667"}},{"country":"bf","city":"Basbyédo","coordinates":{"lat":"12.6166667","long":"-1.15"}},{"country":"bf","city":"Basci","coordinates":{"lat":"13.3333333","long":"-2.2333333"}},{"country":"bf","city":"Basémyan","coordinates":{"lat":"12.2077778","long":"-1.5391667"}},{"country":"bf","city":"Basémy","coordinates":{"lat":"12.2077778","long":"-1.5391667"}},{"country":"bf","city":"Basèotenga","coordinates":{"lat":"12.8833333","long":"-2.75"}},{"country":"bf","city":"Basgana","coordinates":{"lat":"11.6166667","long":"-1.1"}},{"country":"bf","city":"Basibedo","coordinates":{"lat":"11.7333333","long":"-0.1666667"}},{"country":"bf","city":"Basiéi","coordinates":{"lat":"12.8666667","long":"0.35"}},{"country":"bf","city":"Basinènè","coordinates":{"lat":"12.8166667","long":"-2.7833333"}},{"country":"bf","city":"Basinga","coordinates":{"lat":"12.6","long":"-2.4166667"}},{"country":"bf","city":"Baskondo","coordinates":{"lat":"13.4333333","long":"-1.3166667"}},{"country":"bf","city":"Baskorma","coordinates":{"lat":"13.1666667","long":"-2.2166667"}},{"country":"bf","city":"Baskouda","coordinates":{"lat":"13.3166667","long":"-1.9333333"}},{"country":"bf","city":"Baskoudré","coordinates":{"lat":"12.2519444","long":"-1.5325"}},{"country":"bf","city":"Baskoudré","coordinates":{"lat":"12.7666667","long":"-1.05"}},{"country":"bf","city":"Baskounda","coordinates":{"lat":"13.1333333","long":"-1.35"}},{"country":"bf","city":"Baskouré","coordinates":{"lat":"12.2166667","long":"-0.3166667"}},{"country":"bf","city":"Baskouré","coordinates":{"lat":"12.1611111","long":"-0.2672222"}},{"country":"bf","city":"Basma","coordinates":{"lat":"12.8833333","long":"-1.55"}},{"country":"bf","city":"Basnéré","coordinates":{"lat":"13.1333333","long":"-1.4166667"}},{"country":"bf","city":"Basnéré","coordinates":{"lat":"12.4338889","long":"-1.4477778"}},{"country":"bf","city":"Basnéré","coordinates":{"lat":"13.6","long":"-0.8833333"}},{"country":"bf","city":"Basora","coordinates":{"lat":"11.7166667","long":"-4.0833333"}},{"country":"bf","city":"Bassana","coordinates":{"lat":"11.9166667","long":"-3.3333333"}},{"country":"bf","city":"Bassan","coordinates":{"lat":"11.3","long":"-1.4"}},{"country":"bf","city":"Bassan","coordinates":{"lat":"13.0833333","long":"-3.1666667"}},{"country":"bf","city":"Bassanga","coordinates":{"lat":"13.55","long":"-2.1"}},{"country":"bf","city":"Bassangoro","coordinates":{"lat":"10.4","long":"-5.3333333"}},{"country":"bf","city":"Bassawarga","coordinates":{"lat":"11.7166667","long":"-1.7"}},{"country":"bf","city":"Bassawassa","coordinates":{"lat":"13.6333333","long":"-2.5"}},{"country":"bf","city":"Bassé","coordinates":{"lat":"13.7166667","long":"-1.65"}},{"country":"bf","city":"Bassébétanga","coordinates":{"lat":"13.0333333","long":"-2.7166667"}},{"country":"bf","city":"Basséko","coordinates":{"lat":"12.3863889","long":"-1.6330556"}},{"country":"bf","city":"Basséloko","coordinates":{"lat":"11.5166667","long":"-0.95"}},{"country":"bf","city":"Bassema","coordinates":{"lat":"13.25","long":"-1.0833333"}},{"country":"bf","city":"Bassénéré","coordinates":{"lat":"13.65","long":"-2.3166667"}},{"country":"bf","city":"Basséra","coordinates":{"lat":"10.7666667","long":"-3.4166667"}},{"country":"bf","city":"Bassia","coordinates":{"lat":"13.6","long":"-0.8166667"}},{"country":"bf","city":"Bassiam","coordinates":{"lat":"12.2077778","long":"-1.5391667"}},{"country":"bf","city":"Bassi","coordinates":{"lat":"13.3333333","long":"-2.2333333"}},{"country":"bf","city":"Bassibédo","coordinates":{"lat":"11.7333333","long":"-0.1666667"}},{"country":"bf","city":"Bassinan","coordinates":{"lat":"13.1833333","long":"-2.3833333"}},{"country":"bf","city":"Bassinsa","coordinates":{"lat":"11.1833333","long":"-2.2833333"}},{"country":"bf","city":"Bassiri","coordinates":{"lat":"12.8666667","long":"0.35"}},{"country":"bf","city":"Bassiyam","coordinates":{"lat":"12.2077778","long":"-1.5391667"}},{"country":"bf","city":"Bassomen","coordinates":{"lat":"12.485","long":"-1.2961111"}},{"country":"bf","city":"Bassomkoukouri","coordinates":{"lat":"12.6333333","long":"-0.6333333"}},{"country":"bf","city":"Basson","coordinates":{"lat":"11.8833333","long":"-3.3333333"}},{"country":"bf","city":"Basszéïdo","coordinates":{"lat":"13.3","long":"-2.3833333"}},{"country":"bf","city":"Bastioua","coordinates":{"lat":"12.7333333","long":"-2.5166667"}},{"country":"bf","city":"Basziri","coordinates":{"lat":"12.1997222","long":"-1.8636111"}},{"country":"bf","city":"Basziri","coordinates":{"lat":"12.65","long":"-2.2166667"}},{"country":"bf","city":"Batabogou","coordinates":{"lat":"13.6333333","long":"0.2833333"}},{"country":"bf","city":"Batagné","coordinates":{"lat":"12.5166667","long":"1.7333333"}},{"country":"bf","city":"Batakolo","coordinates":{"lat":"12.15","long":"-2.5666667"}},{"country":"bf","city":"Batanga","coordinates":{"lat":"13.4666667","long":"-1.5166667"}},{"country":"bf","city":"Batenga","coordinates":{"lat":"12.6666667","long":"-1.0666667"}},{"country":"bf","city":"Batiara","coordinates":{"lat":"11.2","long":"-2.9666667"}},{"country":"bf","city":"Batibogou","coordinates":{"lat":"13.0333333","long":"0.8333333"}},{"country":"bf","city":"Batié","coordinates":{"lat":"9.8833333","long":"-2.9166667"}},{"country":"bf","city":"Batié Blé","coordinates":{"lat":"10.3333333","long":"-2.95"}},{"country":"bf","city":"Batiélé","coordinates":{"lat":"11.1166667","long":"-3.1666667"}},{"country":"bf","city":"Batiéni","coordinates":{"lat":"11.3666667","long":"-3.25"}},{"country":"bf","city":"Batié Nord","coordinates":{"lat":"10.4","long":"-2.8833333"}},{"country":"bf","city":"Bâtinga","coordinates":{"lat":"11.9","long":"-1.45"}},{"country":"bf","city":"Batiti","coordinates":{"lat":"11.85","long":"-3.1666667"}},{"country":"bf","city":"Batiyiri","coordinates":{"lat":"12.05","long":"-2.1833333"}},{"country":"bf","city":"Bato","coordinates":{"lat":"11.7666667","long":"-2.2833333"}},{"country":"bf","city":"Batondo","coordinates":{"lat":"12.1166667","long":"-2.5833333"}},{"country":"bf","city":"Batono","coordinates":{"lat":"12.7333333","long":"-2.4166667"}},{"country":"bf","city":"Battili","coordinates":{"lat":"11.85","long":"-3.1666667"}},{"country":"bf","city":"Batyèmina","coordinates":{"lat":"13.1333333","long":"0.3333333"}},{"country":"bf","city":"Bauiga","coordinates":{"lat":"11.6166667","long":"-1.65"}},{"country":"bf","city":"Baviguékaha","coordinates":{"lat":"10.4333333","long":"-5.3"}},{"country":"bf","city":"Bavilè","coordinates":{"lat":"12.1","long":"-2.6833333"}},{"country":"bf","city":"Bawango","coordinates":{"lat":"12.9333333","long":"-0.65"}},{"country":"bf","city":"Bayalo","coordinates":{"lat":"12.3666667","long":"-2.5166667"}},{"country":"bf","city":"Bayalongo","coordinates":{"lat":"12.8","long":"-2.3666667"}},{"country":"bf","city":"Ba Yangasso","coordinates":{"lat":"12.0333333","long":"-3.2833333"}},{"country":"bf","city":"Bayé","coordinates":{"lat":"12.0666667","long":"-4.0833333"}},{"country":"bf","city":"Bayeldo","coordinates":{"lat":"9.7666667","long":"-3.0333333"}},{"country":"bf","city":"Bayendé Foulgo","coordinates":{"lat":"13.4166667","long":"-1.4833333"}},{"country":"bf","city":"Bayiri","coordinates":{"lat":"12.0166667","long":"-1.8833333"}},{"country":"bf","city":"Bazan","coordinates":{"lat":"12.2666667","long":"-2.0666667"}},{"country":"bf","city":"Bazanfaré","coordinates":{"lat":"11.4","long":"-1.95"}},{"country":"bf","city":"Bazanforé","coordinates":{"lat":"11.4","long":"-1.95"}},{"country":"bf","city":"Bazanwara","coordinates":{"lat":"11.4","long":"-1.95"}},{"country":"bf","city":"Bazilakoa","coordinates":{"lat":"11.8","long":"-2.1333333"}},{"country":"bf","city":"Bazoulé","coordinates":{"lat":"12.3166667","long":"-1.7077778"}},{"country":"bf","city":"Béanna","coordinates":{"lat":"11.8","long":"-0.0833333"}},{"country":"bf","city":"Bébatenga","coordinates":{"lat":"12.1380556","long":"-1.3197222"}},{"country":"bf","city":"Bebda","coordinates":{"lat":"9.9666667","long":"-3.05"}},{"country":"bf","city":"Bébéré","coordinates":{"lat":"13.4333333","long":"-1.1"}},{"country":"bf","city":"Béboula","coordinates":{"lat":"9.9333333","long":"-3.1"}},{"country":"bf","city":"Bèbtenga","coordinates":{"lat":"12.1380556","long":"-1.3197222"}},{"country":"bf","city":"Béchikopérou","coordinates":{"lat":"12.45","long":"-2.7166667"}},{"country":"bf","city":"Bédari","coordinates":{"lat":"11.3","long":"-1.2833333"}},{"country":"bf","city":"Bédougou","coordinates":{"lat":"10.4666667","long":"-5.45"}},{"country":"bf","city":"Bédyamé","coordinates":{"lat":"12.2166667","long":"-0.8666667"}},{"country":"bf","city":"Bèfasin","coordinates":{"lat":"13.7333333","long":"0.3166667"}},{"country":"bf","city":"Bèfassi","coordinates":{"lat":"13.0833333","long":"0.2666667"}},{"country":"bf","city":"Béfoara","coordinates":{"lat":"12.9166667","long":"-0.05"}},{"country":"bf","city":"Béga","coordinates":{"lat":"11.06","long":"-1.8213889"}},{"country":"bf","city":"Begeuntiga","coordinates":{"lat":"13.1166667","long":"-1.4166667"}},{"country":"bf","city":"Bégouabéna","coordinates":{"lat":"11.8","long":"-0.3833333"}},{"country":"bf","city":"Béguédo","coordinates":{"lat":"11.7808333","long":"-0.7338889"}},{"country":"bf","city":"Béguèmtigué","coordinates":{"lat":"14.0666667","long":"-2.2"}},{"country":"bf","city":"Béguentigué","coordinates":{"lat":"12.4666667","long":"-1.5497222"}},{"country":"bf","city":"Bégueumdré","coordinates":{"lat":"13.3166667","long":"-1.35"}},{"country":"bf","city":"Béguintigui","coordinates":{"lat":"14.0","long":"-0.0833333"}},{"country":"bf","city":"Bèiga","coordinates":{"lat":"14.5666667","long":"-0.15"}},{"country":"bf","city":"Béka","coordinates":{"lat":"11.1911111","long":"-0.5877778"}},{"country":"bf","city":"Béko","coordinates":{"lat":"12.7166667","long":"-0.4"}},{"country":"bf","city":"Békoura","coordinates":{"lat":"10.3166667","long":"-3.5166667"}},{"country":"bf","city":"Békui","coordinates":{"lat":"12.1333333","long":"-3.65"}},{"country":"bf","city":"Békui","coordinates":{"lat":"11.6333333","long":"-3.8833333"}},{"country":"bf","city":"Békuy","coordinates":{"lat":"11.6333333","long":"-3.8833333"}},{"country":"bf","city":"Béla","coordinates":{"lat":"12.5833333","long":"-2.0333333"}},{"country":"bf","city":"Bélagaré","coordinates":{"lat":"12.0361111","long":"-1.3736111"}},{"country":"bf","city":"Bélaherla","coordinates":{"lat":"11.1166667","long":"-0.3666667"}},{"country":"bf","city":"Bélarkaré","coordinates":{"lat":"10.7166667","long":"-2.9666667"}},{"country":"bf","city":"Bélé","coordinates":{"lat":"12.8333333","long":"-1.6333333"}},{"country":"bf","city":"Bélé","coordinates":{"lat":"13.05","long":"-1.65"}},{"country":"bf","city":"Bélé","coordinates":{"lat":"10.65","long":"-2.9833333"}},{"country":"bf","city":"Bélégré","coordinates":{"lat":"12.0361111","long":"-1.3736111"}},{"country":"bf","city":"Béléguenga","coordinates":{"lat":"13.85","long":"-1.1166667"}},{"country":"bf","city":"Béléhédé","coordinates":{"lat":"14.0833333","long":"-1.2833333"}},{"country":"bf","city":"Bélékédé","coordinates":{"lat":"14.0833333","long":"-1.2833333"}},{"country":"bf","city":"Bélèl","coordinates":{"lat":"14.3666667","long":"-0.3833333"}},{"country":"bf","city":"Bèlèl","coordinates":{"lat":"12.4166667","long":"1.5166667"}},{"country":"bf","city":"Bélembaoguen","coordinates":{"lat":"12.1333333","long":"-0.0666667"}},{"country":"bf","city":"Bélèmbouliguen","coordinates":{"lat":"12.15","long":"-0.0666667"}},{"country":"bf","city":"Belga","coordinates":{"lat":"12.8833333","long":"-0.4833333"}},{"country":"bf","city":"Bèlgo","coordinates":{"lat":"13.75","long":"-0.5666667"}},{"country":"bf","city":"Bélgou","coordinates":{"lat":"14.3","long":"0.1333333"}},{"country":"bf","city":"Bélinga","coordinates":{"lat":"13.4166667","long":"-2.3666667"}},{"country":"bf","city":"Bélinkora","coordinates":{"lat":"10.4333333","long":"-3.25"}},{"country":"bf","city":"Béllapoum","coordinates":{"lat":"12.6666667","long":"-2.5166667"}},{"country":"bf","city":"Bellara","coordinates":{"lat":"12.8833333","long":"-0.4833333"}},{"country":"bf","city":"Bèllaré","coordinates":{"lat":"13.9666667","long":"0.0166667"}},{"country":"bf","city":"Bellaré Maga","coordinates":{"lat":"13.9666667","long":"-0.0166667"}},{"country":"bf","city":"Bellaré Malbo","coordinates":{"lat":"13.8833333","long":"-0.1833333"}},{"country":"bf","city":"Bélo","coordinates":{"lat":"12.5152778","long":"-1.9327778"}},{"country":"bf","city":"Bélogo","coordinates":{"lat":"13.75","long":"-0.5666667"}},{"country":"bf","city":"Bèlsa Kouy","coordinates":{"lat":"14.0833333","long":"-1.2666667"}},{"country":"bf","city":"Béma","coordinates":{"lat":"13.1166667","long":"-2.0333333"}},{"country":"bf","city":"Bème","coordinates":{"lat":"13.5666667","long":"-2.5166667"}},{"country":"bf","city":"Bemkoudougou","coordinates":{"lat":"13.0666667","long":"-2.0333333"}},{"country":"bf","city":"Béna","coordinates":{"lat":"12.0666667","long":"-4.1833333"}},{"country":"bf","city":"Bénanso","coordinates":{"lat":"12.35","long":"-2.4666667"}},{"country":"bf","city":"Bénatenga","coordinates":{"lat":"11.8166667","long":"-0.3833333"}},{"country":"bf","city":"Bénavéro","coordinates":{"lat":"11.0666667","long":"-2.1666667"}},{"country":"bf","city":"Ben","coordinates":{"lat":"12.7","long":"-4.35"}},{"country":"bf","city":"Bèndogo","coordinates":{"lat":"13.0833333","long":"-1.5333333"}},{"country":"bf","city":"Bendogo","coordinates":{"lat":"12.3927778","long":"-1.4544444"}},{"country":"bf","city":"Bèndogo","coordinates":{"lat":"13.0833333","long":"-1.7333333"}},{"country":"bf","city":"Bèndogo","coordinates":{"lat":"13.05","long":"-1.2333333"}},{"country":"bf","city":"Bendorko","coordinates":{"lat":"12.05","long":"-2.0166667"}},{"country":"bf","city":"Bendougou","coordinates":{"lat":"12.4666667","long":"-3.6"}},{"country":"bf","city":"Bèné","coordinates":{"lat":"13.7166667","long":"-2.3166667"}},{"country":"bf","city":"Bénéga","coordinates":{"lat":"11.7","long":"-2.6"}},{"country":"bf","city":"Bénéré","coordinates":{"lat":"14.1333333","long":"-0.9666667"}},{"country":"bf","city":"Bengré","coordinates":{"lat":"12.1333333","long":"-0.65"}},{"country":"bf","city":"Benguéden","coordinates":{"lat":"12.5166667","long":"-0.3833333"}},{"country":"bf","city":"Bènh","coordinates":{"lat":"13.8","long":"-2.7166667"}},{"country":"bf","city":"Béni","coordinates":{"lat":"11.1666667","long":"-2.9333333"}},{"country":"bf","city":"Beniéné","coordinates":{"lat":"11.9166667","long":"-1.95"}},{"country":"bf","city":"Bénié Tanga","coordinates":{"lat":"13.75","long":"-2.6833333"}},{"country":"bf","city":"Béninséra","coordinates":{"lat":"9.8166667","long":"-3.05"}},{"country":"bf","city":"Béniou","coordinates":{"lat":"11.3166667","long":"-1.95"}},{"country":"bf","city":"Bennsé","coordinates":{"lat":"13.1","long":"-1.9666667"}},{"country":"bf","city":"Bénogo","coordinates":{"lat":"12.5166667","long":"-1.45"}},{"country":"bf","city":"Benourougou","coordinates":{"lat":"12.3833333","long":"0.4833333"}},{"country":"bf","city":"Benté","coordinates":{"lat":"10.75","long":"-3.6"}},{"country":"bf","city":"Benurugu","coordinates":{"lat":"12.3833333","long":"0.4833333"}},{"country":"bf","city":"Béongourgou","coordinates":{"lat":"12.3833333","long":"0.4833333"}},{"country":"bf","city":"Bèotenga","coordinates":{"lat":"13.05","long":"-1.0833333"}},{"country":"bf","city":"Béquélé","coordinates":{"lat":"10.6","long":"-3.7333333"}},{"country":"bf","city":"Béra","coordinates":{"lat":"12.0666667","long":"-4.1833333"}},{"country":"bf","city":"Béranga","coordinates":{"lat":"13.1166667","long":"-2.1333333"}},{"country":"bf","city":"Béréba","coordinates":{"lat":"11.6333333","long":"-3.6833333"}},{"country":"bf","city":"Béré","coordinates":{"lat":"11.8333333","long":"-1.15"}},{"country":"bf","city":"Bérégadougou","coordinates":{"lat":"10.7666667","long":"-4.75"}},{"country":"bf","city":"Bèrèkwè","coordinates":{"lat":"13.1666667","long":"-4.15"}},{"country":"bf","city":"Bérénkui","coordinates":{"lat":"12.4666667","long":"-3.8333333"}},{"country":"bf","city":"Beringa","coordinates":{"lat":"13.1166667","long":"-2.1333333"}},{"country":"bf","city":"Berma","coordinates":{"lat":"13.3333333","long":"-3.8333333"}},{"country":"bf","city":"Berni","coordinates":{"lat":"13.3333333","long":"-3.8333333"}},{"country":"bf","city":"Bérsaga","coordinates":{"lat":"12.0166667","long":"0.55"}},{"country":"bf","city":"Bésetenga","coordinates":{"lat":"12.7333333","long":"-2.7333333"}},{"country":"bf","city":"Bèstigré","coordinates":{"lat":"12.2","long":"-0.5333333"}},{"country":"bf","city":"Béta","coordinates":{"lat":"12.6533333","long":"-1.1072222"}},{"country":"bf","city":"Bétaré","coordinates":{"lat":"11.4333333","long":"-1.3666667"}},{"country":"bf","city":"Bétiessan","coordinates":{"lat":"11.0666667","long":"-1.9166667"}},{"country":"bf","city":"Béto","coordinates":{"lat":"11.7666667","long":"-2.2833333"}},{"country":"bf","city":"Beun","coordinates":{"lat":"11.2666667","long":"-2.2666667"}},{"country":"bf","city":"Beune","coordinates":{"lat":"11.2666667","long":"-2.2666667"}},{"country":"bf","city":"Bèybèy","coordinates":{"lat":"13.9666667","long":"-0.05"}},{"country":"bf","city":"Béyoura","coordinates":{"lat":"11.6833333","long":"-1.85"}},{"country":"bf","city":"Bezena","coordinates":{"lat":"11.3333333","long":"-2.6666667"}},{"country":"bf","city":"Bial","coordinates":{"lat":"12.0333333","long":"-4.3666667"}},{"country":"bf","city":"Biassaga","coordinates":{"lat":"12.0","long":"-4.3"}},{"country":"bf","city":"Biba","coordinates":{"lat":"12.8166667","long":"-2.9666667"}},{"country":"bf","city":"Bibgou","coordinates":{"lat":"12.6","long":"0.35"}},{"country":"bf","city":"Bibiou","coordinates":{"lat":"12.9","long":"-2.5333333"}},{"country":"bf","city":"Biboum","coordinates":{"lat":"11.7","long":"-3.5833333"}},{"country":"bf","city":"Bida","coordinates":{"lat":"13.1666667","long":"-4.0833333"}},{"country":"bf","city":"Bida","coordinates":{"lat":"12.8166667","long":"-2.9666667"}},{"country":"bf","city":"Biddi","coordinates":{"lat":"14.2","long":"-0.3333333"}},{"country":"bf","city":"Bidibawoye","coordinates":{"lat":"13.9333333","long":"-2.5"}},{"country":"bf","city":"Bidi","coordinates":{"lat":"14.2","long":"-0.3333333"}},{"country":"bf","city":"Bidi","coordinates":{"lat":"14.1","long":"-2.5"}},{"country":"bf","city":"Bidi","coordinates":{"lat":"13.9166667","long":"-2.4833333"}},{"country":"bf","city":"Bidiga","coordinates":{"lat":"11.8","long":"-0.5166667"}},{"country":"bf","city":"Bidougou","coordinates":{"lat":"12.5333333","long":"-1.6666667"}},{"country":"bf","city":"Biédogo","coordinates":{"lat":"11.8833333","long":"-1.4666667"}},{"country":"bf","city":"Biéha","coordinates":{"lat":"11.06","long":"-1.8213889"}},{"country":"bf","city":"Bielfadouo","coordinates":{"lat":"10.0333333","long":"-3.2"}},{"country":"bf","city":"Bielméra","coordinates":{"lat":"9.9833333","long":"-3.1166667"}},{"country":"bf","city":"Biéna","coordinates":{"lat":"12.85","long":"-2.9666667"}},{"country":"bf","city":"Biengane","coordinates":{"lat":"11.05","long":"-2.8666667"}},{"country":"bf","city":"Biforo","coordinates":{"lat":"11.9166667","long":"-3.1333333"}},{"country":"bf","city":"Bigué","coordinates":{"lat":"13.8166667","long":"-0.9166667"}},{"country":"bf","city":"Biguissi","coordinates":{"lat":"12.95","long":"-1.1333333"}},{"country":"bf","city":"Bihoun","coordinates":{"lat":"11.7","long":"-3.5833333"}},{"country":"bf","city":"Bika","coordinates":{"lat":"12.3208333","long":"-1.5836111"}},{"country":"bf","city":"Bikatawa","coordinates":{"lat":"13.45","long":"-1.3166667"}},{"country":"bf","city":"Bilakoka","coordinates":{"lat":"13.8666667","long":"-0.4166667"}},{"country":"bf","city":"Bilakongo","coordinates":{"lat":"12.1666667","long":"-3.15"}},{"country":"bf","city":"Bilambyoubilé","coordinates":{"lat":"12.2","long":"-0.0666667"}},{"country":"bf","city":"Bilanbar","coordinates":{"lat":"11.0833333","long":"-2.9833333"}},{"country":"bf","city":"Bilanga","coordinates":{"lat":"12.5477778","long":"-0.0361111"}},{"country":"bf","city":"Bilanga Yanga","coordinates":{"lat":"12.45","long":"-0.1"}},{"country":"bf","city":"Bilanguen","coordinates":{"lat":"12.1333333","long":"-0.0333333"}},{"country":"bf","city":"Bilatio","coordinates":{"lat":"11.3833333","long":"-2.65"}},{"country":"bf","city":"Bilbalé","coordinates":{"lat":"10.95","long":"-3.0666667"}},{"country":"bf","city":"Bilbalgo","coordinates":{"lat":"12.1627778","long":"-1.3777778"}},{"country":"bf","city":"Bilbalogo","coordinates":{"lat":"11.9166667","long":"-1.3333333"}},{"country":"bf","city":"Bilbalogo","coordinates":{"lat":"12.3602778","long":"-1.4083333"}},{"country":"bf","city":"Bilbalogo","coordinates":{"lat":"11.6825","long":"-1.1641667"}},{"country":"bf","city":"Bilembare","coordinates":{"lat":"11.0833333","long":"-2.9833333"}},{"country":"bf","city":"Bilgou","coordinates":{"lat":"13.1833333","long":"0.2333333"}},{"country":"bf","city":"Bilgoutenga","coordinates":{"lat":"12.4863889","long":"-1.2658333"}},{"country":"bf","city":"Bilgutenga","coordinates":{"lat":"12.4863889","long":"-1.2658333"}},{"country":"bf","city":"Bilhembaré","coordinates":{"lat":"11.0833333","long":"-2.9833333"}},{"country":"bf","city":"Bilibalogo","coordinates":{"lat":"13.5666667","long":"-0.9833333"}},{"country":"bf","city":"Biliga","coordinates":{"lat":"13.35","long":"-1.3666667"}},{"country":"bf","city":"Bilina","coordinates":{"lat":"12.45","long":"0.0666667"}},{"country":"bf","city":"Bilogo","coordinates":{"lat":"12.5352778","long":"-1.6830556"}},{"country":"bf","city":"Bilogotenga","coordinates":{"lat":"12.5166667","long":"-0.9166667"}},{"country":"bf","city":"Bilougou","coordinates":{"lat":"13.1166667","long":"0.2"}},{"country":"bf","city":"Bimabidéni","coordinates":{"lat":"12.6666667","long":"2.1333333"}},{"country":"bf","city":"Bimbéla","coordinates":{"lat":"13.55","long":"-2.4833333"}},{"country":"bf","city":"Bimé","coordinates":{"lat":"11.65","long":"-0.3333333"}},{"country":"bf","city":"Bina","coordinates":{"lat":"12.7833333","long":"0.7"}},{"country":"bf","city":"Binadèni","coordinates":{"lat":"12.0166667","long":"0.2666667"}},{"country":"bf","city":"Binbéla","coordinates":{"lat":"13.55","long":"-2.4833333"}},{"country":"bf","city":"Binbélinko","coordinates":{"lat":"9.4833333","long":"-2.75"}},{"country":"bf","city":"Bin","coordinates":{"lat":"12.0333333","long":"-4.1333333"}},{"country":"bf","city":"Binda","coordinates":{"lat":"11.0","long":"-0.5333333"}},{"country":"bf","city":"Bindé","coordinates":{"lat":"11.7541667","long":"-1.0944444"}},{"country":"bf","city":"Bindéré","coordinates":{"lat":"13.6","long":"-0.1833333"}},{"country":"bf","city":"Bindo","coordinates":{"lat":"11.0","long":"-0.5333333"}},{"country":"bf","city":"Bindogo","coordinates":{"lat":"12.05","long":"-2.0166667"}},{"country":"bf","city":"Bindogo","coordinates":{"lat":"12.65","long":"-0.75"}},{"country":"bf","city":"Bindogo","coordinates":{"lat":"12.5833333","long":"-0.9666667"}},{"country":"bf","city":"Bindogo","coordinates":{"lat":"12.7666667","long":"-1.0166667"}},{"country":"bf","city":"Bindoro","coordinates":{"lat":"12.8","long":"-0.8333333"}},{"country":"bf","city":"Bindougou","coordinates":{"lat":"12.4666667","long":"-3.6"}},{"country":"bf","city":"Bindowé","coordinates":{"lat":"11.1666667","long":"-4.1"}},{"country":"bf","city":"Binga","coordinates":{"lat":"13.0333333","long":"0.5833333"}},{"country":"bf","city":"Bingali","coordinates":{"lat":"10.3166667","long":"-3.6166667"}},{"country":"bf","city":"Bingbéma","coordinates":{"lat":"11.55","long":"-4.5833333"}},{"country":"bf","city":"Bingo","coordinates":{"lat":"11.0","long":"-0.5333333"}},{"country":"bf","city":"Bingo","coordinates":{"lat":"12.3033333","long":"-1.8313889"}},{"country":"bf","city":"Bingo","coordinates":{"lat":"12.2288889","long":"-1.4469444"}},{"country":"bf","city":"Bingo","coordinates":{"lat":"13.0","long":"-1.1333333"}},{"country":"bf","city":"Bingo","coordinates":{"lat":"13.1666667","long":"-2.2333333"}},{"country":"bf","city":"Binguèl","coordinates":{"lat":"13.5333333","long":"0.7666667"}},{"country":"bf","city":"Binguèl Dafédji","coordinates":{"lat":"14.55","long":"-0.9166667"}},{"country":"bf","city":"Bini","coordinates":{"lat":"13.7666667","long":"-1.2"}},{"country":"bf","city":"Bini","coordinates":{"lat":"10.55","long":"-3.7333333"}},{"country":"bf","city":"Binjo","coordinates":{"lat":"10.4666667","long":"-3.0333333"}},{"country":"bf","city":"Binkili","coordinates":{"lat":"11.3","long":"-2.9333333"}},{"country":"bf","city":"Binndé","coordinates":{"lat":"11.7541667","long":"-1.0944444"}},{"country":"bf","city":"Binnguédougou","coordinates":{"lat":"10.4","long":"-5.1166667"}},{"country":"bf","city":"Binogo","coordinates":{"lat":"12.3666667","long":"-0.65"}},{"country":"bf","city":"Binola","coordinates":{"lat":"9.9333333","long":"-3.1"}},{"country":"bf","city":"Binsboumbou","coordinates":{"lat":"11.8666667","long":"-1.2333333"}},{"country":"bf","city":"Binsboumbou","coordinates":{"lat":"11.6833333","long":"-1.2666667"}},{"country":"bf","city":"Binségué","coordinates":{"lat":"12.8","long":"-0.9166667"}},{"country":"bf","city":"Binsigué","coordinates":{"lat":"12.9666667","long":"-0.7333333"}},{"country":"bf","city":"Binstéguéré","coordinates":{"lat":"11.7833333","long":"-1.3666667"}},{"country":"bf","city":"Binté","coordinates":{"lat":"10.75","long":"-3.6"}},{"country":"bf","city":"Binvar","coordinates":{"lat":"10.95","long":"-2.9833333"}},{"country":"bf","city":"Bion","coordinates":{"lat":"11.65","long":"-1.2333333"}},{"country":"bf","city":"Biongo","coordinates":{"lat":"12.7666667","long":"-2.0666667"}},{"country":"bf","city":"Biou","coordinates":{"lat":"11.65","long":"-1.2333333"}},{"country":"bf","city":"Bira","coordinates":{"lat":"13.2166667","long":"0.8666667"}},{"country":"bf","city":"Birabodo","coordinates":{"lat":"12.5","long":"-1.95"}},{"country":"bf","city":"Bira Gondogo","coordinates":{"lat":"13.6333333","long":"-2.8666667"}},{"country":"bf","city":"Birgou","coordinates":{"lat":"12.2","long":"0.4333333"}},{"country":"bf","city":"Birgui","coordinates":{"lat":"13.6","long":"-0.55"}},{"country":"bf","city":"Birgui","coordinates":{"lat":"12.95","long":"-1.1333333"}},{"country":"bf","city":"Biribéna","coordinates":{"lat":"13.5666667","long":"0.5166667"}},{"country":"bf","city":"Biri","coordinates":{"lat":"13.2166667","long":"-1.2666667"}},{"country":"bf","city":"Biriguima","coordinates":{"lat":"11.95","long":"-1.7"}},{"country":"bf","city":"Birigui Tèyga","coordinates":{"lat":"14.1166667","long":"-0.9333333"}},{"country":"bf","city":"Birkinao","coordinates":{"lat":"10.65","long":"-3.3"}},{"country":"bf","city":"Birmanga","coordinates":{"lat":"12.4666667","long":"1.55"}},{"country":"bf","city":"Birniolpori","coordinates":{"lat":"12.6333333","long":"1.9166667"}},{"country":"bf","city":"Biron Bobo","coordinates":{"lat":"12.5666667","long":"-3.6333333"}},{"country":"bf","city":"Biron Marka","coordinates":{"lat":"12.5833333","long":"-3.6333333"}},{"country":"bf","city":"Birou","coordinates":{"lat":"13.3","long":"-1.65"}},{"country":"bf","city":"Birou","coordinates":{"lat":"12.7333333","long":"-2.5833333"}},{"country":"bf","city":"Birouro","coordinates":{"lat":"14.3","long":"-1.05"}},{"country":"bf","city":"Bisiga","coordinates":{"lat":"12.15","long":"-2.0666667"}},{"country":"bf","city":"Bisigen","coordinates":{"lat":"12.45","long":"-2.3"}},{"country":"bf","city":"Bisigui Yolgo","coordinates":{"lat":"12.9833333","long":"-1.15"}},{"country":"bf","city":"Biska","coordinates":{"lat":"12.15","long":"-0.1833333"}},{"country":"bf","city":"Bisma","coordinates":{"lat":"12.95","long":"-2.6166667"}},{"country":"bf","city":"Bisnaba","coordinates":{"lat":"12.55","long":"-0.6666667"}},{"country":"bf","city":"Bisnogo","coordinates":{"lat":"13.0","long":"-1.0666667"}},{"country":"bf","city":"Bissa","coordinates":{"lat":"13.1833333","long":"-1.5"}},{"country":"bf","city":"Bissa","coordinates":{"lat":"11.9166667","long":"-3.45"}},{"country":"bf","city":"Bissan","coordinates":{"lat":"12.85","long":"-3.4166667"}},{"country":"bf","city":"Bissandéré","coordinates":{"lat":"12.2166667","long":"-2.9166667"}},{"country":"bf","city":"Bissandéro","coordinates":{"lat":"12.2166667","long":"-2.9166667"}},{"country":"bf","city":"Bissandérou","coordinates":{"lat":"12.2166667","long":"-2.9166667"}},{"country":"bf","city":"Bisserké","coordinates":{"lat":"11.2666667","long":"-3.25"}},{"country":"bf","city":"Bissga","coordinates":{"lat":"12.6972222","long":"-1.2030556"}},{"country":"bf","city":"Bissia","coordinates":{"lat":"13.1833333","long":"-1.5"}},{"country":"bf","city":"Bissiga","coordinates":{"lat":"12.0363889","long":"-1.4705556"}},{"country":"bf","city":"Bissiga","coordinates":{"lat":"12.2833333","long":"-0.7833333"}},{"country":"bf","city":"Bissiga","coordinates":{"lat":"11.8666667","long":"-0.05"}},{"country":"bf","city":"Bissiga","coordinates":{"lat":"12.0244444","long":"-1.5158333"}},{"country":"bf","city":"Bissiga","coordinates":{"lat":"12.6166667","long":"-0.9333333"}},{"country":"bf","city":"Bissigen","coordinates":{"lat":"12.3744444","long":"-1.4047222"}},{"country":"bf","city":"Bissiguen","coordinates":{"lat":"13.2","long":"-1.5166667"}},{"country":"bf","city":"Bissiguen","coordinates":{"lat":"12.3744444","long":"-1.4047222"}},{"country":"bf","city":"Bissigui","coordinates":{"lat":"12.2405556","long":"-1.6716667"}},{"country":"bf","city":"Bissigui","coordinates":{"lat":"12.9833333","long":"-1.2666667"}},{"country":"bf","city":"Bissigui","coordinates":{"lat":"13.3333333","long":"-1.9333333"}},{"country":"bf","city":"Bissiguila","coordinates":{"lat":"12.3","long":"-1.95"}},{"country":"bf","city":"Bissiguin","coordinates":{"lat":"13.5833333","long":"-2.4833333"}},{"country":"bf","city":"Bissimila","coordinates":{"lat":"12.4","long":"0.3166667"}},{"country":"bf","city":"Bissinga","coordinates":{"lat":"13.4666667","long":"-0.55"}},{"country":"bf","city":"Bissingen","coordinates":{"lat":"12.3744444","long":"-1.4047222"}},{"country":"bf","city":"Bissiri","coordinates":{"lat":"12.0997222","long":"-1.2469444"}},{"country":"bf","city":"Bissiri","coordinates":{"lat":"12.1058333","long":"-1.635"}},{"country":"bf","city":"Bissiri","coordinates":{"lat":"13.1666667","long":"-2.6333333"}},{"country":"bf","city":"Bisso","coordinates":{"lat":"12.7166667","long":"-3.7666667"}},{"country":"bf","city":"Bitébaka","coordinates":{"lat":"12.8222222","long":"-1.7719444"}},{"country":"bf","city":"Bitia","coordinates":{"lat":"11.8166667","long":"-3.0166667"}},{"country":"bf","city":"Bitiako","coordinates":{"lat":"11.8166667","long":"-3.0166667"}},{"country":"bf","city":"Bitou","coordinates":{"lat":"11.2580556","long":"-0.3061111"}},{"country":"bf","city":"Bitté","coordinates":{"lat":"11.5","long":"-0.0166667"}},{"country":"bf","city":"Bittou","coordinates":{"lat":"11.2580556","long":"-0.3061111"}},{"country":"bf","city":"Bittu","coordinates":{"lat":"11.2580556","long":"-0.3061111"}},{"country":"bf","city":"Biyou","coordinates":{"lat":"13.4333333","long":"-1.1833333"}},{"country":"bf","city":"Bladi","coordinates":{"lat":"13.4166667","long":"-3.3"}},{"country":"bf","city":"Blari","coordinates":{"lat":"11.2833333","long":"-5.1166667"}},{"country":"bf","city":"Blé","coordinates":{"lat":"12.0166667","long":"-3.3666667"}},{"country":"bf","city":"Blédougou","coordinates":{"lat":"10.5833333","long":"-5.2666667"}},{"country":"bf","city":"Bleni","coordinates":{"lat":"11.5666667","long":"-5.05"}},{"country":"bf","city":"Boa","coordinates":{"lat":"12.8333333","long":"-3.0166667"}},{"country":"bf","city":"Boaboadyoari","coordinates":{"lat":"12.25","long":"0.7666667"}},{"country":"bf","city":"Boadèni","coordinates":{"lat":"12.0833333","long":"1.1333333"}},{"country":"bf","city":"Boaken","coordinates":{"lat":"12.3","long":"-0.4666667"}},{"country":"bf","city":"Boala","coordinates":{"lat":"12.7166667","long":"-1.2666667"}},{"country":"bf","city":"Boala","coordinates":{"lat":"12.8833333","long":"-0.7"}},{"country":"bf","city":"Boala","coordinates":{"lat":"11.1166667","long":"-1.7666667"}},{"country":"bf","city":"Boalé","coordinates":{"lat":"11.4","long":"-1.3666667"}},{"country":"bf","city":"Boalen","coordinates":{"lat":"12.6166667","long":"-1.2333333"}},{"country":"bf","city":"Boalen","coordinates":{"lat":"12.8333333","long":"-1.1"}},{"country":"bf","city":"Boalga","coordinates":{"lat":"13.2833333","long":"-1.5"}},{"country":"bf","city":"Boallé","coordinates":{"lat":"13.3","long":"-1.5833333"}},{"country":"bf","city":"Boara","coordinates":{"lat":"11.0333333","long":"-2.6"}},{"country":"bf","city":"Boaré","coordinates":{"lat":"13.0833333","long":"-2.9333333"}},{"country":"bf","city":"Boargou","coordinates":{"lat":"12.4666667","long":"1.05"}},{"country":"bf","city":"Boasa","coordinates":{"lat":"12.2913889","long":"-1.6141667"}},{"country":"bf","city":"Boassa","coordinates":{"lat":"12.2913889","long":"-1.6141667"}},{"country":"bf","city":"Boau","coordinates":{"lat":"11.15","long":"-0.6"}},{"country":"bf","city":"Bobéra","coordinates":{"lat":"9.9","long":"-3.15"}},{"country":"bf","city":"Bobéta","coordinates":{"lat":"10.3666667","long":"-3.5666667"}},{"country":"bf","city":"Bo","coordinates":{"lat":"13.0","long":"-3.2166667"}},{"country":"bf","city":"Bô","coordinates":{"lat":"13.4","long":"-2.5333333"}},{"country":"bf","city":"Boboanga","coordinates":{"lat":"12.8833333","long":"0.3"}},{"country":"bf","city":"Bobo Dioulasso","coordinates":{"lat":"11.2","long":"-4.3"}},{"country":"bf","city":"Bobo-Diulasso","coordinates":{"lat":"11.2","long":"-4.3"}},{"country":"bf","city":"Bobonon","coordinates":{"lat":"11.55","long":"-1.65"}},{"country":"bf","city":"Bobora","coordinates":{"lat":"11.0833333","long":"-2.9333333"}},{"country":"bf","city":"Bobora","coordinates":{"lat":"10.55","long":"-3.1666667"}},{"country":"bf","city":"Boboragogo","coordinates":{"lat":"10.8333333","long":"-3.0333333"}},{"country":"bf","city":"Bodana","coordinates":{"lat":"9.9333333","long":"-3.4333333"}},{"country":"bf","city":"Bodéol","coordinates":{"lat":"14.0833333","long":"-0.9166667"}},{"country":"bf","city":"Bodgi","coordinates":{"lat":"12.0686111","long":"-1.2672222"}},{"country":"bf","city":"Bodialindara","coordinates":{"lat":"11.2","long":"-3.9666667"}},{"country":"bf","city":"Bodou","coordinates":{"lat":"12.4177778","long":"0.1536111"}},{"country":"bf","city":"Bodu","coordinates":{"lat":"12.4177778","long":"0.1536111"}},{"country":"bf","city":"Bodya","coordinates":{"lat":"13.0666667","long":"0.4166667"}},{"country":"bf","city":"Bodyargou","coordinates":{"lat":"12.7166667","long":"0.55"}},{"country":"bf","city":"Boénessen-Petit","coordinates":{"lat":"12.0666667","long":"-0.3666667"}},{"country":"bf","city":"Bogadèlbi","coordinates":{"lat":"13.65","long":"0.2"}},{"country":"bf","city":"Bogadouga","coordinates":{"lat":"12.4833333","long":"1.8333333"}},{"country":"bf","city":"Bogaloumo","coordinates":{"lat":"13.5333333","long":"0.4333333"}},{"country":"bf","city":"Bogaloura","coordinates":{"lat":"14.15","long":"-0.9"}},{"country":"bf","city":"Bogandé","coordinates":{"lat":"12.9713889","long":"-0.1436111"}},{"country":"bf","city":"Bogden","coordinates":{"lat":"12.0686111","long":"-1.2672222"}},{"country":"bf","city":"Bogèl","coordinates":{"lat":"12.4666667","long":"2.0166667"}},{"country":"bf","city":"Bogo","coordinates":{"lat":"12.95","long":"-3.95"}},{"country":"bf","city":"Bogoden","coordinates":{"lat":"12.3338889","long":"-1.6511111"}},{"country":"bf","city":"Bogodogo","coordinates":{"lat":"12.0208333","long":"-1.5533333"}},{"country":"bf","city":"Bogro","coordinates":{"lat":"11.7666667","long":"-2.2833333"}},{"country":"bf","city":"Bogué","coordinates":{"lat":"11.6833333","long":"-0.0166667"}},{"country":"bf","city":"Bogué","coordinates":{"lat":"12.0666667","long":"0.4333333"}},{"country":"bf","city":"Boguéli","coordinates":{"lat":"12.2666667","long":"0.4333333"}},{"country":"bf","city":"Bogui","coordinates":{"lat":"12.0666667","long":"0.4333333"}},{"country":"bf","city":"Bohara","coordinates":{"lat":"10.6","long":"-4.0166667"}},{"country":"bf","city":"Bohira","coordinates":{"lat":"10.45","long":"-3.2833333"}},{"country":"bf","city":"Boho Béréba","coordinates":{"lat":"11.5666667","long":"-3.75"}},{"country":"bf","city":"Boho","coordinates":{"lat":"12.5666667","long":"-2.55"}},{"country":"bf","city":"Boho","coordinates":{"lat":"12.4166667","long":"-2.6166667"}},{"country":"bf","city":"Boho","coordinates":{"lat":"12.8666667","long":"-4.15"}},{"country":"bf","city":"Boho Kari","coordinates":{"lat":"11.4","long":"-3.85"}},{"country":"bf","city":"Bohongou","coordinates":{"lat":"12.4988889","long":"0.6997222"}},{"country":"bf","city":"Bohui","coordinates":{"lat":"13.0166667","long":"-3.95"}},{"country":"bf","city":"Boilguen","coordinates":{"lat":"12.5666667","long":"-0.8166667"}},{"country":"bf","city":"Boillé","coordinates":{"lat":"11.9833333","long":"-0.0666667"}},{"country":"bf","city":"Boin","coordinates":{"lat":"12.4833333","long":"-4.4"}},{"country":"bf","city":"Bointenga","coordinates":{"lat":"12.1558333","long":"-1.4738889"}},{"country":"bf","city":"Boka","coordinates":{"lat":"10.3166667","long":"-2.8666667"}},{"country":"bf","city":"Boké","coordinates":{"lat":"13.3166667","long":"-2.25"}},{"country":"bf","city":"Boken","coordinates":{"lat":"13.1166667","long":"-1.6"}},{"country":"bf","city":"Boken","coordinates":{"lat":"12.5166667","long":"-2.2"}},{"country":"bf","city":"Boken","coordinates":{"lat":"12.2833333","long":"-0.65"}},{"country":"bf","city":"Boken","coordinates":{"lat":"12.0166667","long":"-0.1666667"}},{"country":"bf","city":"Boken","coordinates":{"lat":"12.7","long":"-1.5"}},{"country":"bf","city":"Boken","coordinates":{"lat":"13.0080556","long":"-1.7902778"}},{"country":"bf","city":"Boken","coordinates":{"lat":"13.1","long":"-1.3666667"}},{"country":"bf","city":"Bokin","coordinates":{"lat":"13.0080556","long":"-1.7902778"}},{"country":"bf","city":"Bokiourou","coordinates":{"lat":"11.1833333","long":"-2.1666667"}},{"country":"bf","city":"Boko","coordinates":{"lat":"12.7166667","long":"-0.4"}},{"country":"bf","city":"Bokoro","coordinates":{"lat":"13.3333333","long":"-4.0833333"}},{"country":"bf","city":"Bokowen","coordinates":{"lat":"13.0","long":"0.2333333"}},{"country":"bf","city":"Bokui","coordinates":{"lat":"12.0166667","long":"-3.8"}},{"country":"bf","city":"Bokui","coordinates":{"lat":"12.95","long":"-4.0666667"}},{"country":"bf","city":"Bokui","coordinates":{"lat":"12.5833333","long":"-3.4666667"}},{"country":"bf","city":"Bokui","coordinates":{"lat":"11.6","long":"-3.5"}},{"country":"bf","city":"Bokui-Ouest","coordinates":{"lat":"11.6","long":"-3.7333333"}},{"country":"bf","city":"Bokwen","coordinates":{"lat":"13.2833333","long":"-1.2833333"}},{"country":"bf","city":"Bola","coordinates":{"lat":"12.85","long":"0.35"}},{"country":"bf","city":"Bola","coordinates":{"lat":"11.4","long":"-1.4333333"}},{"country":"bf","city":"Bolala","coordinates":{"lat":"10.5","long":"-3.1333333"}},{"country":"bf","city":"Bolanbar","coordinates":{"lat":"11.05","long":"-3.0333333"}},{"country":"bf","city":"Bolaré","coordinates":{"lat":"13.7","long":"-0.2"}},{"country":"bf","city":"Bolay","coordinates":{"lat":"13.6","long":"0.0166667"}},{"country":"bf","city":"Bolé","coordinates":{"lat":"13.0","long":"-1.05"}},{"country":"bf","city":"Bolgo","coordinates":{"lat":"12.6208333","long":"-1.9408333"}},{"country":"bf","city":"Bollaé","coordinates":{"lat":"13.7166667","long":"-1.15"}},{"country":"bf","city":"Bollé","coordinates":{"lat":"12.3833333","long":"-0.7666667"}},{"country":"bf","city":"Bollé","coordinates":{"lat":"13.3666667","long":"-0.75"}},{"country":"bf","city":"Bolo","coordinates":{"lat":"11.9","long":"-2.25"}},{"country":"bf","city":"Bolo","coordinates":{"lat":"11.7666667","long":"-2.2833333"}},{"country":"bf","city":"Bolo","coordinates":{"lat":"11.9227778","long":"-1.8538889"}},{"country":"bf","city":"Bolo","coordinates":{"lat":"10.6666667","long":"-3.1833333"}},{"country":"bf","city":"Bologbé","coordinates":{"lat":"10.8166667","long":"-2.9833333"}},{"country":"bf","city":"Bologo","coordinates":{"lat":"12.0333333","long":"-0.2666667"}},{"country":"bf","city":"Bolomona","coordinates":{"lat":"13.25","long":"-0.2333333"}},{"country":"bf","city":"Bolongtonga","coordinates":{"lat":"13.2166667","long":"0.7"}},{"country":"bf","city":"Bolonguen","coordinates":{"lat":"12.0394444","long":"-1.6730556"}},{"country":"bf","city":"Bolontou","coordinates":{"lat":"12.1333333","long":"0.0333333"}},{"country":"bf","city":"Boloro","coordinates":{"lat":"12.1","long":"-0.0666667"}},{"country":"bf","city":"Bolougban","coordinates":{"lat":"10.2333333","long":"-3.2833333"}},{"country":"bf","city":"Boman","coordinates":{"lat":"10.3833333","long":"-3.2666667"}},{"country":"bf","city":"Bombanyenga","coordinates":{"lat":"13.2","long":"-0.2666667"}},{"country":"bf","city":"Bombara","coordinates":{"lat":"10.7833333","long":"-3.2833333"}},{"country":"bf","city":"Bomboué","coordinates":{"lat":"13.6833333","long":"-0.1"}},{"country":"bf","city":"Bombouéla","coordinates":{"lat":"12.1","long":"-3.3"}},{"country":"bf","city":"Bomoï","coordinates":{"lat":"10.5","long":"-3.0833333"}},{"country":"bf","city":"Bompé","coordinates":{"lat":"10.4666667","long":"-4.7833333"}},{"country":"bf","city":"Bomponi","coordinates":{"lat":"12.15","long":"-3.55"}},{"country":"bf","city":"Bona","coordinates":{"lat":"11.1666667","long":"-4.0"}},{"country":"bf","city":"Bona","coordinates":{"lat":"12.8","long":"-0.65"}},{"country":"bf","city":"Bonadougou","coordinates":{"lat":"11.1666667","long":"-4.1833333"}},{"country":"bf","city":"Bonamba","coordinates":{"lat":"9.8166667","long":"-2.8833333"}},{"country":"bf","city":"Bonam","coordinates":{"lat":"12.3213889","long":"-1.5766667"}},{"country":"bf","city":"Bonam","coordinates":{"lat":"12.7833333","long":"-0.6"}},{"country":"bf","city":"Bonapio","coordinates":{"lat":"11.4166667","long":"-2.0666667"}},{"country":"bf","city":"Bonatenga","coordinates":{"lat":"12.0644444","long":"-1.5038889"}},{"country":"bf","city":"Bonba","coordinates":{"lat":"11.6833333","long":"-3.6166667"}},{"country":"bf","city":"Bonbambina","coordinates":{"lat":"12.55","long":"0.8333333"}},{"country":"bf","city":"Bonbara","coordinates":{"lat":"10.7833333","long":"-3.2666667"}},{"country":"bf","city":"Bonbofa","coordinates":{"lat":"14.0333333","long":"-0.3"}},{"country":"bf","city":"Bön","coordinates":{"lat":"11.2666667","long":"-2.2666667"}},{"country":"bf","city":"Bon","coordinates":{"lat":"11.1833333","long":"-2.75"}},{"country":"bf","city":"Bon","coordinates":{"lat":"13.4","long":"-2.5333333"}},{"country":"bf","city":"Bonbongou","coordinates":{"lat":"13.4","long":"0.6"}},{"country":"bf","city":"Bonbouéla","coordinates":{"lat":"12.1","long":"-3.3"}},{"country":"bf","city":"Bonboura","coordinates":{"lat":"10.7833333","long":"-3.2833333"}},{"country":"bf","city":"Bonda","coordinates":{"lat":"13.5","long":"-1.5166667"}},{"country":"bf","city":"Bondé","coordinates":{"lat":"13.6","long":"-1.4833333"}},{"country":"bf","city":"Bondigui","coordinates":{"lat":"10.9166667","long":"-3.4833333"}},{"country":"bf","city":"Bondimwana","coordinates":{"lat":"12.55","long":"0.8333333"}},{"country":"bf","city":"Bondo","coordinates":{"lat":"11.7666667","long":"-3.4333333"}},{"country":"bf","city":"Bondokui","coordinates":{"lat":"12.9166667","long":"-4.0666667"}},{"country":"bf","city":"Bondoména","coordinates":{"lat":"10.1833333","long":"-3.4666667"}},{"country":"bf","city":"Bondoni","coordinates":{"lat":"12.05","long":"-2.0166667"}},{"country":"bf","city":"Bondori","coordinates":{"lat":"12.05","long":"-2.0166667"}},{"country":"bf","city":"Bondorola","coordinates":{"lat":"10.6","long":"-4.5666667"}},{"country":"bf","city":"Bondoukoui","coordinates":{"lat":"11.85","long":"-3.7666667"}},{"country":"bf","city":"Bondoukuy","coordinates":{"lat":"11.85","long":"-3.7666667"}},{"country":"bf","city":"Bondouména","coordinates":{"lat":"10.2166667","long":"-3.35"}},{"country":"bf","city":"Bondoura","coordinates":{"lat":"10.2833333","long":"-3.55"}},{"country":"bf","city":"Bondukui","coordinates":{"lat":"11.85","long":"-3.7666667"}},{"country":"bf","city":"Bonéssen","coordinates":{"lat":"12.45","long":"-0.3333333"}},{"country":"bf","city":"Bonfan","coordinates":{"lat":"9.45","long":"-2.8166667"}},{"country":"bf","city":"Bonfeso","coordinates":{"lat":"10.8666667","long":"-3.6"}},{"country":"bf","city":"Bonfesso","coordinates":{"lat":"10.8666667","long":"-3.6"}},{"country":"bf","city":"Bonga","coordinates":{"lat":"12.2333333","long":"0.35"}},{"country":"bf","city":"Bonga","coordinates":{"lat":"11.95","long":"-2.7333333"}},{"country":"bf","city":"Bonga","coordinates":{"lat":"10.4333333","long":"-3.85"}},{"country":"bf","city":"Bongandé","coordinates":{"lat":"11.2","long":"-0.2"}},{"country":"bf","city":"Bongola","coordinates":{"lat":"13.9333333","long":"-2.2666667"}},{"country":"bf","city":"Bongori","coordinates":{"lat":"12.7333333","long":"1.0"}},{"country":"bf","city":"Bongou","coordinates":{"lat":"12.85","long":"0.2833333"}},{"country":"bf","city":"Boni","coordinates":{"lat":"11.5666667","long":"-3.4"}},{"country":"bf","city":"Bonissé","coordinates":{"lat":"13.7333333","long":"-0.9833333"}},{"country":"bf","city":"Bonko","coordinates":{"lat":"10.7666667","long":"-2.9666667"}},{"country":"bf","city":"Bonko","coordinates":{"lat":"10.3333333","long":"-3.3"}},{"country":"bf","city":"Bonkoré","coordinates":{"lat":"12.1083333","long":"-1.475"}},{"country":"bf","city":"Bonkosséra","coordinates":{"lat":"10.0166667","long":"-3.1333333"}},{"country":"bf","city":"Bonkoulou","coordinates":{"lat":"9.7333333","long":"-2.9666667"}},{"country":"bf","city":"Bonkoulou","coordinates":{"lat":"10.3","long":"-3.4666667"}},{"country":"bf","city":"Bonna","coordinates":{"lat":"12.65","long":"-3.1333333"}},{"country":"bf","city":"Bonogo","coordinates":{"lat":"12.0669444","long":"-1.5838889"}},{"country":"bf","city":"Bonohoun","coordinates":{"lat":"11.4833333","long":"-3.7666667"}},{"country":"bf","city":"Bonpé","coordinates":{"lat":"10.4666667","long":"-4.7833333"}},{"country":"bf","city":"Bonpéla","coordinates":{"lat":"13.1666667","long":"-2.75"}},{"country":"bf","city":"Bonpéla","coordinates":{"lat":"13.1333333","long":"-2.7166667"}},{"country":"bf","city":"Bonro","coordinates":{"lat":"13.05","long":"-3.2166667"}},{"country":"bf","city":"Bonsan","coordinates":{"lat":"11.4166667","long":"-3.2166667"}},{"country":"bf","city":"Bonsaré","coordinates":{"lat":"11.6666667","long":"-0.5"}},{"country":"bf","city":"Bonséga","coordinates":{"lat":"12.95","long":"0.45"}},{"country":"bf","city":"Bonsera","coordinates":{"lat":"10.55","long":"-3.15"}},{"country":"bf","city":"Bonsié","coordinates":{"lat":"11.3166667","long":"-3.5"}},{"country":"bf","city":"Bonsiéga","coordinates":{"lat":"13.4666667","long":"-0.2"}},{"country":"bf","city":"Bonsongari","coordinates":{"lat":"12.3666667","long":"0.3333333"}},{"country":"bf","city":"Bonsora","coordinates":{"lat":"10.55","long":"-3.1"}},{"country":"bf","city":"Bonsoungou","coordinates":{"lat":"11.4261111","long":"-0.7727778"}},{"country":"bf","city":"Bonsungu","coordinates":{"lat":"11.4261111","long":"-0.7727778"}},{"country":"bf","city":"Bonta","coordinates":{"lat":"13.2333333","long":"0.4"}},{"country":"bf","city":"Bontanmbima","coordinates":{"lat":"12.6333333","long":"0.85"}},{"country":"bf","city":"Bontioli","coordinates":{"lat":"10.8833333","long":"-3.0666667"}},{"country":"bf","city":"Bontou","coordinates":{"lat":"10.2333333","long":"-3.75"}},{"country":"bf","city":"Bonvalé","coordinates":{"lat":"11.7666667","long":"-4.2"}},{"country":"bf","city":"Bonyolo","coordinates":{"lat":"12.35","long":"-2.5"}},{"country":"bf","city":"Bonyori","coordinates":{"lat":"13.2","long":"0.6"}},{"country":"bf","city":"Bonza","coordinates":{"lat":"11.4166667","long":"-3.2166667"}},{"country":"bf","city":"Bonzan","coordinates":{"lat":"11.35","long":"-3.1166667"}},{"country":"bf","city":"Bonzan","coordinates":{"lat":"11.4166667","long":"-3.2166667"}},{"country":"bf","city":"Bopié","coordinates":{"lat":"10.55","long":"-2.9166667"}},{"country":"bf","city":"Bopiel","coordinates":{"lat":"10.0666667","long":"-2.9166667"}},{"country":"bf","city":"Bora","coordinates":{"lat":"11.0333333","long":"-2.6"}},{"country":"bf","city":"Boré","coordinates":{"lat":"12.9833333","long":"-1.6333333"}},{"country":"bf","city":"Borgané","coordinates":{"lat":"10.8666667","long":"-2.95"}},{"country":"bf","city":"Borgataka","coordinates":{"lat":"13.9833333","long":"-0.4"}},{"country":"bf","city":"Bori","coordinates":{"lat":"11.3","long":"-1.75"}},{"country":"bf","city":"Boriho","coordinates":{"lat":"10.2333333","long":"-3.2666667"}},{"country":"bf","city":"Borilli","coordinates":{"lat":"10.2666667","long":"-2.9166667"}},{"country":"bf","city":"Boriogo","coordinates":{"lat":"11.95","long":"-0.0166667"}},{"country":"bf","city":"Boriou","coordinates":{"lat":"10.1","long":"-3.8333333"}},{"country":"bf","city":"Borko","coordinates":{"lat":"13.2833333","long":"-1.15"}},{"country":"bf","city":"Borma","coordinates":{"lat":"13.3333333","long":"-3.8333333"}},{"country":"bf","city":"Bormangou","coordinates":{"lat":"12.4","long":"1.3166667"}},{"country":"bf","city":"Boro","coordinates":{"lat":"11.65","long":"-1.7"}},{"country":"bf","city":"Borodogo","coordinates":{"lat":"12.6166667","long":"-1.3666667"}},{"country":"bf","city":"Borogo","coordinates":{"lat":"11.95","long":"-1.45"}},{"country":"bf","city":"Borom","coordinates":{"lat":"11.75","long":"-2.9333333"}},{"country":"bf","city":"Boromissi","coordinates":{"lat":"13.05","long":"-0.3"}},{"country":"bf","city":"Boromissi","coordinates":{"lat":"11.9333333","long":"-2.9"}},{"country":"bf","city":"Boromissi","coordinates":{"lat":"12.95","long":"-0.55"}},{"country":"bf","city":"Boromo","coordinates":{"lat":"11.75","long":"-2.9333333"}},{"country":"bf","city":"Boromossi","coordinates":{"lat":"11.9333333","long":"-2.9"}},{"country":"bf","city":"Boron","coordinates":{"lat":"12.65","long":"-3.9166667"}},{"country":"bf","city":"Boron","coordinates":{"lat":"12.65","long":"-3.5"}},{"country":"bf","city":"Boroya","coordinates":{"lat":"13.6333333","long":"-2.4166667"}},{"country":"bf","city":"Bosangré","coordinates":{"lat":"12.1","long":"0.2"}},{"country":"bf","city":"Bosé","coordinates":{"lat":"14.4333333","long":"-0.85"}},{"country":"bf","city":"Boséga","coordinates":{"lat":"12.95","long":"0.45"}},{"country":"bf","city":"Bosongri","coordinates":{"lat":"13.3166667","long":"0.45"}},{"country":"bf","city":"Bosségal","coordinates":{"lat":"12.95","long":"0.45"}},{"country":"bf","city":"Bossèy Barabé","coordinates":{"lat":"14.5333333","long":"-0.3333333"}},{"country":"bf","city":"Bossey","coordinates":{"lat":"14.5333333","long":"-0.3333333"}},{"country":"bf","city":"Bossèy Boubakari","coordinates":{"lat":"14.5666667","long":"-0.3166667"}},{"country":"bf","city":"Bossèydiabé","coordinates":{"lat":"14.4666667","long":"-0.4333333"}},{"country":"bf","city":"Bossèy Dogabé","coordinates":{"lat":"14.5333333","long":"-0.3"}},{"country":"bf","city":"Bosseye","coordinates":{"lat":"14.5333333","long":"-0.3333333"}},{"country":"bf","city":"Bossié","coordinates":{"lat":"10.3666667","long":"-4.0333333"}},{"country":"bf","city":"Bossien","coordinates":{"lat":"11.9833333","long":"-3.2666667"}},{"country":"bf","city":"Bosso","coordinates":{"lat":"12.5333333","long":"-2.8"}},{"country":"bf","city":"Bossogo","coordinates":{"lat":"12.0333333","long":"-3.7666667"}},{"country":"bf","city":"Bossomnomogo","coordinates":{"lat":"13.6","long":"-2.5333333"}},{"country":"bf","city":"Bossomnoré","coordinates":{"lat":"13.6","long":"-2.5333333"}},{"country":"bf","city":"Bossongari","coordinates":{"lat":"12.5844444","long":"1.835"}},{"country":"bf","city":"Bossongri","coordinates":{"lat":"12.9","long":"0.9"}},{"country":"bf","city":"Bossonguiri","coordinates":{"lat":"13.3333333","long":"0.4833333"}},{"country":"bf","city":"Bossora","coordinates":{"lat":"11.7166667","long":"-4.0833333"}},{"country":"bf","city":"Bossoura","coordinates":{"lat":"10.0833333","long":"-3.5333333"}},{"country":"bf","city":"Boswendé","coordinates":{"lat":"12.4713889","long":"-1.4205556"}},{"country":"bf","city":"Boté","coordinates":{"lat":"12.75","long":"-3.5333333"}},{"country":"bf","city":"Botédji","coordinates":{"lat":"12.7166667","long":"0.5"}},{"country":"bf","city":"Boto","coordinates":{"lat":"12.3333333","long":"-0.3666667"}},{"country":"bf","city":"Boto","coordinates":{"lat":"11.4666667","long":"-1.8833333"}},{"country":"bf","city":"Boto","coordinates":{"lat":"12.665","long":"2.0519444"}},{"country":"bf","city":"Botonou","coordinates":{"lat":"13.25","long":"0.55"}},{"country":"bf","city":"Botou","coordinates":{"lat":"12.4177778","long":"0.1536111"}},{"country":"bf","city":"Botou","coordinates":{"lat":"12.665","long":"2.0519444"}},{"country":"bf","city":"Bottogo","coordinates":{"lat":"13.8166667","long":"-1.2833333"}},{"country":"bf","city":"Bouabou","coordinates":{"lat":"12.0333333","long":"1.5833333"}},{"country":"bf","city":"Bouadi Sa","coordinates":{"lat":"12.4","long":"0.65"}},{"country":"bf","city":"Bouahoun","coordinates":{"lat":"11.5166667","long":"-3.3666667"}},{"country":"bf","city":"Bouambélédougou","coordinates":{"lat":"11.1833333","long":"-3.55"}},{"country":"bf","city":"Bouan","coordinates":{"lat":"11.9166667","long":"-3.7"}},{"country":"bf","city":"Bouan","coordinates":{"lat":"10.4","long":"-3.0666667"}},{"country":"bf","city":"Bouandé","coordinates":{"lat":"11.1833333","long":"-4.6166667"}},{"country":"bf","city":"Bouandra","coordinates":{"lat":"13.15","long":"-0.5833333"}},{"country":"bf","city":"Bouandyaga","coordinates":{"lat":"12.2833333","long":"1.5666667"}},{"country":"bf","city":"Bouanékui","coordinates":{"lat":"12.9333333","long":"-4.2"}},{"country":"bf","city":"Bouanga","coordinates":{"lat":"12.4166667","long":"-1.9166667"}},{"country":"bf","city":"Bouang","coordinates":{"lat":"10.35","long":"-3.2833333"}},{"country":"bf","city":"Bouantenga","coordinates":{"lat":"12.2333333","long":"-0.0333333"}},{"country":"bf","city":"Bouari","coordinates":{"lat":"12.2166667","long":"-0.7333333"}},{"country":"bf","city":"Bouassié","coordinates":{"lat":"10.3666667","long":"-4.0333333"}},{"country":"bf","city":"Bouasso","coordinates":{"lat":"12.2","long":"-3.1833333"}},{"country":"bf","city":"Bouban","coordinates":{"lat":"12.4833333","long":"0.7833333"}},{"country":"bf","city":"Bou","coordinates":{"lat":"13.6833333","long":"-0.8166667"}},{"country":"bf","city":"Bou","coordinates":{"lat":"11.2333333","long":"-2.3333333"}},{"country":"bf","city":"Bou","coordinates":{"lat":"10.5166667","long":"-2.95"}},{"country":"bf","city":"Bou","coordinates":{"lat":"11.5166667","long":"-1.6666667"}},{"country":"bf","city":"Boubou","coordinates":{"lat":"13.3666667","long":"-1.8"}},{"country":"bf","city":"Bouboulou","coordinates":{"lat":"12.8666667","long":"-2.2"}},{"country":"bf","city":"Bouchouwilé","coordinates":{"lat":"13.6166667","long":"-3.25"}},{"country":"bf","city":"Boudangou","coordinates":{"lat":"12.4988889","long":"0.6997222"}},{"country":"bf","city":"Boudangou","coordinates":{"lat":"12.1333333","long":"0.3333333"}},{"country":"bf","city":"Boudaogo","coordinates":{"lat":"13.3666667","long":"-0.0666667"}},{"country":"bf","city":"Boudéré","coordinates":{"lat":"13.65","long":"-1.2666667"}},{"country":"bf","city":"Boudialindara","coordinates":{"lat":"11.2","long":"-3.9666667"}},{"country":"bf","city":"Boudiédara","coordinates":{"lat":"10.8833333","long":"-4.2"}},{"country":"bf","city":"Boudiéri","coordinates":{"lat":"12.3166667","long":"1.65"}},{"country":"bf","city":"Boudongho","coordinates":{"lat":"13.1","long":"0.1166667"}},{"country":"bf","city":"Boudou Oudoundou","coordinates":{"lat":"14.1833333","long":"-0.3"}},{"country":"bf","city":"Boudri","coordinates":{"lat":"11.9","long":"-1.4333333"}},{"country":"bf","city":"Boudri","coordinates":{"lat":"12.2166667","long":"-0.7333333"}},{"country":"bf","city":"Boudry","coordinates":{"lat":"12.2166667","long":"-0.7333333"}},{"country":"bf","city":"Boudtenga","coordinates":{"lat":"12.4863889","long":"-1.2658333"}},{"country":"bf","city":"Boudtinga","coordinates":{"lat":"12.4863889","long":"-1.2658333"}},{"country":"bf","city":"Bouema","coordinates":{"lat":"11.1833333","long":"-0.3166667"}},{"country":"bf","city":"Bouendé","coordinates":{"lat":"11.1833333","long":"-4.6166667"}},{"country":"bf","city":"Bouenkoubouga","coordinates":{"lat":"12.7333333","long":"-0.8333333"}},{"country":"bf","city":"Bouèn Yaga","coordinates":{"lat":"13.4666667","long":"-0.25"}},{"country":"bf","city":"Bouéré","coordinates":{"lat":"11.5","long":"-3.6833333"}},{"country":"bf","city":"Boufian","coordinates":{"lat":"11.15","long":"-2.4666667"}},