[{"country":"ae","city":"Abu Dabi","coordinates":{"lat":"24.466667","long":"54.366667"}},{"country":"ae","city":"Abu Dhabi","coordinates":{"lat":"24.466667","long":"54.366667"}},{"country":"ae","city":"Abu Hail","coordinates":{"lat":"25.285475","long":"55.329611"}},{"country":"ae","city":"Abu Zabi","coordinates":{"lat":"24.466667","long":"54.366667"}},{"country":"ae","city":"Abu Zabye","coordinates":{"lat":"24.466667","long":"54.366667"}},{"country":"ae","city":"Abu Zabyo","coordinates":{"lat":"24.466667","long":"54.366667"}},{"country":"ae","city":"Ad Dharbaniya","coordinates":{"lat":"25.783333","long":"55.933333"}},{"country":"ae","city":"Adgat","coordinates":{"lat":"25.498669","long":"56.358302"}},{"country":"ae","city":"Adh Dhaid","coordinates":{"lat":"25.288123","long":"55.881571"}},{"country":"ae","city":"Adhin","coordinates":{"lat":"25.460122","long":"56.012562"}},{"country":"ae","city":"Afarah","coordinates":{"lat":"25.041055","long":"56.314853"}},{"country":"ae","city":"`Ain","coordinates":{"lat":"24.212717","long":"55.783488"}},{"country":"ae","city":"Ain al Ghamur","coordinates":{"lat":"24.959508","long":"56.315852"}},{"country":"ae","city":"`Ain Dhawahir","coordinates":{"lat":"24.212717","long":"55.783488"}},{"country":"ae","city":"Ajima","coordinates":{"lat":"25.398308","long":"56.150726"}},{"country":"ae","city":"Akamiya","coordinates":{"lat":"25.600312","long":"56.269097"}},{"country":"ae","city":"Al Abadilah","coordinates":{"lat":"25.453529","long":"56.18991"}},{"country":"ae","city":"Al Ain","coordinates":{"lat":"24.191667","long":"55.760556"}},{"country":"ae","city":"Al Ajman","coordinates":{"lat":"25.406942","long":"55.444126"}},{"country":"ae","city":"Al `Ayn","coordinates":{"lat":"24.959508","long":"56.315852"}},{"country":"ae","city":"Al `Ayn al Ghamur","coordinates":{"lat":"24.959508","long":"56.315852"}},{"country":"ae","city":"Al Badiyah","coordinates":{"lat":"25.432273","long":"56.345736"}},{"country":"ae","city":"Al Bithnah","coordinates":{"lat":"25.189507","long":"56.235157"}},{"country":"ae","city":"Al Daid","coordinates":{"lat":"25.288123","long":"55.881571"}},{"country":"ae","city":"Al-Dhayd","coordinates":{"lat":"25.288123","long":"55.881571"}},{"country":"ae","city":"Al Dini","coordinates":{"lat":"25.932264","long":"56.405128"}},{"country":"ae","city":"Al Duss","coordinates":{"lat":"25.907278","long":"56.393"}},{"country":"ae","city":"Al Fai","coordinates":{"lat":"26.021389","long":"56.091389"}},{"country":"ae","city":"Al Fiyya","coordinates":{"lat":"24.298014","long":"53.211395"}},{"country":"ae","city":"Al-Fudjayra","coordinates":{"lat":"25.116412","long":"56.341408"}},{"country":"ae","city":"Al Fuqait","coordinates":{"lat":"25.599658","long":"56.342487"}},{"country":"ae","city":"Al Fuyay'","coordinates":{"lat":"24.298014","long":"53.211395"}},{"country":"ae","city":"Al-Ghil","coordinates":{"lat":"25.401739","long":"56.068063"}},{"country":"ae","city":"Algida","coordinates":{"lat":"25.996111","long":"56.084167"}},{"country":"ae","city":"Al Gissemari","coordinates":{"lat":"25.143423","long":"56.248397"}},{"country":"ae","city":"Al Hagarein","coordinates":{"lat":"24.798996","long":"56.115379"}},{"country":"ae","city":"Al Haira","coordinates":{"lat":"25.38148","long":"55.419551"}},{"country":"ae","city":"Al Hairah","coordinates":{"lat":"25.38148","long":"55.419551"}},{"country":"ae","city":"Alhala","coordinates":{"lat":"25.477378","long":"56.182437"}},{"country":"ae","city":"Al Hama'im","coordinates":{"lat":"22.95805","long":"54.297206"}},{"country":"ae","city":"Al Hamra'","coordinates":{"lat":"25.709102","long":"55.807724"}},{"country":"ae","city":"Al Hamriya","coordinates":{"lat":"25.478194","long":"55.533768"}},{"country":"ae","city":"Al Hayir","coordinates":{"lat":"25.978611","long":"56.085278"}},{"country":"ae","city":"Al Hayl","coordinates":{"lat":"25.092227","long":"56.24418"}},{"country":"ae","city":"Al Hayl","coordinates":{"lat":"25.704979","long":"55.987009"}},{"country":"ae","city":"Al Hinya","coordinates":{"lat":"25.350928","long":"56.025345"}},{"country":"ae","city":"Al-Hirah","coordinates":{"lat":"25.38148","long":"55.419551"}},{"country":"ae","city":"Al-Humaimah","coordinates":{"lat":"22.95805","long":"54.297206"}},{"country":"ae","city":"Al Ian","coordinates":{"lat":"24.212717","long":"55.783488"}},{"country":"ae","city":"Aliya","coordinates":{"lat":"25.353969","long":"55.37189"}},{"country":"ae","city":"Al Jazirah al Hamra'","coordinates":{"lat":"25.709102","long":"55.807724"}},{"country":"ae","city":"Al Jima","coordinates":{"lat":"24.24914","long":"55.745824"}},{"country":"ae","city":"Al Jimi","coordinates":{"lat":"24.24914","long":"55.745824"}},{"country":"ae","city":"Al Khalabiya","coordinates":{"lat":"25.381235","long":"56.173576"}},{"country":"ae","city":"Al Kharan","coordinates":{"lat":"25.716175","long":"55.967757"}},{"country":"ae","city":"Al Khatt","coordinates":{"lat":"25.617288","long":"56.011128"}},{"country":"ae","city":"Al Khawiya","coordinates":{"lat":"25.995584","long":"56.380513"}},{"country":"ae","city":"Al Khulaybiyah","coordinates":{"lat":"25.381235","long":"56.173576"}},{"country":"ae","city":"Al Layyah","coordinates":{"lat":"25.353969","long":"55.37189"}},{"country":"ae","city":"Al Maham","coordinates":{"lat":"25.675","long":"55.990278"}},{"country":"ae","city":"Al-Mariyya Al-Gharbyya","coordinates":{"lat":"23.102651","long":"53.581849"}},{"country":"ae","city":"Al-Mariyya","coordinates":{"lat":"23.138476","long":"53.742603"}},{"country":"ae","city":"Al-Mariyyah","coordinates":{"lat":"23.138476","long":"53.742603"}},{"country":"ae","city":"Al-Mirfa'","coordinates":{"lat":"24.099107","long":"53.490769"}},{"country":"ae","city":"Al Mu`taridh","coordinates":{"lat":"24.218997","long":"55.739888"}},{"country":"ae","city":"Al Muwaijh","coordinates":{"lat":"24.201667","long":"55.716389"}},{"country":"ae","city":"Al Muweiqi","coordinates":{"lat":"24.201667","long":"55.716389"}},{"country":"ae","city":"Al-Nashash","coordinates":{"lat":"23.081096","long":"54.036351"}},{"country":"ae","city":"Al-Naslah","coordinates":{"lat":"24.865864","long":"56.260851"}},{"country":"ae","city":"Al Odeid","coordinates":{"lat":"24.616667","long":"51.4"}},{"country":"ae","city":"Al-Qatarah","coordinates":{"lat":"24.259929","long":"55.755658"}},{"country":"ae","city":"Al Qawr","coordinates":{"lat":"24.912136","long":"56.095661"}},{"country":"ae","city":"Al Qima","coordinates":{"lat":"24.24914","long":"55.745824"}},{"country":"ae","city":"Al Qor","coordinates":{"lat":"24.912136","long":"56.095661"}},{"country":"ae","city":"Al-Rol","coordinates":{"lat":"25.601056","long":"56.322797"}},{"country":"ae","city":"Al Saad","coordinates":{"lat":"24.15","long":"55.766667"}},{"country":"ae","city":"Al Said","coordinates":{"lat":"24.15","long":"55.766667"}},{"country":"ae","city":"Al Satwa","coordinates":{"lat":"25.229014","long":"55.272329"}},{"country":"ae","city":"Al Selimat","coordinates":{"lat":"24.221944","long":"55.603056"}},{"country":"ae","city":"Al Sharjah","coordinates":{"lat":"25.35731","long":"55.403304"}},{"country":"ae","city":"Al-Tarif","coordinates":{"lat":"24.053988","long":"53.763468"}},{"country":"ae","city":"Al-'Udaid","coordinates":{"lat":"24.616667","long":"51.4"}},{"country":"ae","city":"Al-`Udeid","coordinates":{"lat":"24.616667","long":"51.4"}},{"country":"ae","city":"Al Wathba","coordinates":{"lat":"24.25958","long":"54.707814"}},{"country":"ae","city":"An Naslah","coordinates":{"lat":"24.865864","long":"56.260851"}},{"country":"ae","city":"Aqqa","coordinates":{"lat":"25.498669","long":"56.358302"}},{"country":"ae","city":"`Arada","coordinates":{"lat":"22.992313","long":"53.428915"}},{"country":"ae","city":"Araibi","coordinates":{"lat":"25.789452","long":"55.976649"}},{"country":"ae","city":"Ar Ru'ays","coordinates":{"lat":"24.110278","long":"52.730556"}},{"country":"ae","city":"Ash 'Mariqah","coordinates":{"lat":"25.35731","long":"55.403304"}},{"country":"ae","city":"Ash Shariqa","coordinates":{"lat":"25.35731","long":"55.403304"}},{"country":"ae","city":"`Asimah","coordinates":{"lat":"25.398308","long":"56.150726"}},{"country":"ae","city":"As Salihiyah","coordinates":{"lat":"25.721613","long":"55.990811"}},{"country":"ae","city":"As Saqamqam","coordinates":{"lat":"25.174666","long":"56.330388"}},{"country":"ae","city":"Athaba","coordinates":{"lat":"25.163564","long":"56.09619"}},{"country":"ae","city":"At Tarif","coordinates":{"lat":"24.053988","long":"53.763468"}},{"country":"ae","city":"At Turayf","coordinates":{"lat":"24.053988","long":"53.763468"}},{"country":"ae","city":"`Awanat","coordinates":{"lat":"25.365847","long":"55.856185"}},{"country":"ae","city":"Ayaina","coordinates":{"lat":"25.452828","long":"56.16879"}},{"country":"ae","city":"Ayn al Faidah","coordinates":{"lat":"24.083333","long":"55.683333"}},{"country":"ae","city":"`Ayn al Ghamur","coordinates":{"lat":"24.959508","long":"56.315852"}},{"country":"ae","city":"`Ayn Zawahir","coordinates":{"lat":"24.212717","long":"55.783488"}},{"country":"ae","city":"Badiya","coordinates":{"lat":"25.432273","long":"56.345736"}},{"country":"ae","city":"Badiyyah","coordinates":{"lat":"25.432273","long":"56.345736"}},{"country":"ae","city":"Bandar Mirfah","coordinates":{"lat":"24.099107","long":"53.490769"}},{"country":"ae","city":"Barahah","coordinates":{"lat":"25.266667","long":"55.316667"}},{"country":"ae","city":"Batain","coordinates":{"lat":"24.442901","long":"54.355388"}},{"country":"ae","city":"Batein","coordinates":{"lat":"24.442901","long":"54.355388"}},{"country":"ae","city":"Bidayarat Margham","coordinates":{"lat":"24.870768","long":"55.549053"}},{"country":"ae","city":"Bidiya","coordinates":{"lat":"25.432273","long":"56.345736"}},{"country":"ae","city":"Bidyah","coordinates":{"lat":"25.432273","long":"56.345736"}},{"country":"ae","city":"Bid' Zayed","coordinates":{"lat":"23.630726","long":"53.729897"}},{"country":"ae","city":"Bilaida","coordinates":{"lat":"25.223877","long":"56.202213"}},{"country":"ae","city":"Bilaidah","coordinates":{"lat":"25.223877","long":"56.202213"}},{"country":"ae","city":"Bithna","coordinates":{"lat":"25.189507","long":"56.235157"}},{"country":"ae","city":"Bithnah","coordinates":{"lat":"25.189507","long":"56.235157"}},{"country":"ae","city":"Budayyah","coordinates":{"lat":"25.432273","long":"56.345736"}},{"country":"ae","city":"Bulaidha","coordinates":{"lat":"25.223877","long":"56.202213"}},{"country":"ae","city":"Chuwais","coordinates":{"lat":"25.78102","long":"55.978696"}},{"country":"ae","city":"Daba al-Ghurfah","coordinates":{"lat":"25.597686","long":"56.276736"}},{"country":"ae","city":"Daba al-Hisn","coordinates":{"lat":"25.619547","long":"56.272912"}},{"country":"ae","city":"Daba","coordinates":{"lat":"25.619547","long":"56.272912"}},{"country":"ae","city":"Dabei","coordinates":{"lat":"25.258172","long":"55.304717"}},{"country":"ae","city":"Dadna","coordinates":{"lat":"25.524217","long":"56.35868"}},{"country":"ae","city":"Dadnah","coordinates":{"lat":"25.524217","long":"56.35868"}},{"country":"ae","city":"Dafir","coordinates":{"lat":"23.127315","long":"53.754393"}},{"country":"ae","city":"Dafta","coordinates":{"lat":"25.272255","long":"56.183534"}},{"country":"ae","city":"Daira","coordinates":{"lat":"25.273069","long":"55.306374"}},{"country":"ae","city":"Dairah","coordinates":{"lat":"25.273069","long":"55.306374"}},{"country":"ae","city":"Dasa","coordinates":{"lat":"24.278385","long":"52.623689"}},{"country":"ae","city":"Datta","coordinates":{"lat":"25.272255","long":"56.183534"}},{"country":"ae","city":"Dayd","coordinates":{"lat":"25.288123","long":"55.881571"}},{"country":"ae","city":"Deira","coordinates":{"lat":"25.273069","long":"55.306374"}},{"country":"ae","city":"Dhadna","coordinates":{"lat":"25.524217","long":"56.35868"}},{"country":"ae","city":"Dhafir","coordinates":{"lat":"23.127315","long":"53.754393"}},{"country":"ae","city":"Dhaiah","coordinates":{"lat":"25.887843","long":"56.058239"}},{"country":"ae","city":"Dhaid","coordinates":{"lat":"25.288123","long":"55.881571"}},{"country":"ae","city":"Dhaiyah","coordinates":{"lat":"25.887843","long":"56.058239"}},{"country":"ae","city":"Dhawaihir","coordinates":{"lat":"23.283333","long":"53.2"}},{"country":"ae","city":"Dhayd","coordinates":{"lat":"25.288123","long":"55.881571"}},{"country":"ae","city":"Dhuwaiher","coordinates":{"lat":"23.139159","long":"53.693403"}},{"country":"ae","city":"Diba al Hisn","coordinates":{"lat":"25.619547","long":"56.272912"}},{"country":"ae","city":"Dibah","coordinates":{"lat":"25.619547","long":"56.272912"}},{"country":"ae","city":"Dibai","coordinates":{"lat":"25.258172","long":"55.304717"}},{"country":"ae","city":"Dibay","coordinates":{"lat":"25.258172","long":"55.304717"}},{"country":"ae","city":"Dibba","coordinates":{"lat":"25.619547","long":"56.272912"}},{"country":"ae","city":"Dibbah","coordinates":{"lat":"25.619547","long":"56.272912"}},{"country":"ae","city":"Digdagga","coordinates":{"lat":"25.665602","long":"55.969045"}},{"country":"ae","city":"Diq Duqqah","coordinates":{"lat":"25.665602","long":"55.969045"}},{"country":"ae","city":"Dirah","coordinates":{"lat":"25.273069","long":"55.306374"}},{"country":"ae","city":"Dubai","coordinates":{"lat":"25.258172","long":"55.304717"}},{"country":"ae","city":"Dubay","coordinates":{"lat":"25.258172","long":"55.304717"}},{"country":"ae","city":"Duhayd","coordinates":{"lat":"25.288123","long":"55.881571"}},{"country":"ae","city":"Duwaihir","coordinates":{"lat":"23.283333","long":"53.2"}},{"country":"ae","city":"Duwayhin","coordinates":{"lat":"23.077341","long":"54.084222"}},{"country":"ae","city":"El Ain","coordinates":{"lat":"24.212717","long":"55.783488"}},{"country":"ae","city":"Fahlain","coordinates":{"lat":"25.684119","long":"55.967495"}},{"country":"ae","city":"Fahlayn","coordinates":{"lat":"25.684119","long":"55.967495"}},{"country":"ae","city":"Faiyada","coordinates":{"lat":"24.957746","long":"56.205983"}},{"country":"ae","city":"Fakkan","coordinates":{"lat":"25.331324","long":"56.341993"}},{"country":"ae","city":"Falaiya","coordinates":{"lat":"25.734805","long":"55.982845"}},{"country":"ae","city":"Falaiyah","coordinates":{"lat":"25.734805","long":"55.982845"}},{"country":"ae","city":"Falaj al Ali","coordinates":{"lat":"25.354005","long":"55.853315"}},{"country":"ae","city":"Falaj Ibn Mu'alla","coordinates":{"lat":"25.354005","long":"55.853315"}},{"country":"ae","city":"Falj Al `Ali","coordinates":{"lat":"25.354005","long":"55.853315"}},{"country":"ae","city":"Falq Al Ali","coordinates":{"lat":"25.354005","long":"55.853315"}},{"country":"ae","city":"Fara","coordinates":{"lat":"25.414304","long":"56.091233"}},{"country":"ae","city":"Far`","coordinates":{"lat":"25.414304","long":"56.091233"}},{"country":"ae","city":"Farfar","coordinates":{"lat":"25.14844","long":"56.22242"}},{"country":"ae","city":"Fashra","coordinates":{"lat":"24.884097","long":"56.205284"}},{"country":"ae","city":"Fayyadah","coordinates":{"lat":"24.957746","long":"56.205983"}},{"country":"ae","city":"Fili Ma`ala","coordinates":{"lat":"25.354005","long":"55.853315"}},{"country":"ae","city":"Fort Dabei","coordinates":{"lat":"25.258172","long":"55.304717"}},{"country":"ae","city":"Fujaira","coordinates":{"lat":"25.116412","long":"56.341408"}},{"country":"ae","city":"Fujairah","coordinates":{"lat":"25.116412","long":"56.341408"}},{"country":"ae","city":"Fujayrah","coordinates":{"lat":"25.116412","long":"56.341408"}},{"country":"ae","city":"Fulayyah","coordinates":{"lat":"25.734805","long":"55.982845"}},{"country":"ae","city":"Furfar","coordinates":{"lat":"25.14844","long":"56.22242"}},{"country":"ae","city":"Gargaha","coordinates":{"lat":"25.766667","long":"56.066667"}},{"country":"ae","city":"Garmada","coordinates":{"lat":"23.119573","long":"53.828551"}},{"country":"ae","city":"Ge'aisa","coordinates":{"lat":"22.9941","long":"54.221835"}},{"country":"ae","city":"Ghadaf","coordinates":{"lat":"25.28358","long":"56.174102"}},{"country":"ae","city":"Ghail","coordinates":{"lat":"25.401739","long":"56.068063"}},{"country":"ae","city":"Ghail","coordinates":{"lat":"25.006774","long":"56.332905"}},{"country":"ae","city":"Ghalla","coordinates":{"lat":"25.07462","long":"56.355447"}},{"country":"ae","city":"Ghallah","coordinates":{"lat":"25.07462","long":"56.355447"}},{"country":"ae","city":"Ghamara","coordinates":{"lat":"25.294195","long":"56.170094"}},{"country":"ae","city":"Gharaifah","coordinates":{"lat":"25.124965","long":"56.353807"}},{"country":"ae","city":"Gharefa","coordinates":{"lat":"25.124965","long":"56.353807"}},{"country":"ae","city":"Ghob","coordinates":{"lat":"25.565895","long":"56.202173"}},{"country":"ae","city":"Ghubbah","coordinates":{"lat":"26.048889","long":"56.153333"}},{"country":"ae","city":"Ghubbat Khawarah","coordinates":{"lat":"26.042778","long":"56.135"}},{"country":"ae","city":"Ghumrah","coordinates":{"lat":"25.294195","long":"56.170094"}},{"country":"ae","city":"Ghuna","coordinates":{"lat":"25.269944","long":"56.314253"}},{"country":"ae","city":"Ghura","coordinates":{"lat":"25.219662","long":"56.207603"}},{"country":"ae","city":"Ghurayfah","coordinates":{"lat":"25.124965","long":"56.353807"}},{"country":"ae","city":"Ghurfah","coordinates":{"lat":"25.124965","long":"56.353807"}},{"country":"ae","city":"Girath","coordinates":{"lat":"25.260889","long":"56.354349"}},{"country":"ae","city":"Habhab","coordinates":{"lat":"25.61564","long":"56.004413"}},{"country":"ae","city":"Hadaibah","coordinates":{"lat":"25.797674","long":"55.980293"}},{"country":"ae","city":"Hadeiba","coordinates":{"lat":"25.797674","long":"55.980293"}},{"country":"ae","city":"Hadhi","coordinates":{"lat":"23.106423","long":"53.995273"}},{"country":"ae","city":"Hail","coordinates":{"lat":"25.285475","long":"55.329611"}},{"country":"ae","city":"Hail","coordinates":{"lat":"25.092227","long":"56.24418"}},{"country":"ae","city":"Hail","coordinates":{"lat":"25.704979","long":"55.987009"}},{"country":"ae","city":"Haira","coordinates":{"lat":"25.38148","long":"55.419551"}},{"country":"ae","city":"Hair","coordinates":{"lat":"25.38148","long":"55.419551"}},{"country":"ae","city":"Hajarain","coordinates":{"lat":"24.798996","long":"56.115379"}},{"country":"ae","city":"Hajarayn","coordinates":{"lat":"24.798996","long":"56.115379"}},{"country":"ae","city":"Hajrain","coordinates":{"lat":"24.798996","long":"56.115379"}},{"country":"ae","city":"Hama'im","coordinates":{"lat":"22.95805","long":"54.297206"}},{"country":"ae","city":"Hamra","coordinates":{"lat":"25.709102","long":"55.807724"}},{"country":"ae","city":"Hamriya","coordinates":{"lat":"25.478194","long":"55.533768"}},{"country":"ae","city":"Hamriyah","coordinates":{"lat":"25.478194","long":"55.533768"}},{"country":"ae","city":"Hamriyyah","coordinates":{"lat":"25.478194","long":"55.533768"}},{"country":"ae","city":"Harra","coordinates":{"lat":"24.990387","long":"56.216691"}},{"country":"ae","city":"Hayrah","coordinates":{"lat":"25.38148","long":"55.419551"}},{"country":"ae","city":"Hil","coordinates":{"lat":"25.704979","long":"55.987009"}},{"country":"ae","city":"Hili","coordinates":{"lat":"24.28473","long":"55.763302"}},{"country":"ae","city":"Hisn Diba","coordinates":{"lat":"25.619547","long":"56.272912"}},{"country":"ae","city":"Hiweitein","coordinates":{"lat":"23.119039","long":"53.928365"}},{"country":"ae","city":"Hiyawa","coordinates":{"lat":"25.360429","long":"56.347729"}},{"country":"ae","city":"Howeilat","coordinates":{"lat":"24.876638","long":"56.173722"}},{"country":"ae","city":"Humaym","coordinates":{"lat":"22.95805","long":"54.297206"}},{"country":"ae","city":"Husn Dibba","coordinates":{"lat":"25.619547","long":"56.272912"}},{"country":"ae","city":"Huwaila","coordinates":{"lat":"23.152008","long":"53.82462"}},{"country":"ae","city":"Huwaitin","coordinates":{"lat":"23.119039","long":"53.928365"}},{"country":"ae","city":"Huweilah","coordinates":{"lat":"23.152008","long":"53.82462"}},{"country":"ae","city":"Idhn","coordinates":{"lat":"25.460122","long":"56.012562"}},{"country":"ae","city":"Ihaid","coordinates":{"lat":"25.288123","long":"55.881571"}},{"country":"ae","city":"Istaihah","coordinates":{"lat":"23.316096","long":"54.067177"}},{"country":"ae","city":"Isteiha","coordinates":{"lat":"23.316096","long":"54.067177"}},{"country":"ae","city":"Jareef","coordinates":{"lat":"25.514168","long":"56.071944"}},{"country":"ae","city":"Jarmada","coordinates":{"lat":"23.119573","long":"53.828551"}},{"country":"ae","city":"Je`eisah","coordinates":{"lat":"22.9941","long":"54.221835"}},{"country":"ae","city":"Jeraira","coordinates":{"lat":"22.94082","long":"54.310162"}},{"country":"ae","city":"Jereirah","coordinates":{"lat":"22.94082","long":"54.310162"}},{"country":"ae","city":"Jimeirah","coordinates":{"lat":"25.204822","long":"55.246569"}},{"country":"ae","city":"Jimi","coordinates":{"lat":"24.24914","long":"55.745824"}},{"country":"ae","city":"Juhr","coordinates":{"lat":"24.25","long":"55.583333"}},{"country":"ae","city":"Julfa","coordinates":{"lat":"25.789527","long":"55.943196"}},{"country":"ae","city":"Jumairah","coordinates":{"lat":"25.204822","long":"55.246569"}},{"country":"ae","city":"Jumaira","coordinates":{"lat":"25.204822","long":"55.246569"}},{"country":"ae","city":"Jumeira","coordinates":{"lat":"25.204822","long":"55.246569"}},{"country":"ae","city":"Kalbah","coordinates":{"lat":"25.07462","long":"56.355447"}},{"country":"ae","city":"Kayya","coordinates":{"lat":"23.156958","long":"53.685414"}},{"country":"ae","city":"Khaimah","coordinates":{"lat":"25.789527","long":"55.943196"}},{"country":"ae","city":"Khalaibiyah","coordinates":{"lat":"25.381235","long":"56.173576"}},{"country":"ae","city":"Khalaibiya","coordinates":{"lat":"25.381235","long":"56.173576"}},{"country":"ae","city":"Khan","coordinates":{"lat":"25.331412","long":"55.359006"}},{"country":"ae","city":"Khauran","coordinates":{"lat":"25.716175","long":"55.967757"}},{"country":"ae","city":"Khawr al Fakkan","coordinates":{"lat":"25.331324","long":"56.341993"}},{"country":"ae","city":"Khawr al Kalba","coordinates":{"lat":"25.038352","long":"56.362578"}},{"country":"ae","city":"Khawran","coordinates":{"lat":"25.716175","long":"55.967757"}},{"country":"ae","city":"Khawr Mala","coordinates":{"lat":"25.801287","long":"56.351111"}},{"country":"ae","city":"Khawr Za`ab","coordinates":{"lat":"25.038352","long":"56.362578"}},{"country":"ae","city":"Khor al Fakhan","coordinates":{"lat":"25.331324","long":"56.341993"}},{"country":"ae","city":"Khor al Fakkan","coordinates":{"lat":"25.331324","long":"56.341993"}},{"country":"ae","city":"Khor al Kalba","coordinates":{"lat":"25.038352","long":"56.362578"}},{"country":"ae","city":"Khorfakan","coordinates":{"lat":"25.331324","long":"56.341993"}},{"country":"ae","city":"Khorfakhan","coordinates":{"lat":"25.331324","long":"56.341993"}},{"country":"ae","city":"Khor Fakhan","coordinates":{"lat":"25.331324","long":"56.341993"}},{"country":"ae","city":"Khor Fakkan","coordinates":{"lat":"25.331324","long":"56.341993"}},{"country":"ae","city":"Khor Kalba","coordinates":{"lat":"25.038352","long":"56.362578"}},{"country":"ae","city":"Khor Khuwair","coordinates":{"lat":"25.965765","long":"56.054708"}},{"country":"ae","city":"Khouran","coordinates":{"lat":"25.716175","long":"55.967757"}},{"country":"ae","city":"Khubakhib","coordinates":{"lat":"25.452002","long":"56.093755"}},{"country":"ae","city":"Khuwair","coordinates":{"lat":"25.965765","long":"56.054708"}},{"country":"ae","city":"Kuways","coordinates":{"lat":"25.78102","long":"55.978696"}},{"country":"ae","city":"Laiyah","coordinates":{"lat":"25.353969","long":"55.37189"}},{"country":"ae","city":"Laiya","coordinates":{"lat":"25.353969","long":"55.37189"}},{"country":"ae","city":"Laiyya","coordinates":{"lat":"25.353969","long":"55.37189"}},{"country":"ae","city":"Latir","coordinates":{"lat":"23.162612","long":"53.73617"}},{"country":"ae","city":"Lisaili","coordinates":{"lat":"25.62676","long":"56.008144"}},{"country":"ae","city":"Lulaiyah","coordinates":{"lat":"25.392581","long":"56.354636"}},{"country":"ae","city":"Luliyyah","coordinates":{"lat":"25.392581","long":"56.354636"}},{"country":"ae","city":"Lu'lu'iyah","coordinates":{"lat":"25.392581","long":"56.354636"}},{"country":"ae","city":"Luluya","coordinates":{"lat":"25.392581","long":"56.354636"}},{"country":"ae","city":"Lumweijah","coordinates":{"lat":"24.201667","long":"55.716389"}},{"country":"ae","city":"Ma'airidh","coordinates":{"lat":"25.810519","long":"55.9647"}},{"country":"ae","city":"Ma'aridh","coordinates":{"lat":"25.810519","long":"55.9647"}},{"country":"ae","city":"Ma`arid","coordinates":{"lat":"25.810519","long":"55.9647"}},{"country":"ae","city":"Ma'ataradh","coordinates":{"lat":"24.218997","long":"55.739888"}},{"country":"ae","city":"Ma'ataridh","coordinates":{"lat":"24.218997","long":"55.739888"}},{"country":"ae","city":"Madaq","coordinates":{"lat":"25.339118","long":"56.104939"}},{"country":"ae","city":"Madha","coordinates":{"lat":"25.283447","long":"56.332801"}},{"country":"ae","city":"Madinat Za'id","coordinates":{"lat":"23.630726","long":"53.729897"}},{"country":"ae","city":"Magrobiyya","coordinates":{"lat":"25.2","long":"56.05"}},{"country":"ae","city":"Mahtarraqah","coordinates":{"lat":"25.540918","long":"56.130664"}},{"country":"ae","city":"Maidaq","coordinates":{"lat":"25.339118","long":"56.104939"}},{"country":"ae","city":"Manai'i","coordinates":{"lat":"24.951349","long":"56.149968"}},{"country":"ae","city":"Manai","coordinates":{"lat":"24.951349","long":"56.149968"}},{"country":"ae","city":"Manamah","coordinates":{"lat":"25.329901","long":"56.021884"}},{"country":"ae","city":"Manama","coordinates":{"lat":"25.329901","long":"56.021884"}},{"country":"ae","city":"Manqasnah","coordinates":{"lat":"26.035","long":"56.148611"}},{"country":"ae","city":"Marawah","coordinates":{"lat":"24.294566","long":"53.330688"}},{"country":"ae","city":"Marbad","coordinates":{"lat":"25.325405","long":"56.133112"}},{"country":"ae","city":"Marbah","coordinates":{"lat":"25.276233","long":"56.362558"}},{"country":"ae","city":"Ma`rid","coordinates":{"lat":"25.810519","long":"55.9647"}},{"country":"ae","city":"Mas`adi","coordinates":{"lat":"24.266272","long":"55.741227"}},{"country":"ae","city":"Mashrub","coordinates":{"lat":"23.076461","long":"54.013474"}},{"country":"ae","city":"Mas'ud","coordinates":{"lat":"24.266272","long":"55.741227"}},{"country":"ae","city":"Mausal","coordinates":{"lat":"23.013531","long":"54.154475"}},{"country":"ae","city":"Mausil","coordinates":{"lat":"23.013531","long":"54.154475"}},{"country":"ae","city":"Mawsal","coordinates":{"lat":"23.013531","long":"54.154475"}},{"country":"ae","city":"Ma`yarid","coordinates":{"lat":"25.810519","long":"55.9647"}},{"country":"ae","city":"Mezaira'a","coordinates":{"lat":"23.143549","long":"53.788097"}},{"country":"ae","city":"Milqata","coordinates":{"lat":"23.066667","long":"53.533333"}},{"country":"ae","city":"Mirba","coordinates":{"lat":"25.276233","long":"56.362558"}},{"country":"ae","city":"Mirbih","coordinates":{"lat":"25.276233","long":"56.362558"}},{"country":"ae","city":"Mirfah","coordinates":{"lat":"24.099107","long":"53.490769"}},{"country":"ae","city":"Mirfa","coordinates":{"lat":"24.099107","long":"53.490769"}},{"country":"ae","city":"Mizeir`ah","coordinates":{"lat":"23.143549","long":"53.788097"}},{"country":"ae","city":"Mondafanah","coordinates":{"lat":"24.116667","long":"55.8"}},{"country":"ae","city":"Mondafinah","coordinates":{"lat":"24.116667","long":"55.8"}},{"country":"ae","city":"Mozayri`","coordinates":{"lat":"23.143549","long":"53.788097"}},{"country":"ae","city":"Muaifi","coordinates":{"lat":"25.361667","long":"56.344722"}},{"country":"ae","city":"Mughairah","coordinates":{"lat":"24.07843","long":"53.53842"}},{"country":"ae","city":"Mughaira","coordinates":{"lat":"24.07843","long":"53.53842"}},{"country":"ae","city":"Mugharah","coordinates":{"lat":"24.07843","long":"53.53842"}},{"country":"ae","city":"Mughayrah","coordinates":{"lat":"24.07843","long":"53.53842"}},{"country":"ae","city":"Muhtarqah","coordinates":{"lat":"25.540918","long":"56.130664"}},{"country":"ae","city":"Mukhtaraja","coordinates":{"lat":"25.540918","long":"56.130664"}},{"country":"ae","city":"Mundafnah","coordinates":{"lat":"24.116667","long":"55.8"}},{"country":"ae","city":"Murawwah","coordinates":{"lat":"24.294566","long":"53.330688"}},{"country":"ae","city":"Musafi","coordinates":{"lat":"25.301285","long":"56.165306"}},{"country":"ae","city":"Musaifi","coordinates":{"lat":"25.301285","long":"56.165306"}},{"country":"ae","city":"Mushayrib","coordinates":{"lat":"23.076461","long":"54.013474"}},{"country":"ae","city":"Musil","coordinates":{"lat":"23.013531","long":"54.154475"}},{"country":"ae","city":"Mutaradh","coordinates":{"lat":"24.218997","long":"55.739888"}},{"country":"ae","city":"Mu`tarad","coordinates":{"lat":"24.218997","long":"55.739888"}},{"country":"ae","city":"Mutarad","coordinates":{"lat":"24.218997","long":"55.739888"}},{"country":"ae","city":"Muwafi","coordinates":{"lat":"25.361667","long":"56.344722"}},{"country":"ae","city":"Nadd Shubayh","coordinates":{"lat":"25.145833","long":"55.334167"}},{"country":"ae","city":"Nad Shibeih","coordinates":{"lat":"25.145833","long":"55.334167"}},{"country":"ae","city":"Nahai","coordinates":{"lat":"25.270744","long":"56.36242"}},{"country":"ae","city":"Nahawa","coordinates":{"lat":"25.268233","long":"56.280016"}},{"country":"ae","city":"Nashshash","coordinates":{"lat":"23.081096","long":"54.036351"}},{"country":"ae","city":"Naslah","coordinates":{"lat":"24.865864","long":"56.260851"}},{"country":"ae","city":"Nasla","coordinates":{"lat":"24.865864","long":"56.260851"}},{"country":"ae","city":"Nedaifi","coordinates":{"lat":"25.361667","long":"56.344722"}},{"country":"ae","city":"Nefair","coordinates":{"lat":"23.103933","long":"53.789186"}},{"country":"ae","city":"Nishash","coordinates":{"lat":"23.081096","long":"54.036351"}},{"country":"ae","city":"Nuslah","coordinates":{"lat":"24.865864","long":"56.260851"}},{"country":"ae","city":"'Odaid","coordinates":{"lat":"24.616667","long":"51.4"}},{"country":"ae","city":"Palhain","coordinates":{"lat":"25.684119","long":"55.967495"}},{"country":"ae","city":"Port Khor Fakkan","coordinates":{"lat":"25.331324","long":"56.341993"}},{"country":"ae","city":"Qalba","coordinates":{"lat":"25.07462","long":"56.355447"}},{"country":"ae","city":"Qamh","coordinates":{"lat":"24.786677","long":"56.141429"}},{"country":"ae","city":"Qaraiyah","coordinates":{"lat":"25.23779","long":"56.36128"}},{"country":"ae","city":"Qaraiyat","coordinates":{"lat":"25.23779","long":"56.36128"}},{"country":"ae","city":"Qarat ad Dulm","coordinates":{"lat":"25.860278","long":"56.025"}},{"country":"ae","city":"Qarat al Dum","coordinates":{"lat":"25.860278","long":"56.025"}},{"country":"ae","city":"Qarmadah","coordinates":{"lat":"23.119573","long":"53.828551"}},{"country":"ae","city":"Qatarah","coordinates":{"lat":"24.259929","long":"55.755658"}},{"country":"ae","city":"Qatara","coordinates":{"lat":"24.259929","long":"55.755658"}},{"country":"ae","city":"Qattara","coordinates":{"lat":"24.259929","long":"55.755658"}},{"country":"ae","city":"Qatuf","coordinates":{"lat":"23.109707","long":"53.727378"}},{"country":"ae","city":"Qidfa","coordinates":{"lat":"25.304259","long":"56.370338"}},{"country":"ae","city":"Qidfi`","coordinates":{"lat":"25.304259","long":"56.370338"}},{"country":"ae","city":"Qima","coordinates":{"lat":"24.786677","long":"56.141429"}},{"country":"ae","city":"Qimh","coordinates":{"lat":"24.786677","long":"56.141429"}},{"country":"ae","city":"Quor","coordinates":{"lat":"24.912136","long":"56.095661"}},{"country":"ae","city":"Qurayyah","coordinates":{"lat":"25.23779","long":"56.36128"}},{"country":"ae","city":"Qusaidat","coordinates":{"lat":"25.774612","long":"55.970016"}},{"country":"ae","city":"Qutuf","coordinates":{"lat":"23.102624","long":"53.711588"}},{"country":"ae","city":"Ramla","coordinates":{"lat":"25.359789","long":"56.044519"}},{"country":"ae","city":"Raml Sabil","coordinates":{"lat":"25.204083","long":"55.287499"}},{"country":"ae","city":"Raml Za`bil","coordinates":{"lat":"25.204083","long":"55.287499"}},{"country":"ae","city":"Rams","coordinates":{"lat":"25.876579","long":"56.018619"}},{"country":"ae","city":"Ras al Khaimah","coordinates":{"lat":"25.789527","long":"55.943196"}},{"country":"ae","city":"Ras al Khaima","coordinates":{"lat":"25.789527","long":"55.943196"}},{"country":"ae","city":"Ras Dibba","coordinates":{"lat":"25.605489","long":"56.304998"}},{"country":"ae","city":"Rashdia","coordinates":{"lat":"25.223647","long":"55.388943"}},{"country":"ae","city":"Rashidiyah","coordinates":{"lat":"25.223647","long":"55.388943"}},{"country":"ae","city":"Righeilat","coordinates":{"lat":"25.105516","long":"56.356301"}},{"country":"ae","city":"Riyama","coordinates":{"lat":"25.545635","long":"56.058359"}},{"country":"ae","city":"Rol Dadnah","coordinates":{"lat":"25.554814","long":"56.345455"}},{"country":"ae","city":"Rugheilat","coordinates":{"lat":"25.105516","long":"56.356301"}},{"country":"ae","city":"Rul Dabbah","coordinates":{"lat":"25.601056","long":"56.322797"}},{"country":"ae","city":"Rul Dadnah","coordinates":{"lat":"25.554814","long":"56.345455"}},{"country":"ae","city":"Rul Dhadna","coordinates":{"lat":"25.554814","long":"56.345455"}},{"country":"ae","city":"Rul Dibah","coordinates":{"lat":"25.601056","long":"56.322797"}},{"country":"ae","city":"Rul Dibba","coordinates":{"lat":"25.601056","long":"56.322797"}},{"country":"ae","city":"Ruwais","coordinates":{"lat":"24.110278","long":"52.730556"}},{"country":"ae","city":"Sa`bah","coordinates":{"lat":"24.994167","long":"56.025"}},{"country":"ae","city":"Sabakha","coordinates":{"lat":"23.3","long":"53.85"}},{"country":"ae","city":"Sabkha","coordinates":{"lat":"23.129169","long":"53.981808"}},{"country":"ae","city":"Sabukhah","coordinates":{"lat":"23.129169","long":"53.981808"}},{"country":"ae","city":"Sahawat","coordinates":{"lat":"25.966667","long":"56.083333"}},{"country":"ae","city":"Sakamkam","coordinates":{"lat":"25.174666","long":"56.330388"}},{"country":"ae","city":"Sal","coordinates":{"lat":"25.936667","long":"56.172222"}},{"country":"ae","city":"Shaam","coordinates":{"lat":"26.027895","long":"56.083518"}},{"country":"ae","city":"Sha`m","coordinates":{"lat":"26.027895","long":"56.083518"}},{"country":"ae","city":"Sharam","coordinates":{"lat":"25.470778","long":"56.353193"}},{"country":"ae","city":"Sharga","coordinates":{"lat":"25.35731","long":"55.403304"}},{"country":"ae","city":"Sharijah","coordinates":{"lat":"25.35731","long":"55.403304"}},{"country":"ae","city":"Shariqah","coordinates":{"lat":"25.35731","long":"55.403304"}},{"country":"ae","city":"Sharjah","coordinates":{"lat":"25.35731","long":"55.403304"}},{"country":"ae","city":"Sharja","coordinates":{"lat":"25.35731","long":"55.403304"}},{"country":"ae","city":"Shauka","coordinates":{"lat":"25.1","long":"56.033333"}},{"country":"ae","city":"Shib al Gat","coordinates":{"lat":"24.052778","long":"55.719722"}},{"country":"ae","city":"Shimil","coordinates":{"lat":"25.817799","long":"56.010876"}},{"country":"ae","city":"Shokah","coordinates":{"lat":"25.1","long":"56.033333"}},{"country":"ae","city":"Shuways","coordinates":{"lat":"25.78102","long":"55.978696"}},{"country":"ae","city":"Sram","coordinates":{"lat":"25.498176","long":"56.057156"}},{"country":"ae","city":"Sufad","coordinates":{"lat":"25.221646","long":"56.323896"}},{"country":"ae","city":"Suheila","coordinates":{"lat":"24.803878","long":"56.194487"}},{"country":"ae","city":"Sulaymat","coordinates":{"lat":"24.221944","long":"55.603056"}},{"country":"ae","city":"Sumbrair","coordinates":{"lat":"25.600825","long":"56.284401"}},{"country":"ae","city":"Taiyibah","coordinates":{"lat":"25.412279","long":"56.170748"}},{"country":"ae","city":"Taraif","coordinates":{"lat":"24.053988","long":"53.763468"}},{"country":"ae","city":"Tawian","coordinates":{"lat":"25.556755","long":"56.076472"}},{"country":"ae","city":"Tawi as Siji","coordinates":{"lat":"25.247638","long":"56.077192"}},{"country":"ae","city":"Tawi Siji","coordinates":{"lat":"25.247638","long":"56.077192"}},{"country":"ae","city":"Tayibah","coordinates":{"lat":"25.412279","long":"56.170748"}},{"country":"ae","city":"Tayiban","coordinates":{"lat":"25.412279","long":"56.170748"}},{"country":"ae","city":"Tayyibah","coordinates":{"lat":"25.412279","long":"56.170748"}},{"country":"ae","city":"Tereg","coordinates":{"lat":"23.11656","long":"53.606972"}},{"country":"ae","city":"Tharwaniyyah","coordinates":{"lat":"23.110884","long":"54.015715"}},{"country":"ae","city":"Tharwaniyya","coordinates":{"lat":"23.110884","long":"54.015715"}},{"country":"ae","city":"Theeb","coordinates":{"lat":"25.245013","long":"56.342062"}},{"country":"ae","city":"Thoban","coordinates":{"lat":"25.303319","long":"56.027919"}},{"country":"ae","city":"Ud al Beida","coordinates":{"lat":"25.016249","long":"55.455331"}},{"country":"ae","city":"`Ujman","coordinates":{"lat":"25.406942","long":"55.444126"}},{"country":"ae","city":"Um al Quweim","coordinates":{"lat":"25.56473","long":"55.555166"}},{"country":"ae","city":"Umm al Qaiwain","coordinates":{"lat":"25.56473","long":"55.555166"}},{"country":"ae","city":"Umm al Qawain","coordinates":{"lat":"25.56473","long":"55.555166"}},{"country":"ae","city":"Umm as Suqaym","coordinates":{"lat":"25.150151","long":"55.205866"}},{"country":"ae","city":"Umm Grain","coordinates":{"lat":"23.1","long":"53.716667"}},{"country":"ae","city":"`Umm Qrein","coordinates":{"lat":"23.1","long":"53.716667"}},{"country":"ae","city":"`Uyaynah","coordinates":{"lat":"25.452828","long":"56.16879"}},{"country":"ae","city":"Wa'abain","coordinates":{"lat":"25.57046","long":"56.135356"}},{"country":"ae","city":"Waafit","coordinates":{"lat":"23.102624","long":"53.711588"}},{"country":"ae","city":"Wafid","coordinates":{"lat":"23.102624","long":"53.711588"}},{"country":"ae","city":"Wahala","coordinates":{"lat":"24.908972","long":"56.303165"}},{"country":"ae","city":"Wedheil","coordinates":{"lat":"23.047399","long":"54.133321"}},{"country":"ae","city":"Wefid","coordinates":{"lat":"23.102624","long":"53.711588"}},{"country":"ae","city":"Western Mariyyah","coordinates":{"lat":"23.102651","long":"53.581849"}},{"country":"ae","city":"Wudhayl","coordinates":{"lat":"23.047399","long":"54.133321"}},{"country":"ae","city":"Yaif","coordinates":{"lat":"23.157861","long":"53.777623"}},{"country":"ae","city":"Yalah","coordinates":{"lat":"25.415171","long":"56.154957"}},{"country":"ae","city":"Yumul al Quwain","coordinates":{"lat":"25.56473","long":"55.555166"}},{"country":"ae","city":"Zayah","coordinates":{"lat":"25.887843","long":"56.058239"}},{"country":"ae","city":"Zubara","coordinates":{"lat":"25.404867","long":"56.359707"}},{"country":"ae","city":"Zuweihir","coordinates":{"lat":"23.139159","long":"53.693403"}}]