[{"country":"in","city":"Aajpur","coordinates":{"lat":"32.491207","long":"74.755827"}},{"country":"in","city":"Abad","coordinates":{"lat":"22.432778","long":"88.777778"}},{"country":"in","city":"Abadgarh","coordinates":{"lat":"29.581389","long":"77.39"}},{"country":"in","city":"Abadi Rajgir","coordinates":{"lat":"27.0288","long":"79.9617"}},{"country":"in","city":"Abadpura","coordinates":{"lat":"31.316667","long":"75.566667"}},{"country":"in","city":"Abaibani","coordinates":{"lat":"22.3","long":"86.933333"}},{"country":"in","city":"Abara","coordinates":{"lat":"21.733333","long":"78.566667"}},{"country":"in","city":"Abbigeri","coordinates":{"lat":"15.583333","long":"75.766667"}},{"country":"in","city":"Abdalpur","coordinates":{"lat":"30.2462","long":"76.5969"}},{"country":"in","city":"Abdalpur","coordinates":{"lat":"29.723889","long":"77.495556"}},{"country":"in","city":"Abdul","coordinates":{"lat":"19.666667","long":"76.883333"}},{"country":"in","city":"Abdullahgarh","coordinates":{"lat":"30.1685","long":"76.9543"}},{"country":"in","city":"Abdullahnagar","coordinates":{"lat":"27.6932","long":"79.7329"}},{"country":"in","city":"Abdullahpur","coordinates":{"lat":"30.1","long":"77.283333"}},{"country":"in","city":"Abdullahpur","coordinates":{"lat":"30.404167","long":"77.887222"}},{"country":"in","city":"Abdullanpur","coordinates":{"lat":"30.159444","long":"77.771944"}},{"country":"in","city":"Abdullapur","coordinates":{"lat":"17.321944","long":"78.695"}},{"country":"in","city":"Abdullapur","coordinates":{"lat":"28.107778","long":"76.075556"}},{"country":"in","city":"Abdullapur","coordinates":{"lat":"24.35","long":"92.3"}},{"country":"in","city":"Abdullapur","coordinates":{"lat":"27.08","long":"79.8773"}},{"country":"in","city":"Abdullapuram","coordinates":{"lat":"12.783333","long":"79.666667"}},{"country":"in","city":"Abdullapur Mustaqil","coordinates":{"lat":"26.4247","long":"79.4677"}},{"country":"in","city":"Abdullun","coordinates":{"lat":"34.533333","long":"75.266667"}},{"country":"in","city":"Aberdeen","coordinates":{"lat":"11.666667","long":"92.733333"}},{"country":"in","city":"Abersa","coordinates":{"lat":"14.733333","long":"74.3"}},{"country":"in","city":"Abhaipura","coordinates":{"lat":"26.7707","long":"75.722"}},{"country":"in","city":"Abhaipur","coordinates":{"lat":"27.033333","long":"94.333333"}},{"country":"in","city":"Abhaipur","coordinates":{"lat":"27.0697","long":"79.3726"}},{"country":"in","city":"Abhana","coordinates":{"lat":"23.7","long":"79.533333"}},{"country":"in","city":"Abhanpur","coordinates":{"lat":"21.05","long":"81.716667"}},{"country":"in","city":"Abhapuri","coordinates":{"lat":"21.716667","long":"76.066667"}},{"country":"in","city":"Abhayapuri","coordinates":{"lat":"26.333333","long":"90.666667"}},{"country":"in","city":"Abhepur","coordinates":{"lat":"30.6748","long":"76.8396"}},{"country":"in","city":"Abhgaon","coordinates":{"lat":"27.8984","long":"79.3154"}},{"country":"in","city":"Abhiasa","coordinates":{"lat":"27.8959","long":"79.2715"}},{"country":"in","city":"Abhinaipur","coordinates":{"lat":"26.8262","long":"79.0588"}},{"country":"in","city":"Abhipur","coordinates":{"lat":"27.9695","long":"79.3909"}},{"country":"in","city":"Abhiramapuram","coordinates":{"lat":"13.027778","long":"80.2575"}},{"country":"in","city":"Abhona","coordinates":{"lat":"20.483333","long":"73.916667"}},{"country":"in","city":"Abiramam","coordinates":{"lat":"9.466667","long":"78.45"}},{"country":"in","city":"Ablu","coordinates":{"lat":"30.35","long":"74.8"}},{"country":"in","city":"Abohar","coordinates":{"lat":"30.15","long":"74.183333"}},{"country":"in","city":"Abomgaon","coordinates":{"lat":"26.716667","long":"94.116667"}},{"country":"in","city":"Abring","coordinates":{"lat":"33.7","long":"76.583333"}},{"country":"in","city":"Abtare Chak","coordinates":{"lat":"32.616667","long":"74.866667"}},{"country":"in","city":"Abu","coordinates":{"lat":"24.6","long":"72.7"}},{"country":"in","city":"Abul Kharana","coordinates":{"lat":"30.15","long":"74.55"}},{"country":"in","city":"Abullahpur Kanar","coordinates":{"lat":"26.328","long":"79.3441"}},{"country":"in","city":"Abur","coordinates":{"lat":"34.058333","long":"74.534722"}},{"country":"in","city":"Abu Road","coordinates":{"lat":"24.483333","long":"72.783333"}},{"country":"in","city":"Abusar","coordinates":{"lat":"28.1013","long":"75.3386"}},{"country":"in","city":"Abusar ka Bas","coordinates":{"lat":"28.098","long":"75.3347"}},{"country":"in","city":"Acaro","coordinates":{"lat":"15.533333","long":"73.933333"}},{"country":"in","city":"Accarapatam","coordinates":{"lat":"10.883333","long":"79.833333"}},{"country":"in","city":"Acchabal","coordinates":{"lat":"33.683333","long":"75.233333"}},{"country":"in","city":"Achad","coordinates":{"lat":"20.216667","long":"72.883333"}},{"country":"in","city":"Achalda","coordinates":{"lat":"26.716667","long":"79.416667"}},{"country":"in","city":"Achalpur","coordinates":{"lat":"21.257222","long":"77.508611"}},{"country":"in","city":"Achampet","coordinates":{"lat":"16.65","long":"80.133333"}},{"country":"in","city":"Achanakmar","coordinates":{"lat":"22.416667","long":"81.85"}},{"country":"in","city":"Achankapur","coordinates":{"lat":"26.956","long":"79.7209"}},{"country":"in","city":"Achankovil","coordinates":{"lat":"9.1","long":"77.133333"}},{"country":"in","city":"Acharapokam","coordinates":{"lat":"12.416667","long":"79.816667"}},{"country":"in","city":"Achat","coordinates":{"lat":"24.9811","long":"79.3616"}},{"country":"in","city":"Achausa","coordinates":{"lat":"25.6387","long":"79.0478"}},{"country":"in","city":"Achcharapakkam","coordinates":{"lat":"12.416667","long":"79.816667"}},{"country":"in","city":"Acheshon","coordinates":{"lat":"28.9","long":"95.966667"}},{"country":"in","city":"Achhabal","coordinates":{"lat":"33.683333","long":"75.233333"}},{"country":"in","city":"Achhahad","coordinates":{"lat":"33.658333","long":"74.063889"}},{"country":"in","city":"Achhawal","coordinates":{"lat":"33.683333","long":"75.233333"}},{"country":"in","city":"Achhayyapalli","coordinates":{"lat":"17.709167","long":"78.574444"}},{"country":"in","city":"Achhelankhera","coordinates":{"lat":"24.6157","long":"79.1169"}},{"country":"in","city":"Achhibal","coordinates":{"lat":"33.683333","long":"75.233333"}},{"country":"in","city":"Achhnera","coordinates":{"lat":"27.183333","long":"77.766667"}},{"country":"in","city":"Achhota","coordinates":{"lat":"20.671944","long":"81.58"}},{"country":"in","city":"Achina","coordinates":{"lat":"28.683333","long":"76.366667"}},{"country":"in","city":"Achina","coordinates":{"lat":"27.066667","long":"73.316667"}},{"country":"in","city":"Achintpur","coordinates":{"lat":"27.872","long":"79.4768"}},{"country":"in","city":"Achirik","coordinates":{"lat":"34.133333","long":"77.2"}},{"country":"in","city":"Achna","coordinates":{"lat":"22.132778","long":"88.33"}},{"country":"in","city":"Achnapalli","coordinates":{"lat":"17.9925","long":"78.081389"}},{"country":"in","city":"Achnera","coordinates":{"lat":"27.183333","long":"77.766667"}},{"country":"in","city":"Achra","coordinates":{"lat":"16.216667","long":"73.466667"}},{"country":"in","city":"Achrala","coordinates":{"lat":"26.7633","long":"75.7378"}},{"country":"in","city":"Achrauli","coordinates":{"lat":"26.4847","long":"79.2218"}},{"country":"in","city":"Ackamal","coordinates":{"lat":"34.556944","long":"76.158333"}},{"country":"in","city":"Ada","coordinates":{"lat":"25.75","long":"72.233333"}},{"country":"in","city":"Adaba","coordinates":{"lat":"19.5","long":"84.183333"}},{"country":"in","city":"Adad","coordinates":{"lat":"18.391111","long":"72.950833"}},{"country":"in","city":"Adaitiwala","coordinates":{"lat":"30.1671","long":"76.552"}},{"country":"in","city":"Adalair","coordinates":{"lat":"32.540278","long":"74.85"}},{"country":"in","city":"Adalaj","coordinates":{"lat":"23.166667","long":"72.583333"}},{"country":"in","city":"Adamankotta","coordinates":{"lat":"12.083333","long":"78.116667"}},{"country":"in","city":"Adamankottai","coordinates":{"lat":"12.083333","long":"78.116667"}},{"country":"in","city":"Adambakkam","coordinates":{"lat":"12.9925","long":"80.204444"}},{"country":"in","city":"Adampur","coordinates":{"lat":"18.183333","long":"77.633333"}},{"country":"in","city":"Adampur","coordinates":{"lat":"31.432778","long":"75.7175"}},{"country":"in","city":"Adampur","coordinates":{"lat":"29.75","long":"78.116667"}},{"country":"in","city":"Adampur Makhan","coordinates":{"lat":"26.898","long":"79.5339"}},{"country":"in","city":"Adampur Umed","coordinates":{"lat":"26.9257","long":"79.5028"}},{"country":"in","city":"Adamwala Kera","coordinates":{"lat":"29.05","long":"72.983333"}},{"country":"in","city":"Adan","coordinates":{"lat":"30.496111","long":"77.755278"}},{"country":"in","city":"Adanakkottai","coordinates":{"lat":"10.55","long":"78.966667"}},{"country":"in","city":"Adanur","coordinates":{"lat":"12.033333","long":"78.983333"}},{"country":"in","city":"Adapur","coordinates":{"lat":"26.95","long":"84.966667"}},{"country":"in","city":"Adarki","coordinates":{"lat":"17.916667","long":"74.216667"}},{"country":"in","city":"Adarki Buzurg","coordinates":{"lat":"17.916667","long":"74.216667"}},{"country":"in","city":"Adas","coordinates":{"lat":"18.766667","long":"76.233333"}},{"country":"in","city":"Adas Bidh","coordinates":{"lat":"18.766667","long":"76.233333"}},{"country":"in","city":"Adavad","coordinates":{"lat":"21.216667","long":"75.45"}},{"country":"in","city":"Adbadri","coordinates":{"lat":"30.15","long":"79.25"}},{"country":"in","city":"Adbhar","coordinates":{"lat":"21.95","long":"83.033333"}},{"country":"in","city":"Adda","coordinates":{"lat":"26.7684","long":"79.0718"}},{"country":"in","city":"Adda Nihal","coordinates":{"lat":"26.7639","long":"79.0536"}},{"country":"in","city":"Addanki","coordinates":{"lat":"15.816667","long":"79.983333"}},{"country":"in","city":"Addatigala","coordinates":{"lat":"17.483333","long":"82.016667"}},{"country":"in","city":"Adda Tila","coordinates":{"lat":"26.7818","long":"79.0444"}},{"country":"in","city":"Adda Tujsiram","coordinates":{"lat":"26.7931","long":"79.0381"}},{"country":"in","city":"Adda Usara","coordinates":{"lat":"26.8004","long":"79.0318"}},{"country":"in","city":"Addu Majra","coordinates":{"lat":"30.2332","long":"76.7345"}},{"country":"in","city":"Adegaon","coordinates":{"lat":"22.616667","long":"79.483333"}},{"country":"in","city":"Adesar","coordinates":{"lat":"23.55","long":"70.983333"}},{"country":"in","city":"Adgal","coordinates":{"lat":"16.433333","long":"74.85"}},{"country":"in","city":"Adgaon","coordinates":{"lat":"18.2225","long":"72.948333"}},{"country":"in","city":"Adhaia","coordinates":{"lat":"27.1975","long":"79.8314"}},{"country":"in","city":"Adhatal","coordinates":{"lat":"22.865","long":"88.527778"}},{"country":"in","city":"Adhaun","coordinates":{"lat":"30.024","long":"76.8274"}},{"country":"in","city":"Adhaura","coordinates":{"lat":"24.7","long":"83.616667"}},{"country":"in","city":"Adhe","coordinates":{"lat":"17.916667","long":"73.083333"}},{"country":"in","city":"Adhoi","coordinates":{"lat":"23.4","long":"70.516667"}},{"country":"in","city":"Adhonigarh","coordinates":{"lat":"20.516667","long":"84.466667"}},{"country":"in","city":"Adi","coordinates":{"lat":"18.389167","long":"72.930278"}},{"country":"in","city":"Adibatla","coordinates":{"lat":"17.231389","long":"78.542778"}},{"country":"in","city":"Adilabad","coordinates":{"lat":"19.666667","long":"78.533333"}},{"country":"in","city":"Adin","coordinates":{"lat":"34.084722","long":"74.594444"}},{"country":"in","city":"Adipanka","coordinates":{"lat":"19.766667","long":"84.166667"}},{"country":"in","city":"Adipur","coordinates":{"lat":"34.270833","long":"74.488889"}},{"country":"in","city":"Adirampatnam","coordinates":{"lat":"10.35","long":"79.4"}},{"country":"in","city":"Adirampattinam","coordinates":{"lat":"10.35","long":"79.4"}},{"country":"in","city":"Adirangam","coordinates":{"lat":"10.483333","long":"79.666667"}},{"country":"in","city":"Aditra Nadi","coordinates":{"lat":"27.596945","long":"71.524326"}},{"country":"in","city":"Adityana","coordinates":{"lat":"21.715556","long":"69.6825"}},{"country":"in","city":"Adiura","coordinates":{"lat":"16.716667","long":"73.35"}},{"country":"in","city":"Adivra","coordinates":{"lat":"16.716667","long":"73.35"}},{"country":"in","city":"Adiyi Masjid","coordinates":{"lat":"17.700278","long":"78.676944"}},{"country":"in","city":"Adki","coordinates":{"lat":"17.116667","long":"77.366667"}},{"country":"in","city":"Adkot","coordinates":{"lat":"22","long":"71.133333"}},{"country":"in","city":"Admapur","coordinates":{"lat":"27.1687","long":"79.4275"}},{"country":"in","city":"Adoli","coordinates":{"lat":"18.266667","long":"73.766667"}},{"country":"in","city":"Adoni","coordinates":{"lat":"15.633333","long":"77.283333"}},{"country":"in","city":"Adra","coordinates":{"lat":"23.5","long":"86.666667"}},{"country":"in","city":"Adri","coordinates":{"lat":"20.961944","long":"70.288611"}},{"country":"in","city":"Adriana","coordinates":{"lat":"23.433333","long":"71.7"}},{"country":"in","city":"Adriyana","coordinates":{"lat":"23.433333","long":"71.7"}},{"country":"in","city":"Adsar","coordinates":{"lat":"28.324167","long":"73.899167"}},{"country":"in","city":"Adsulim","coordinates":{"lat":"15.25","long":"73.916667"}},{"country":"in","city":"Adugiri","coordinates":{"lat":"25.44684","long":"90.222902"}},{"country":"in","city":"Adul","coordinates":{"lat":"19.716667","long":"75.533333"}},{"country":"in","city":"Adul Buzurg","coordinates":{"lat":"19.716667","long":"75.533333"}},{"country":"in","city":"Adul Khurd","coordinates":{"lat":"19.716667","long":"75.533333"}},{"country":"in","city":"Adupur","coordinates":{"lat":"26.9039","long":"79.101"}},{"country":"in","city":"Adur","coordinates":{"lat":"9.166667","long":"76.733333"}},{"country":"in","city":"Adur","coordinates":{"lat":"14.766667","long":"75.25"}},{"country":"in","city":"Aduripalle","coordinates":{"lat":"14.433333","long":"79.6"}},{"country":"in","city":"Aduru","coordinates":{"lat":"12.566667","long":"75.166667"}},{"country":"in","city":"Aduturai","coordinates":{"lat":"11.033333","long":"79.483333"}},{"country":"in","city":"Advi Devalpalli","coordinates":{"lat":"16.666667","long":"79.516667"}},{"country":"in","city":"Advolpale","coordinates":{"lat":"15.633333","long":"73.883333"}},{"country":"in","city":"Advota","coordinates":{"lat":"15.016667","long":"74.016667"}},{"country":"in","city":"Adwal","coordinates":{"lat":"22.433333","long":"71.916667"}},{"country":"in","city":"Adwana","coordinates":{"lat":"21.916667","long":"69.583333"}},{"country":"in","city":"Adwani","coordinates":{"lat":"30.083333","long":"78.716667"}},{"country":"in","city":"Adyal","coordinates":{"lat":"20.933333","long":"79.716667"}},{"country":"in","city":"Adyar","coordinates":{"lat":"20.933333","long":"79.716667"}},{"country":"in","city":"Adyar","coordinates":{"lat":"13.004444","long":"80.258333"}},{"country":"in","city":"Aeta","coordinates":{"lat":"27.183731","long":"71.645608"}},{"country":"in","city":"Afatiapur","coordinates":{"lat":"27.7138","long":"79.727"}},{"country":"in","city":"Afgan","coordinates":{"lat":"29.689167","long":"77.318056"}},{"country":"in","city":"Afzalgarh","coordinates":{"lat":"29.4","long":"78.683333"}},{"country":"in","city":"Afzalpur","coordinates":{"lat":"17.2","long":"76.35"}},{"country":"in","city":"Afzalpur","coordinates":{"lat":"23.966667","long":"75.233333"}},{"country":"in","city":"Afzalpur","coordinates":{"lat":"27.9721","long":"79.3999"}},{"country":"in","city":"Agacaim","coordinates":{"lat":"15.416667","long":"73.9"}},{"country":"in","city":"Agaibani","coordinates":{"lat":"22.3","long":"86.933333"}},{"country":"in","city":"Agalpur","coordinates":{"lat":"21.016667","long":"83.4"}},{"country":"in","city":"Agamani","coordinates":{"lat":"26.2","long":"89.783333"}},{"country":"in","city":"Agar","coordinates":{"lat":"22.033333","long":"73.666667"}},{"country":"in","city":"Agar","coordinates":{"lat":"34.1","long":"74.604167"}},{"country":"in","city":"Agar","coordinates":{"lat":"24.266667","long":"74.166667"}},{"country":"in","city":"Agar","coordinates":{"lat":"23.7","long":"76.016667"}},{"country":"in","city":"Agar","coordinates":{"lat":"24.9122","long":"78.2913"}},{"country":"in","city":"Agaram","coordinates":{"lat":"12.816667","long":"78.883333"}},{"country":"in","city":"Agargaon","coordinates":{"lat":"21.083333","long":"79.483333"}},{"country":"in","city":"Agarkhed","coordinates":{"lat":"17.316667","long":"76.066667"}},{"country":"in","city":"Agar Panchaitan","coordinates":{"lat":"18.18","long":"72.99"}},{"country":"in","city":"Agarpara","coordinates":{"lat":"22.683333","long":"88.366667"}},{"country":"in","city":"Agartala","coordinates":{"lat":"23.836389","long":"91.275"}},{"country":"in","city":"Agarvado","coordinates":{"lat":"15.633333","long":"73.75"}},{"country":"in","city":"Agas","coordinates":{"lat":"22.516667","long":"72.883333"}},{"country":"in","city":"Agashi","coordinates":{"lat":"19.15","long":"73.466667"}},{"country":"in","city":"Agasnal","coordinates":{"lat":"17.05","long":"75.783333"}},{"country":"in","city":"Agasod","coordinates":{"lat":"24.0731","long":"78.0629"}},{"country":"in","city":"Agasode","coordinates":{"lat":"24.283333","long":"78.15"}},{"country":"in","city":"Agastiampalli","coordinates":{"lat":"10.35","long":"79.866667"}},{"country":"in","city":"Agastiswaram","coordinates":{"lat":"8.1","long":"77.533333"}},{"country":"in","city":"Agastyampalli","coordinates":{"lat":"10.35","long":"79.866667"}},{"country":"in","city":"Agatrai","coordinates":{"lat":"21.366667","long":"70.25"}},{"country":"in","city":"Agatral","coordinates":{"lat":"21.366667","long":"70.25"}},{"country":"in","city":"Agaundh","coordinates":{"lat":"29.983333","long":"76.25"}},{"country":"in","city":"Agaus","coordinates":{"lat":"26.9429","long":"79.7082"}},{"country":"in","city":"Agesi","coordinates":{"lat":"27.9356","long":"79.3325"}},{"country":"in","city":"Aghanpur","coordinates":{"lat":"30.519","long":"76.8405"}},{"country":"in","city":"Aghapalli","coordinates":{"lat":"17.136667","long":"78.673333"}},{"country":"in","city":"Aghapur","coordinates":{"lat":"27.15","long":"77.516667"}},{"country":"in","city":"Aghar","coordinates":{"lat":"31.616667","long":"76.583333"}},{"country":"in","city":"Aghatapur","coordinates":{"lat":"24.583333","long":"73.716667"}},{"country":"in","city":"Agia","coordinates":{"lat":"26.089541","long":"90.562034"}},{"country":"in","city":"Agiaon","coordinates":{"lat":"25.366667","long":"84.616667"}},{"country":"in","city":"Agiripalle","coordinates":{"lat":"16.683333","long":"80.65"}},{"country":"in","city":"Aglot","coordinates":{"lat":"15.416667","long":"74.15"}},{"country":"in","city":"Agni","coordinates":{"lat":"16.566667","long":"76.466667"}},{"country":"in","city":"Agnihotri","coordinates":{"lat":"26.6662","long":"79.9897"}},{"country":"in","city":"Agoada","coordinates":{"lat":"15.516667","long":"73.766667"}},{"country":"in","city":"Agol","coordinates":{"lat":"23.15","long":"72.266667"}},{"country":"in","city":"Agolai","coordinates":{"lat":"26.283333","long":"72.633333"}},{"country":"in","city":"Agonda","coordinates":{"lat":"15.05","long":"73.983333"}},{"country":"in","city":"Agora","coordinates":{"lat":"24.5809","long":"78.8001"}},{"country":"in","city":"Agori","coordinates":{"lat":"24.55","long":"82.95"}},{"country":"in","city":"Agori Khas","coordinates":{"lat":"24.55","long":"82.95"}},{"country":"in","city":"Agra","coordinates":{"lat":"23.933333","long":"77.55"}},{"country":"in","city":"Agra","coordinates":{"lat":"27.183333","long":"78.016667"}},{"country":"in","city":"Agra Belanganj","coordinates":{"lat":"27.183333","long":"78.016667"}},{"country":"in","city":"Agrahar","coordinates":{"lat":"17.790556","long":"78.510278"}},{"country":"in","city":"Agraharam","coordinates":{"lat":"18.333333","long":"84.116667"}},{"country":"in","city":"Agral","coordinates":{"lat":"22.933333","long":"74.583333"}},{"country":"in","city":"Agrat","coordinates":{"lat":"33.302778","long":"74.247222"}},{"country":"in","city":"Agrawa","coordinates":{"lat":"24.95","long":"71.533333"}},{"country":"in","city":"Agria","coordinates":{"lat":"25.266667","long":"73.933333"}},{"country":"in","city":"Agroha","coordinates":{"lat":"29.333333","long":"75.633333"}},{"country":"in","city":"Agrong","coordinates":{"lat":"26.6","long":"90.733333"}},{"country":"in","city":"Agsur","coordinates":{"lat":"14.666667","long":"74.4"}},{"country":"in","city":"Aguada","coordinates":{"lat":"15.516667","long":"73.766667"}},{"country":"in","city":"Aguada Fort","coordinates":{"lat":"15.516667","long":"73.766667"}},{"country":"in","city":"Agucha","coordinates":{"lat":"25.816667","long":"74.716667"}},{"country":"in","city":"Aguncha","coordinates":{"lat":"25.816667","long":"74.716667"}},{"country":"in","city":"Agupura","coordinates":{"lat":"26.8418","long":"79.1424"}},{"country":"in","city":"Agva","coordinates":{"lat":"17.383333","long":"73.516667"}},{"country":"in","city":"Agwad","coordinates":{"lat":"15.516667","long":"73.766667"}},{"country":"in","city":"Agwasa","coordinates":{"lat":"27.0715","long":"79.8342"}},{"country":"in","city":"Ahad","coordinates":{"lat":"24.583333","long":"73.716667"}},{"country":"in","city":"Ahadio","coordinates":{"lat":"34.325","long":"74.113889"}},{"country":"in","city":"Ahagam","coordinates":{"lat":"34.4","long":"74.197222"}},{"country":"in","city":"Ahamad ki Dhani","coordinates":{"lat":"28.5201","long":"75.7462"}},{"country":"in","city":"Ahan","coordinates":{"lat":"34.229167","long":"74.666667"}},{"country":"in","city":"Ahar","coordinates":{"lat":"24.583333","long":"73.716667"}},{"country":"in","city":"Ahar","coordinates":{"lat":"24.7361","long":"78.9951"}},{"country":"in","city":"Ahar","coordinates":{"lat":"28.483333","long":"78.266667"}},{"country":"in","city":"Aharan","coordinates":{"lat":"27.366667","long":"78.25"}},{"country":"in","city":"Aharwan","coordinates":{"lat":"29.616667","long":"75.55"}},{"country":"in","city":"Aharwara","coordinates":{"lat":"27.9637","long":"79.0384"}},{"country":"in","city":"Ahataguri","coordinates":{"lat":"26.833333","long":"93.866667"}},{"country":"in","city":"Ahi","coordinates":{"lat":"31.433333","long":"77.416667"}},{"country":"in","city":"Ahias","coordinates":{"lat":"20.866667","long":"86.516667"}},{"country":"in","city":"Ahilyahar","coordinates":{"lat":"27.0677","long":"79.3241"}},{"country":"in","city":"Ahimalapur","coordinates":{"lat":"27.2443","long":"79.4881"}},{"country":"in","city":"Ahinkaripur","coordinates":{"lat":"27.137","long":"79.2815"}},{"country":"in","city":"Ahiri","coordinates":{"lat":"19.4","long":"80.016667"}},{"country":"in","city":"Ahirkheda","coordinates":{"lat":"21.983333","long":"75.866667"}},{"country":"in","city":"Ahirpara","coordinates":{"lat":"22.716667","long":"82.216667"}},{"country":"in","city":"Ahirwa Rajarampur","coordinates":{"lat":"27.1164","long":"79.4762"}},{"country":"in","city":"Ahiwaran ki Madaiyan","coordinates":{"lat":"27.6026","long":"79.6863"}},{"country":"in","city":"Ahladpur","coordinates":{"lat":"26.8215","long":"79.043"}},{"country":"in","city":"Ahmadabad","coordinates":{"lat":"23.033333","long":"72.616667"}},{"country":"in","city":"Ahmadganj","coordinates":{"lat":"27.711","long":"79.6466"}},{"country":"in","city":"Ahmadgarh","coordinates":{"lat":"28.25","long":"78.116667"}},{"country":"in","city":"Ahmadguda","coordinates":{"lat":"17.500278","long":"78.621944"}},{"country":"in","city":"Ahmadipur","coordinates":{"lat":"17.921667","long":"78.718889"}},{"country":"in","city":"Ahmadnagar","coordinates":{"lat":"23.6","long":"72.95"}},{"country":"in","city":"Ahmadnagar","coordinates":{"lat":"19.083333","long":"74.733333"}},{"country":"in","city":"Ahmadpur","coordinates":{"lat":"30.1157","long":"76.8466"}},{"country":"in","city":"Ahmadpur","coordinates":{"lat":"34.111111","long":"74.583333"}},{"country":"in","city":"Ahmadpur","coordinates":{"lat":"18.7","long":"76.933333"}},{"country":"in","city":"Ahmadpur","coordinates":{"lat":"23.833333","long":"87.7"}},{"country":"in","city":"Ahmadpur","coordinates":{"lat":"23.516667","long":"77.216667"}},{"country":"in","city":"Ahmadpur","coordinates":{"lat":"29.634444","long":"77.411111"}},{"country":"in","city":"Ahmadpur Karuamai","coordinates":{"lat":"27.249","long":"79.3021"}},{"country":"in","city":"Ahmadpur Rauni","coordinates":{"lat":"27.0009","long":"79.9065"}},{"country":"in","city":"Ahmalpur","coordinates":{"lat":"27.1099","long":"79.3332"}},{"country":"in","city":"Ahmedabad","coordinates":{"lat":"23.033333","long":"72.616667"}},{"country":"in","city":"Ahmednagar","coordinates":{"lat":"23.6","long":"72.95"}},{"country":"in","city":"Ahmednagar","coordinates":{"lat":"19.083333","long":"74.733333"}},{"country":"in","city":"Ahmedpur","coordinates":{"lat":"18.7","long":"76.933333"}},{"country":"in","city":"Ahobilam","coordinates":{"lat":"15.133333","long":"78.716667"}},{"country":"in","city":"Aholin","coordinates":{"lat":"28.433333","long":"95.7"}},{"country":"in","city":"Ahomgaon","coordinates":{"lat":"26.716667","long":"94.116667"}},{"country":"in","city":"Ahor","coordinates":{"lat":"25.366667","long":"72.783333"}},{"country":"in","city":"Ahraula","coordinates":{"lat":"26.183333","long":"82.916667"}},{"country":"in","city":"Ahraura","coordinates":{"lat":"25.016667","long":"83.016667"}},{"country":"in","city":"Ahroli","coordinates":{"lat":"26.2889","long":"79.0897"}},{"country":"in","city":"Ahu","coordinates":{"lat":"22.666667","long":"75.216667"}},{"country":"in","city":"Ahupe","coordinates":{"lat":"19.183333","long":"73.6"}},{"country":"in","city":"Ahwa","coordinates":{"lat":"20.75","long":"73.683333"}},{"country":"in","city":"Ahweiba","coordinates":{"lat":"34.558333","long":"75.041667"}},{"country":"in","city":"Aiball","coordinates":{"lat":"16","long":"75.883333"}},{"country":"in","city":"Aichanahalli","coordinates":{"lat":"12.75","long":"76.233333"}},{"country":"in","city":"Aichisagami","coordinates":{"lat":"26.116667","long":"94.583333"}},{"country":"in","city":"Aichwara","coordinates":{"lat":"25.716667","long":"77.533333"}},{"country":"in","city":"Aidalpur","coordinates":{"lat":"26.1335","long":"79.4438"}},{"country":"in","city":"Aigale","coordinates":{"lat":"16.75","long":"75.233333"}},{"country":"in","city":"Aigali","coordinates":{"lat":"16.75","long":"75.233333"}},{"country":"in","city":"Aihol","coordinates":{"lat":"23.933333","long":"93.983333"}},{"country":"in","city":"Aiiamari","coordinates":{"lat":"17.821944","long":"78.112222"}},{"country":"in","city":"Aijal","coordinates":{"lat":"23.724444","long":"92.7175"}},{"country":"in","city":"Aiju","coordinates":{"lat":"32.016667","long":"76.683333"}},{"country":"in","city":"Aikaru","coordinates":{"lat":"26.5159","long":"79.7828"}},{"country":"in","city":"Aikolaha","coordinates":{"lat":"30.6902","long":"76.1703"}},{"country":"in","city":"Aikolahi","coordinates":{"lat":"30.7023","long":"76.1639"}},{"country":"in","city":"Ailabhatta","coordinates":{"lat":"20.25","long":"83.016667"}},{"country":"in","city":"Ailam","coordinates":{"lat":"29.283333","long":"77.3"}},{"country":"in","city":"Aima","coordinates":{"lat":"33.188889","long":"74.136111"}},{"country":"in","city":"Aima","coordinates":{"lat":"22.406667","long":"88.180278"}},{"country":"in","city":"Aima","coordinates":{"lat":"27.0302","long":"79.8028"}},{"country":"in","city":"Aimaburan","coordinates":{"lat":"34.158333","long":"74.572222"}},{"country":"in","city":"Aimand","coordinates":{"lat":"22.566667","long":"72.933333"}},{"country":"in","city":"Ainak","coordinates":{"lat":"22.383333","long":"93.15"}},{"country":"in","city":"Ainapur","coordinates":{"lat":"16.666667","long":"74.9"}},{"country":"in","city":"Ainavolu","coordinates":{"lat":"15.983333","long":"79.666667"}},{"country":"in","city":"Ainbushahi da Danna","coordinates":{"lat":"32.969444","long":"74.5875"}},{"country":"in","city":"Aino","coordinates":{"lat":"26.554444","long":"78.344444"}},{"country":"in","city":"Ainpur","coordinates":{"lat":"21.166667","long":"76.033333"}},{"country":"in","city":"Ainta","coordinates":{"lat":"27.155128","long":"71.251994"}},{"country":"in","city":"Airahu","coordinates":{"lat":"26.8868","long":"79.5164"}},{"country":"in","city":"Airaura","coordinates":{"lat":"24.6658","long":"79.1963"}},{"country":"in","city":"Air Khas","coordinates":{"lat":"25.916667","long":"79.516667"}},{"country":"in","city":"Airwa","coordinates":{"lat":"26.9","long":"79.433333"}},{"country":"in","city":"Airwa Katra","coordinates":{"lat":"26.9","long":"79.433333"}},{"country":"in","city":"Aishanpur","coordinates":{"lat":"30.6391","long":"76.1175"}},{"country":"in","city":"Aish Mugam","coordinates":{"lat":"33.866667","long":"75.283333"}},{"country":"in","city":"Aisru","coordinates":{"lat":"30.6715","long":"76.1108"}},{"country":"in","city":"Aisru Kalan","coordinates":{"lat":"30.6715","long":"76.1108"}},{"country":"in","city":"Aita","coordinates":{"lat":"29.809722","long":"78.597222"}},{"country":"in","city":"Ait","coordinates":{"lat":"25.9","long":"79.25"}},{"country":"in","city":"Aitham","coordinates":{"lat":"32.775","long":"74.998611"}},{"country":"in","city":"Aithar","coordinates":{"lat":"26.559167","long":"78.673056"}},{"country":"in","city":"Aivalli","coordinates":{"lat":"16","long":"75.883333"}},{"country":"in","city":"Aivarkhandpur","coordinates":{"lat":"13.137222","long":"77.492222"}},{"country":"in","city":"Aiwranpura","coordinates":{"lat":"26.8704","long":"79.2483"}},{"country":"in","city":"Aiyar","coordinates":{"lat":"23.683333","long":"85.75"}},{"country":"in","city":"Aizal","coordinates":{"lat":"23.724444","long":"92.7175"}},{"country":"in","city":"Aizawl","coordinates":{"lat":"23.724444","long":"92.7175"}},{"country":"in","city":"Aizwal","coordinates":{"lat":"23.724444","long":"92.7175"}},{"country":"in","city":"Ajab","coordinates":{"lat":"21.266667","long":"70.35"}},{"country":"in","city":"Ajabgarh","coordinates":{"lat":"27.2","long":"76.283333"}},{"country":"in","city":"Ajab ka Nagla","coordinates":{"lat":"26.8478","long":"79.2091"}},{"country":"in","city":"Ajabpur","coordinates":{"lat":"27.1655","long":"79.378"}},{"country":"in","city":"Ajaigarh","coordinates":{"lat":"24.9","long":"80.266667"}},{"country":"in","city":"Ajaipal ka Dungri","coordinates":{"lat":"25.726389","long":"75.645"}},{"country":"in","city":"Ajan","coordinates":{"lat":"24.5265","long":"78.7195"}},{"country":"in","city":"Ajanpur","coordinates":{"lat":"26.4929","long":"79.4621"}},{"country":"in","city":"Ajanta","coordinates":{"lat":"20.533333","long":"75.75"}},{"country":"in","city":"Ajapura","coordinates":{"lat":"25.616667","long":"76.666667"}},{"country":"in","city":"Ajari","coordinates":{"lat":"28.0612","long":"75.4535"}},{"country":"in","city":"Ajarthala","coordinates":{"lat":"23.836389","long":"91.275"}},{"country":"in","city":"Ajas","coordinates":{"lat":"34.333333","long":"74.683333"}},{"country":"in","city":"Ajasar","coordinates":{"lat":"27.264942","long":"71.705105"}},{"country":"in","city":"Ajayagad","coordinates":{"lat":"18.916667","long":"84.083333"}},{"country":"in","city":"Ajgain","coordinates":{"lat":"26.616667","long":"80.633333"}},{"country":"in","city":"Ajgaon","coordinates":{"lat":"15.766667","long":"73.7"}},{"country":"in","city":"Ajgarhbura","coordinates":{"lat":"23.966667","long":"82.316667"}},{"country":"in","city":"Ajita","coordinates":{"lat":"25.483333","long":"75.85"}},{"country":"in","city":"Ajitapur","coordinates":{"lat":"26.3116","long":"79.3322"}},{"country":"in","city":"Ajit ka Adda","coordinates":{"lat":"26.7921","long":"79.0283"}},{"country":"in","city":"Ajit Nagla","coordinates":{"lat":"27.7681","long":"79.4283"}},{"country":"in","city":"Ajitpura","coordinates":{"lat":"28.2257","long":"75.5667"}},{"country":"in","city":"Ajit Purwa","coordinates":{"lat":"26.8562","long":"79.5765"}},{"country":"in","city":"Ajitsar","coordinates":{"lat":"28.268889","long":"74.645"}},{"country":"in","city":"Ajitwal","coordinates":{"lat":"30.816667","long":"75.333333"}},{"country":"in","city":"Ajjampur","coordinates":{"lat":"13.728056","long":"76.009444"}},{"country":"in","city":"Ajmatpur","coordinates":{"lat":"27.0767","long":"79.9879"}},{"country":"in","city":"Ajmer","coordinates":{"lat":"26.45","long":"74.633333"}},{"country":"in","city":"Ajmer City","coordinates":{"lat":"26.45","long":"74.633333"}},{"country":"in","city":"Ajnala","coordinates":{"lat":"31.8425","long":"74.758889"}},{"country":"in","city":"Ajnara ka khirk","coordinates":{"lat":"25.1585","long":"78.9506"}},{"country":"in","city":"Ajnas","coordinates":{"lat":"22.55","long":"76.833333"}},{"country":"in","city":"Ajneri","coordinates":{"lat":"25.6534","long":"79.1749"}},{"country":"in","city":"Ajni","coordinates":{"lat":"21.15","long":"79.1"}},{"country":"in","city":"Ajnora","coordinates":{"lat":"24.7096","long":"78.6913"}},{"country":"in","city":"Ajnor","coordinates":{"lat":"24.6165","long":"78.9436"}},{"country":"in","city":"Ajodhya","coordinates":{"lat":"26.8","long":"82.2"}},{"country":"in","city":"Ajot","coordinates":{"lat":"33.772222","long":"74.066667"}},{"country":"in","city":"Ajra","coordinates":{"lat":"16.116667","long":"74.2"}},{"country":"in","city":"Ajrajpura","coordinates":{"lat":"26.7633","long":"75.6031"}},{"country":"in","city":"Ajrajpura ki Dhani","coordinates":{"lat":"26.7574","long":"75.6087"}},{"country":"in","city":"Ajram","coordinates":{"lat":"31.466667","long":"75.816667"}},{"country":"in","city":"Ajrana Kalan","coordinates":{"lat":"30.0971","long":"76.7877"}},{"country":"in","city":"Ajrana Khurd","coordinates":{"lat":"30.1056","long":"76.7708"}},{"country":"in","city":"Ajrani","coordinates":{"lat":"30.072","long":"76.8042"}},{"country":"in","city":"Ajrao","coordinates":{"lat":"27.8422","long":"79.1757"}},{"country":"in","city":"Ajrawar","coordinates":{"lat":"30.1467","long":"76.691"}},{"country":"in","city":"Ajudhipur","coordinates":{"lat":"27.0082","long":"79.8378"}},{"country":"in","city":"Akadia","coordinates":{"lat":"21.65","long":"71.1"}},{"country":"in","city":"Akahal","coordinates":{"lat":"34.25","long":"74.904167"}},{"country":"in","city":"Akajhiri","coordinates":{"lat":"25.15","long":"77.85"}},{"country":"in","city":"Akalgarh","coordinates":{"lat":"29.816667","long":"75.883333"}},{"country":"in","city":"Akalkot","coordinates":{"lat":"17.533333","long":"76.216667"}},{"country":"in","city":"Akalpur","coordinates":{"lat":"26.8216","long":"79.1015"}},{"country":"in","city":"Akalsia","coordinates":{"lat":"30.133333","long":"77.633333"}},{"country":"in","city":"Akaltara","coordinates":{"lat":"22.016667","long":"82.433333"}},{"country":"in","city":"Akapur","coordinates":{"lat":"29.664722","long":"77.292778"}},{"country":"in","city":"Akaram","coordinates":{"lat":"17.820556","long":"78.740833"}},{"country":"in","city":"Akaria","coordinates":{"lat":"27.0269","long":"79.7921"}},{"country":"in","city":"Akarpati","coordinates":{"lat":"19.816667","long":"72.666667"}},{"country":"in","city":"Akawaram","coordinates":{"lat":"16.466667","long":"79.016667"}},{"country":"in","city":"Akbarpur Afghan","coordinates":{"lat":"30.1376","long":"76.5186"}},{"country":"in","city":"Akbarpur","coordinates":{"lat":"30.1961","long":"76.5594"}},{"country":"in","city":"Akbarpur","coordinates":{"lat":"27.45","long":"76.533333"}},{"country":"in","city":"Akbarpur","coordinates":{"lat":"24.733333","long":"85.533333"}},{"country":"in","city":"Akbarpur","coordinates":{"lat":"26.266667","long":"78.183333"}},{"country":"in","city":"Akbarpur","coordinates":{"lat":"26.383333","long":"79.95"}},{"country":"in","city":"Akbarpur","coordinates":{"lat":"24.65","long":"83.966667"}},{"country":"in","city":"Akbarpur Aunchha","coordinates":{"lat":"27.316667","long":"78.833333"}},{"country":"in","city":"Akbarpur Sarai Ghag","coordinates":{"lat":"27.0384","long":"79.9189"}},{"country":"in","city":"Akera","coordinates":{"lat":"19.616667","long":"80.3"}},{"country":"in","city":"Akera","coordinates":{"lat":"24.416667","long":"76.566667"}},{"country":"in","city":"Akera Chhota","coordinates":{"lat":"19.616667","long":"80.3"}},{"country":"in","city":"Akha","coordinates":{"lat":"28.283333","long":"79.35"}},{"country":"in","city":"Akhai","coordinates":{"lat":"24.2068","long":"78.0946"}},{"country":"in","city":"Akharjapet","coordinates":{"lat":"17.643333","long":"78.545833"}},{"country":"in","city":"Akhegwo","coordinates":{"lat":"25.733333","long":"94.683333"}},{"country":"in","city":"Akhipur","coordinates":{"lat":"22.635","long":"88.8075"}},{"country":"in","city":"Akhli","coordinates":{"lat":"32.995833","long":"74.908333"}},{"country":"in","city":"Akhnur","coordinates":{"lat":"32.866667","long":"74.733333"}},{"country":"in","city":"Akhori","coordinates":{"lat":"29.959444","long":"78.614444"}},{"country":"in","city":"Akhrena","coordinates":{"lat":"29.782222","long":"78.661111"}},{"country":"in","city":"Akhtamai","coordinates":{"lat":"27.9463","long":"79.0546"}},{"country":"in","city":"Akior","coordinates":{"lat":"25.556111","long":"75.526111"}},{"country":"in","city":"Akividu","coordinates":{"lat":"16.6","long":"81.383333"}},{"country":"in","city":"Akkammapettai","coordinates":{"lat":"11.466667","long":"77.883333"}},{"country":"in","city":"Akkaraivadi","coordinates":{"lat":"10.883333","long":"79.833333"}},{"country":"in","city":"Akkihebbal","coordinates":{"lat":"12.608889","long":"76.399444"}},{"country":"in","city":"Akkivaram","coordinates":{"lat":"18.366667","long":"84.15"}},{"country":"in","city":"Akkuvaram","coordinates":{"lat":"18.366667","long":"84.15"}},{"country":"in","city":"Akla","coordinates":{"lat":"27.016667","long":"73.416667"}},{"country":"in","city":"Akla Thal","coordinates":{"lat":"27.618347","long":"71.688743"}},{"country":"in","city":"Aklera","coordinates":{"lat":"24.416667","long":"76.566667"}},{"country":"in","city":"Akli","coordinates":{"lat":"25.733333","long":"70.283333"}},{"country":"in","city":"Akli ki Dhani","coordinates":{"lat":"27.434663","long":"71.943743"}},{"country":"in","city":"Aklui","coordinates":{"lat":"17.9","long":"75.033333"}},{"country":"in","city":"Akluj","coordinates":{"lat":"17.9","long":"75.033333"}},{"country":"in","city":"Aklvidu","coordinates":{"lat":"16.583333","long":"81.383333"}},{"country":"in","city":"Aknapur","coordinates":{"lat":"22.893056","long":"88.053611"}},{"country":"in","city":"Akoda","coordinates":{"lat":"25.529444","long":"75.665278"}},{"country":"in","city":"Akodha","coordinates":{"lat":"25.25","long":"81.9"}},{"country":"in","city":"Akodia","coordinates":{"lat":"23.383333","long":"76.6"}},{"country":"in","city":"Akola","coordinates":{"lat":"20.733333","long":"77"}},{"country":"in","city":"Akola","coordinates":{"lat":"24.766667","long":"74.2"}},{"country":"in","city":"Akolda","coordinates":{"lat":"21.416667","long":"71.483333"}},{"country":"in","city":"Akolia","coordinates":{"lat":"22.616667","long":"75.666667"}},{"country":"in","city":"Akolin","coordinates":{"lat":"28.8","long":"95.95"}},{"country":"in","city":"Akoliya","coordinates":{"lat":"25.613333","long":"75.655278"}},{"country":"in","city":"Akolner","coordinates":{"lat":"18.983333","long":"74.666667"}},{"country":"in","city":"Akora","coordinates":{"lat":"25.6","long":"71.183333"}},{"country":"in","city":"Akora Purwa","coordinates":{"lat":"27.0995","long":"79.9213"}},{"country":"in","city":"Akorha","coordinates":{"lat":"24.766667","long":"84.183333"}},{"country":"in","city":"Akorhi","coordinates":{"lat":"24.766667","long":"84.183333"}},{"country":"in","city":"Akorhi","coordinates":{"lat":"25.166667","long":"82.45"}},{"country":"in","city":"Akoria","coordinates":{"lat":"25.825","long":"75.6875"}},{"country":"in","city":"Akot","coordinates":{"lat":"21.096389","long":"77.058611"}},{"country":"in","city":"Akothiya","coordinates":{"lat":"26.6978","long":"79.9216"}},{"country":"in","city":"Akoti","coordinates":{"lat":"21.166667","long":"73.183333"}},{"country":"in","city":"Akra","coordinates":{"lat":"29.88","long":"78.504444"}},{"country":"in","city":"Akrabad","coordinates":{"lat":"27.816667","long":"78.283333"}},{"country":"in","city":"Ákria","coordinates":{"lat":"22.1","long":"71.45"}},{"country":"in","city":"Akri","coordinates":{"lat":"23.383333","long":"68.6"}},{"country":"in","city":"Akrund","coordinates":{"lat":"23.283333","long":"73.116667"}},{"country":"in","city":"Aksapur","coordinates":{"lat":"19.766667","long":"79.65"}},{"country":"in","city":"Aksiguri","coordinates":{"lat":"26.320322","long":"89.856368"}},{"country":"in","city":"Aktasa","coordinates":{"lat":"25.319167","long":"75.725"}},{"country":"in","city":"Akunpalli","coordinates":{"lat":"17.088333","long":"78.389722"}},{"country":"in","city":"Ala","coordinates":{"lat":"32.516667","long":"74.834722"}},{"country":"in","city":"Alagapuram","coordinates":{"lat":"11.883333","long":"78.916667"}},{"country":"in","city":"Alagiapandipuram","coordinates":{"lat":"8.3","long":"77.45"}},{"country":"in","city":"Alai","coordinates":{"lat":"27.333333","long":"73.566667"}},{"country":"in","city":"Alai Nagla","coordinates":{"lat":"27.8751","long":"79.1886"}},{"country":"in","city":"Alaipura","coordinates":{"lat":"26.2116","long":"79.2915"}},{"country":"in","city":"Alakjhar","coordinates":{"lat":"26.424799","long":"89.94312"}},{"country":"in","city":"Alakjhari","coordinates":{"lat":"26.257001","long":"89.873408"}},{"country":"in","city":"Al","coordinates":{"lat":"26.368","long":"79.4405"}},{"country":"in","city":"Alamadi","coordinates":{"lat":"13.208611","long":"80.107778"}},{"country":"in","city":"Alamanda","coordinates":{"lat":"17.983333","long":"83.233333"}},{"country":"in","city":"Alamanda","coordinates":{"lat":"18.866667","long":"83.316667"}},{"country":"in","city":"Alame Chak","coordinates":{"lat":"32.658333","long":"74.758333"}},{"country":"in","city":"Alamganj","coordinates":{"lat":"27.6532","long":"79.5708"}},{"country":"in","city":"Alamgaon","coordinates":{"lat":"19.733333","long":"75.766667"}},{"country":"in","city":"Alampura","coordinates":{"lat":"28.282","long":"75.5466"}},{"country":"in","city":"Alampura","coordinates":{"lat":"25.6528","long":"79.1354"}},{"country":"in","city":"Alampura Imla","coordinates":{"lat":"24.2286","long":"79.1936"}},{"country":"in","city":"Alampur","coordinates":{"lat":"15.883333","long":"78.15"}},{"country":"in","city":"Alampur","coordinates":{"lat":"21.95","long":"71.733333"}},{"country":"in","city":"Alampur","coordinates":{"lat":"22.4225","long":"88.162778"}},{"country":"in","city":"Alampur","coordinates":{"lat":"26.024444","long":"78.7925"}},{"country":"in","city":"Alampur","coordinates":{"lat":"26.2915","long":"79.3844"}},{"country":"in","city":"Alampurkhera","coordinates":{"lat":"26.6135","long":"79.773"}},{"country":"in","city":"Alamsar","coordinates":{"lat":"25.333333","long":"71.083333"}},{"country":"in","city":"Alamshah Purwa","coordinates":{"lat":"26.9447","long":"79.5285"}},{"country":"in","city":"Alamuru","coordinates":{"lat":"16.783333","long":"81.9"}},{"country":"in","city":"Alanallur","coordinates":{"lat":"11.016667","long":"76.35"}},{"country":"in","city":"Aland","coordinates":{"lat":"17.566667","long":"76.566667"}},{"country":"in","city":"Alandi","coordinates":{"lat":"18.666667","long":"73.9"}},{"country":"in","city":"Alandi","coordinates":{"lat":"18.133333","long":"77.233333"}},{"country":"in","city":"Alandi-Devachi","coordinates":{"lat":"18.666667","long":"73.9"}},{"country":"in","city":"Alandoor","coordinates":{"lat":"13.0025","long":"80.206111"}},{"country":"in","city":"Alandurai","coordinates":{"lat":"10.933333","long":"76.8"}},{"country":"in","city":"Alandur","coordinates":{"lat":"13.0025","long":"80.206111"}},{"country":"in","city":"Alanganallur","coordinates":{"lat":"10.066667","long":"78.05"}},{"country":"in","city":"Alangayam","coordinates":{"lat":"12.6","long":"78.75"}},{"country":"in","city":"Alangiem","coordinates":{"lat":"10.6","long":"77.5"}},{"country":"in","city":"Alangiyam","coordinates":{"lat":"10.6","long":"77.5"}},{"country":"in","city":"Alangudi","coordinates":{"lat":"10.366667","long":"78.983333"}},{"country":"in","city":"Alangulam","coordinates":{"lat":"8.866667","long":"77.5"}},{"country":"in","city":"Alapakam","coordinates":{"lat":"11.6","long":"79.733333"}},{"country":"in","city":"Alapalli","coordinates":{"lat":"9.494167","long":"76.3275"}},{"country":"in","city":"Alapillai","coordinates":{"lat":"19.416667","long":"80.066667"}},{"country":"in","city":"Alapolai","coordinates":{"lat":"9.494167","long":"76.3275"}},{"country":"in","city":"Alappakkam","coordinates":{"lat":"11.6","long":"79.733333"}},{"country":"in","city":"Alappula","coordinates":{"lat":"9.494167","long":"76.3275"}},{"country":"in","city":"Alappuzha","coordinates":{"lat":"9.494167","long":"76.3275"}},{"country":"in","city":"Alapulai","coordinates":{"lat":"9.494167","long":"76.3275"}},{"country":"in","city":"Alapur","coordinates":{"lat":"34.047222","long":"74.543056"}},{"country":"in","city":"Alapur","coordinates":{"lat":"27.9136","long":"79.2458"}},{"country":"in","city":"Alas","coordinates":{"lat":"32.766667","long":"75.983333"}},{"country":"in","city":"Alate","coordinates":{"lat":"16.766667","long":"74.4"}},{"country":"in","city":"Alattur","coordinates":{"lat":"10.65","long":"76.533333"}},{"country":"in","city":"Alattur","coordinates":{"lat":"12.233333","long":"79.866667"}},{"country":"in","city":"Alatur","coordinates":{"lat":"10.65","long":"76.533333"}},{"country":"in","city":"Alatur","coordinates":{"lat":"12.233333","long":"79.866667"}},{"country":"in","city":"Alauddin Majra","coordinates":{"lat":"30.2316","long":"76.6601"}},{"country":"in","city":"Alawalpur","coordinates":{"lat":"31.432778","long":"75.650833"}},{"country":"in","city":"Alawalpur","coordinates":{"lat":"26.5022","long":"79.8342"}},{"country":"in","city":"Alayangudi","coordinates":{"lat":"10.933333","long":"79.766667"}},{"country":"in","city":"Alayla","coordinates":{"lat":"28.6283","long":"75.1013"}},{"country":"in","city":"Albaka","coordinates":{"lat":"18.216667","long":"80.666667"}},{"country":"in","city":"Albela","coordinates":{"lat":"27.7477","long":"79.6104"}},{"country":"in","city":"Alchi Gömpa","coordinates":{"lat":"34.216667","long":"77.166667"}},{"country":"in","city":"Aldaba","coordinates":{"lat":"29.793611","long":"78.6075"}},{"country":"in","city":"Aldona","coordinates":{"lat":"15.583333","long":"73.866667"}},{"country":"in","city":"Aldur","coordinates":{"lat":"13.25","long":"75.666667"}},{"country":"in","city":"Ale","coordinates":{"lat":"19.166667","long":"74.116667"}},{"country":"in","city":"Alegaon","coordinates":{"lat":"18.6","long":"74.316667"}},{"country":"in","city":"Aleppi","coordinates":{"lat":"9.494167","long":"76.3275"}},{"country":"in","city":"Aleru","coordinates":{"lat":"17.65","long":"79.05"}},{"country":"in","city":"Alewabi","coordinates":{"lat":"20.383333","long":"79.7"}},{"country":"in","city":"Alewahi","coordinates":{"lat":"20.383333","long":"79.7"}},{"country":"in","city":"Algur","coordinates":{"lat":"16.7","long":"76.35"}},{"country":"in","city":"Alhadpur","coordinates":{"lat":"27.5301","long":"79.6475"}},{"country":"in","city":"Alhinapur","coordinates":{"lat":"27.1072","long":"79.4575"}},{"country":"in","city":"Aliabad","coordinates":{"lat":"17.619444","long":"78.599444"}},{"country":"in","city":"Aliabad","coordinates":{"lat":"33.65","long":"74.583333"}},{"country":"in","city":"Aliabad Sarai","coordinates":{"lat":"33.65","long":"74.583333"}},{"country":"in","city":"Ali","coordinates":{"lat":"32.972222","long":"74.841667"}},{"country":"in","city":"Ali","coordinates":{"lat":"22.183333","long":"74.366667"}},{"country":"in","city":"Aliapur","coordinates":{"lat":"27.0475","long":"79.9478"}},{"country":"in","city":"Alibag","coordinates":{"lat":"18.641111","long":"72.879167"}},{"country":"in","city":"Alibágh","coordinates":{"lat":"18.641111","long":"72.879167"}},{"country":"in","city":"Alidar","coordinates":{"lat":"20.9","long":"70.85"}},{"country":"in","city":"Aliganj","coordinates":{"lat":"27.5","long":"79.183333"}},{"country":"in","city":"Aligarh","coordinates":{"lat":"25.966667","long":"76.083333"}},{"country":"in","city":"Aligarh","coordinates":{"lat":"27.883333","long":"78.083333"}},{"country":"in","city":"Aliguda","coordinates":{"lat":"17.264722","long":"78.443333"}},{"country":"in","city":"Alika","coordinates":{"lat":"29.733333","long":"75.433333"}},{"country":"in","city":"Ali Kadal","coordinates":{"lat":"34.094444","long":"74.804167"}},{"country":"in","city":"Alikhen","coordinates":{"lat":"17.85","long":"77.266667"}},{"country":"in","city":"Ali Khera","coordinates":{"lat":"27.316667","long":"79.166667"}},{"country":"in","city":"Alikher","coordinates":{"lat":"17.85","long":"77.266667"}},{"country":"in","city":"Alimod","coordinates":{"lat":"22.4","long":"78.383333"}},{"country":"in","city":"Alina","coordinates":{"lat":"22.816667","long":"73.05"}},{"country":"in","city":"Alinagar","coordinates":{"lat":"26.631389","long":"83.032222"}},{"country":"in","city":"Alinjivakkam","coordinates":{"lat":"13.186389","long":"80.196389"}},{"country":"in","city":"Alipore","coordinates":{"lat":"22.530278","long":"88.334167"}},{"country":"in","city":"Alipukur","coordinates":{"lat":"22.448611","long":"88.108611"}},{"country":"in","city":"Alipura","coordinates":{"lat":"25.990278","long":"75.693056"}},{"country":"in","city":"Alipura","coordinates":{"lat":"25.183333","long":"79.35"}},{"country":"in","city":"Alipur","coordinates":{"lat":"11.733333","long":"92.683333"}},{"country":"in","city":"Alipur","coordinates":{"lat":"17.716667","long":"83.3"}},{"country":"in","city":"Alipur","coordinates":{"lat":"28.8","long":"77.15"}},{"country":"in","city":"Alipur","coordinates":{"lat":"30.6013","long":"76.9559"}},{"country":"in","city":"Alipur","coordinates":{"lat":"34.031944","long":"74.691667"}},{"country":"in","city":"Alipur","coordinates":{"lat":"20.566667","long":"78.683333"}},{"country":"in","city":"Alipur","coordinates":{"lat":"30.6573","long":"76.7856"}},{"country":"in","city":"Alipur","coordinates":{"lat":"28.2266","long":"75.531"}},{"country":"in","city":"Alipur","coordinates":{"lat":"22.2975","long":"88.078333"}},{"country":"in","city":"Alipur","coordinates":{"lat":"26.8048","long":"79.5705"}},{"country":"in","city":"Alipur Duar","coordinates":{"lat":"26.483333","long":"89.566667"}},{"country":"in","city":"Alipur Duars","coordinates":{"lat":"26.483333","long":"89.566667"}},{"country":"in","city":"Alipur Jalal","coordinates":{"lat":"30.5673","long":"76.218"}},{"country":"in","city":"Alipur Sikhan","coordinates":{"lat":"30.239","long":"76.5764"}},{"country":"in","city":"Alipur Wazir Sahib","coordinates":{"lat":"30.1779","long":"76.5963"}},{"country":"in","city":"Alirajapet","coordinates":{"lat":"17.787222","long":"78.781389"}},{"country":"in","city":"Alirajpur","coordinates":{"lat":"22.3","long":"74.35"}},{"country":"in","city":"Aliwal","coordinates":{"lat":"30.95","long":"75.6"}},{"country":"in","city":"Aliyabad","coordinates":{"lat":"12.633333","long":"79.233333"}},{"country":"in","city":"Aljahdurg","coordinates":{"lat":"17.966667","long":"77.916667"}},{"country":"in","city":"Alkheri","coordinates":{"lat":"24.0164","long":"78.2997"}},{"country":"in","city":"Alkodiya","coordinates":{"lat":"25.322778","long":"75.691667"}},{"country":"in","city":"Alkuti","coordinates":{"lat":"19.05","long":"74.233333"}},{"country":"in","city":"Alla Abba Habab","coordinates":{"lat":"25.45","long":"81.85"}},{"country":"in","city":"Allagadda","coordinates":{"lat":"15.133333","long":"78.516667"}},{"country":"in","city":"Allahabad","coordinates":{"lat":"25.45","long":"81.85"}},{"country":"in","city":"Allahdadpura","coordinates":{"lat":"30.6114","long":"76.2184"}},{"country":"in","city":"Allahdadpur","coordinates":{"lat":"27.0568","long":"79.4812"}},{"country":"in","city":"Allahdrug","coordinates":{"lat":"17.966667","long":"77.916667"}},{"country":"in","city":"Allahdurg","coordinates":{"lat":"17.966667","long":"77.916667"}},{"country":"in","city":"Allahdurug","coordinates":{"lat":"17.966667","long":"77.916667"}},{"country":"in","city":"Allahganj","coordinates":{"lat":"27.5461","long":"79.6878"}},{"country":"in","city":"Allahpur","coordinates":{"lat":"17.214167","long":"78.830833"}},{"country":"in","city":"Allahpur","coordinates":{"lat":"27.1196","long":"79.8803"}},{"country":"in","city":"Allahyarwala Khu","coordinates":{"lat":"27.559501","long":"71.780527"}},{"country":"in","city":"Alland","coordinates":{"lat":"20.2","long":"75.55"}},{"country":"in","city":"Alland","coordinates":{"lat":"17.566667","long":"76.566667"}},{"country":"in","city":"Allanpur","coordinates":{"lat":"27.5946","long":"79.6286"}},{"country":"in","city":"Allapalli","coordinates":{"lat":"17.833333","long":"80.483333"}},{"country":"in","city":"Allapalli","coordinates":{"lat":"19.416667","long":"80.066667"}},{"country":"in","city":"Alleppey","coordinates":{"lat":"9.494167","long":"76.3275"}},{"country":"in","city":"Alleppi","coordinates":{"lat":"9.494167","long":"76.3275"}},{"country":"in","city":"Allinagaram","coordinates":{"lat":"10.033333","long":"77.5"}},{"country":"in","city":"Allipur","coordinates":{"lat":"26.9944","long":"79.0165"}},{"country":"in","city":"Alliyabad","coordinates":{"lat":"12.633333","long":"79.233333"}},{"country":"in","city":"Allur","coordinates":{"lat":"14.683333","long":"80.066667"}},{"country":"in","city":"Alluru","coordinates":{"lat":"14.683333","long":"80.066667"}},{"country":"in","city":"Almai","coordinates":{"lat":"32.55","long":"76.383333"}},{"country":"in","city":"Almaipet","coordinates":{"lat":"17.776389","long":"78.094167"}},{"country":"in","city":"Almanpur","coordinates":{"lat":"27.5423","long":"79.5431"}},{"country":"in","city":"Almashpur","coordinates":{"lat":"22.181389","long":"88.381389"}},{"country":"in","city":"Almati","coordinates":{"lat":"16.35","long":"75.9"}},{"country":"in","city":"Almatti","coordinates":{"lat":"16.35","long":"75.9"}},{"country":"in","city":"Almel","coordinates":{"lat":"17.1","long":"76.216667"}},{"country":"in","city":"Almora","coordinates":{"lat":"29.616667","long":"79.666667"}},{"country":"in","city":"Alnavar","coordinates":{"lat":"15.433333","long":"74.733333"}},{"country":"in","city":"Alniawas","coordinates":{"lat":"26.516667","long":"74.316667"}},{"country":"in","city":"Alod","coordinates":{"lat":"25.545833","long":"75.588889"}},{"country":"in","city":"Alokhar","coordinates":{"lat":"27.7577","long":"79.1334"}},{"country":"in","city":"Alolda","coordinates":{"lat":"21.416667","long":"71.483333"}},{"country":"in","city":"Along","coordinates":{"lat":"28.166667","long":"94.766667"}},{"country":"in","city":"Alonung","coordinates":{"lat":"28.383333","long":"95.55"}},{"country":"in","city":"Alopa","coordinates":{"lat":"24.9188","long":"79.1498"}},{"country":"in","city":"Alora","coordinates":{"lat":"32.697222","long":"74.751389"}},{"country":"in","city":"Alora","coordinates":{"lat":"17.466667","long":"73.566667"}},{"country":"in","city":"Alorigarwara","coordinates":{"lat":"24.783333","long":"75.183333"}},{"country":"in","city":"Alorna","coordinates":{"lat":"15.7","long":"73.9"}},{"country":"in","city":"Alot","coordinates":{"lat":"23.766667","long":"75.55"}},{"country":"in","city":"Alpathar","coordinates":{"lat":"33.988889","long":"74.327778"}},{"country":"in","city":"Alphanagar","coordinates":{"lat":"25.280556","long":"75.713889"}},{"country":"in","city":"Alsindhi","coordinates":{"lat":"31.3","long":"77.133333"}},{"country":"in","city":"Alsisar","coordinates":{"lat":"28.3044","long":"75.2874"}},{"country":"in","city":"Alta","coordinates":{"lat":"16.766667","long":"74.4"}},{"country":"in","city":"Alturti","coordinates":{"lat":"14.45","long":"79.683333"}},{"country":"in","city":"Alu","coordinates":{"lat":"23.05","long":"73.816667"}},{"country":"in","city":"Aluda","coordinates":{"lat":"26.8","long":"76.383333"}},{"country":"in","city":"Aluna Miana","coordinates":{"lat":"30.6763","long":"76.058"}},{"country":"in","city":"Aluna Palla","coordinates":{"lat":"30.6798","long":"76.046"}},{"country":"in","city":"Aluna Tola","coordinates":{"lat":"30.6757","long":"76.069"}},{"country":"in","city":"Alu Pahar","coordinates":{"lat":"22.5","long":"84.25"}},{"country":"in","city":"Alupura","coordinates":{"lat":"34.065278","long":"74.675"}},{"country":"in","city":"Alur","coordinates":{"lat":"15.383333","long":"77.233333"}},{"country":"in","city":"Alur","coordinates":{"lat":"17.7","long":"76.416667"}},{"country":"in","city":"Alur","coordinates":{"lat":"12.983333","long":"75.983333"}},{"country":"in","city":"Aluru","coordinates":{"lat":"15.5","long":"80.133333"}},{"country":"in","city":"Aluva","coordinates":{"lat":"10.109167","long":"76.364444"}},{"country":"in","city":"Alvar Tirunagari","coordinates":{"lat":"8.6","long":"77.95"}},{"country":"in","city":"Alvurkurchi","coordinates":{"lat":"8.766667","long":"77.416667"}},{"country":"in","city":"Alwar","coordinates":{"lat":"27.566667","long":"76.6"}},{"country":"in","city":"Alwar City","coordinates":{"lat":"27.566667","long":"76.6"}},{"country":"in","city":"Alwarkurichchi","coordinates":{"lat":"8.766667","long":"77.416667"}},{"country":"in","city":"Alwarpet","coordinates":{"lat":"13.036389","long":"80.257778"}},{"country":"in","city":"Alwar Tirunagari","coordinates":{"lat":"8.6","long":"77.95"}},{"country":"in","city":"Alwas","coordinates":{"lat":"32.966667","long":"76.166667"}},{"country":"in","city":"Alwaye","coordinates":{"lat":"10.109167","long":"76.364444"}},{"country":"in","city":"Ama","coordinates":{"lat":"26.883333","long":"82.666667"}},{"country":"in","city":"Amabera","coordinates":{"lat":"20.066667","long":"81.316667"}},{"country":"in","city":"Amadavad","coordinates":{"lat":"23.033333","long":"72.616667"}},{"country":"in","city":"Amagaon","coordinates":{"lat":"22.866667","long":"79.066667"}},{"country":"in","city":"Amagohan","coordinates":{"lat":"22.55","long":"81.933333"}},{"country":"in","city":"Amaiyapur","coordinates":{"lat":"27.6096","long":"79.6243"}},{"country":"in","city":"Amakoi","coordinates":{"lat":"24.0641","long":"79.147"}},{"country":"in","city":"Amakona","coordinates":{"lat":"23.1","long":"83.966667"}},{"country":"in","city":"Amal","coordinates":{"lat":"20.266667","long":"72.966667"}},{"country":"in","city":"Amalapuram","coordinates":{"lat":"16.583333","long":"82.016667"}},{"country":"in","city":"Amalda","coordinates":{"lat":"25.483333","long":"75.15"}},{"country":"in","city":"Amaldu","coordinates":{"lat":"29.926944","long":"78.53"}},{"country":"in","city":"Amalner","coordinates":{"lat":"21.05","long":"75.066667"}},{"country":"in","city":"Amalpada","coordinates":{"lat":"21.25","long":"73.683333"}},{"country":"in","city":"Amamora","coordinates":{"lat":"20.437778","long":"82.411111"}},{"country":"in","city":"Amanambakkam","coordinates":{"lat":"13.216667","long":"80.033333"}},{"country":"in","city":"Amanatgarh","coordinates":{"lat":"30.091389","long":"77.806389"}},{"country":"in","city":"Amancherla","coordinates":{"lat":"14.4","long":"79.866667"}},{"country":"in","city":"Amangal","coordinates":{"lat":"16.85","long":"78.533333"}},{"country":"in","city":"Amanganj","coordinates":{"lat":"24.433333","long":"80.033333"}},{"country":"in","city":"Amaniganj","coordinates":{"lat":"26.666667","long":"81.783333"}},{"country":"in","city":"Amankhera","coordinates":{"lat":"24.7219","long":"79.0837"}},{"country":"in","city":"Amanpur","coordinates":{"lat":"27.716667","long":"78.75"}},{"country":"in","city":"Aman Purwa","coordinates":{"lat":"27.0539","long":"79.8053"}},{"country":"in","city":"Amaos","coordinates":{"lat":"25.7","long":"73.333333"}},{"country":"in","city":"Amarambedu","coordinates":{"lat":"12.964722","long":"80.013056"}},{"country":"in","city":"Amarapuram","coordinates":{"lat":"14.133333","long":"76.983333"}},{"country":"in","city":"Amarapur","coordinates":{"lat":"14.133333","long":"76.983333"}},{"country":"in","city":"Amarapur","coordinates":{"lat":"19.283333","long":"75.183333"}},{"country":"in","city":"Amaravathi","coordinates":{"lat":"10.016667","long":"78.783333"}},{"country":"in","city":"Amaravati","coordinates":{"lat":"16.583333","long":"80.366667"}},{"country":"in","city":"Amaravati","coordinates":{"lat":"20.933333","long":"77.75"}},{"country":"in","city":"Amaravati","coordinates":{"lat":"10.016667","long":"78.783333"}},{"country":"in","city":"Amarchinta","coordinates":{"lat":"16.366667","long":"77.783333"}},{"country":"in","city":"Amarda","coordinates":{"lat":"21.783333","long":"87.133333"}},{"country":"in","city":"Amargad","coordinates":{"lat":"34.258333","long":"74.461111"}},{"country":"in","city":"Amargarh","coordinates":{"lat":"26.266667","long":"76.733333"}},{"country":"in","city":"Amargarh","coordinates":{"lat":"25.683333","long":"78.916667"}},{"country":"in","city":"Amargol","coordinates":{"lat":"15.416667","long":"75.116667"}},{"country":"in","city":"Amaria","coordinates":{"lat":"28.75","long":"79.716667"}},{"country":"in","city":"Amar ka Nagla","coordinates":{"lat":"26.7937","long":"79.2217"}},{"country":"in","city":"Amarkantak","coordinates":{"lat":"22.666667","long":"81.75"}},{"country":"in","city":"Amarli Gala","coordinates":{"lat":"33.225","long":"74.083333"}},{"country":"in","city":"Amarnath","coordinates":{"lat":"34.216667","long":"75.5"}},{"country":"in","city":"Amarnath","coordinates":{"lat":"19.2","long":"73.166667"}},{"country":"in","city":"Amarpatan","coordinates":{"lat":"24.316667","long":"80.983333"}},{"country":"in","city":"Amarpura","coordinates":{"lat":"25.620833","long":"75.598611"}},{"country":"in","city":"Amarpur","coordinates":{"lat":"23.53","long":"91.644722"}},{"country":"in","city":"Amarpur","coordinates":{"lat":"25.033333","long":"86.9"}},{"country":"in","city":"Amarpur","coordinates":{"lat":"22.783333","long":"80.95"}},{"country":"in","city":"Amarpur","coordinates":{"lat":"24.7597","long":"78.4211"}},{"country":"in","city":"Amarpur Jorasi","coordinates":{"lat":"28.015278","long":"76.061944"}},{"country":"in","city":"Amarsar","coordinates":{"lat":"27.366667","long":"75.833333"}},{"country":"in","city":"Amarwa","coordinates":{"lat":"26.666667","long":"76.483333"}},{"country":"in","city":"Amarwara","coordinates":{"lat":"22.3","long":"79.166667"}},{"country":"in","city":"Amas","coordinates":{"lat":"24.633333","long":"84.65"}},{"country":"in","city":"Amatkur","coordinates":{"lat":"16.333333","long":"77.816667"}},{"country":"in","city":"Amatulla","coordinates":{"lat":"26.95","long":"92.15"}},{"country":"in","city":"Amauli","coordinates":{"lat":"26.016667","long":"80.316667"}},{"country":"in","city":"Amawan","coordinates":{"lat":"25.066667","long":"83.433333"}},{"country":"in","city":"Amayan","coordinates":{"lat":"26.333333","long":"78.766389"}},{"country":"in","city":"Amba","coordinates":{"lat":"20.583333","long":"73.233333"}},{"country":"in","city":"Amba","coordinates":{"lat":"19.233333","long":"75.483333"}},{"country":"in","city":"Amba","coordinates":{"lat":"25.005833","long":"75.533056"}},{"country":"in","city":"Amba","coordinates":{"lat":"24.633333","long":"84.283333"}},{"country":"in","city":"Amba","coordinates":{"lat":"24.833333","long":"75.3"}},{"country":"in","city":"Ambabari","coordinates":{"lat":"20.166667","long":"73.15"}},{"country":"in","city":"Ambabarwa","coordinates":{"lat":"21.230278","long":"76.647222"}},{"country":"in","city":"Ambabhona","coordinates":{"lat":"21.583333","long":"83.466667"}},{"country":"in","city":"Ambad","coordinates":{"lat":"19.616667","long":"75.8"}},{"country":"in","city":"Ambagai","coordinates":{"lat":"33.075","long":"74.186111"}},{"country":"in","city":"Ambag","coordinates":{"lat":"30.4575","long":"77.939167"}},{"country":"in","city":"Ambagarattur","coordinates":{"lat":"10.95","long":"79.716667"}},{"country":"in","city":"Ambagarh Chauki","coordinates":{"lat":"20.783333","long":"80.716667"}},{"country":"in","city":"Ambagarh-Chowki","coordinates":{"lat":"20.783333","long":"80.716667"}},{"country":"in","city":"Ambah","coordinates":{"lat":"26.7075","long":"78.226111"}},{"country":"in","city":"Ambahta","coordinates":{"lat":"29.85","long":"77.333333"}},{"country":"in","city":"Ambahta Rindan","coordinates":{"lat":"29.563611","long":"77.285833"}},{"country":"in","city":"Ambahta Sheikha","coordinates":{"lat":"29.65","long":"77.616667"}},{"country":"in","city":"Ambajhari","coordinates":{"lat":"21.05","long":"78.833333"}},{"country":"in","city":"Ambajiri","coordinates":{"lat":"18.883333","long":"84.033333"}},{"country":"in","city":"Ambajogai","coordinates":{"lat":"18.733333","long":"76.383333"}},{"country":"in","city":"Ambala","coordinates":{"lat":"30.378333","long":"76.780833"}},{"country":"in","city":"Ambala","coordinates":{"lat":"30.898889","long":"76.964722"}},{"country":"in","city":"Ambalapulai","coordinates":{"lat":"9.4","long":"76.366667"}},{"country":"in","city":"Ambalapuzha","coordinates":{"lat":"9.4","long":"76.366667"}},{"country":"in","city":"Ambalasamudram","coordinates":{"lat":"10.35","long":"79.266667"}},{"country":"in","city":"Ambaldi","coordinates":{"lat":"21.183333","long":"71.333333"}},{"country":"in","city":"Ambalga","coordinates":{"lat":"18.15","long":"76.866667"}},{"country":"in","city":"Ambalga","coordinates":{"lat":"17.616667","long":"76.9"}},{"country":"in","city":"Ambalga Buzurg","coordinates":{"lat":"18.15","long":"76.866667"}},{"country":"in","city":"Ambaligolla","coordinates":{"lat":"14.2","long":"75.283333"}},{"country":"in","city":"Ambaltek","coordinates":{"lat":"18.766667","long":"76.566667"}},{"country":"in","city":"Amb","coordinates":{"lat":"31.683333","long":"76.116667"}},{"country":"in","city":"Amb","coordinates":{"lat":"32.869444","long":"74.784722"}},{"country":"in","city":"Ambapani","coordinates":{"lat":"24.266667","long":"74.416667"}},{"country":"in","city":"Ambapani Chauki","coordinates":{"lat":"21.516667","long":"75.483333"}},{"country":"in","city":"Ambara","coordinates":{"lat":"21.329722","long":"77.903056"}},{"country":"in","city":"Ambara","coordinates":{"lat":"28.25","long":"80.566667"}},{"country":"in","city":"Ambara Khas","coordinates":{"lat":"21.733333","long":"78.566667"}},{"country":"in","city":"Ambaran","coordinates":{"lat":"32.909722","long":"74.766667"}},{"country":"in","city":"Ambargaon","coordinates":{"lat":"20.2","long":"72.75"}},{"country":"in","city":"Ambaria","coordinates":{"lat":"22.228611","long":"88.044167"}},{"country":"in","city":"Ambari","coordinates":{"lat":"30.497778","long":"77.817222"}},{"country":"in","city":"Ambarim","coordinates":{"lat":"15.55","long":"73.85"}},{"country":"in","city":"Ambarnath","coordinates":{"lat":"19.2","long":"73.166667"}},{"country":"in","city":"Ambarpet","coordinates":{"lat":"17.394722","long":"78.5175"}},{"country":"in","city":"Ambarpet Kalan","coordinates":{"lat":"17.318889","long":"78.638056"}},{"country":"in","city":"Ambasa","coordinates":{"lat":"23.917222","long":"91.847222"}},{"country":"in","city":"Ambasamudram","coordinates":{"lat":"8.7","long":"77.466667"}},{"country":"in","city":"Ambassamudram","coordinates":{"lat":"8.7","long":"77.466667"}},{"country":"in","city":"Ambata","coordinates":{"lat":"30.378333","long":"76.780833"}},{"country":"in","city":"Ambatturai","coordinates":{"lat":"10.266667","long":"77.933333"}},{"country":"in","city":"Ambattur","coordinates":{"lat":"13.076667","long":"80.088611"}},{"country":"in","city":"Ambaula","coordinates":{"lat":"22.871389","long":"88.662778"}},{"country":"in","city":"Ambaulim","coordinates":{"lat":"15.2","long":"74.05"}},{"country":"in","city":"Ambavli","coordinates":{"lat":"17.716667","long":"73.55"}},{"country":"in","city":"Ambavna","coordinates":{"lat":"18.616667","long":"73.366667"}},{"country":"in","city":"Ambeachi-Gavol","coordinates":{"lat":"15.633333","long":"74.183333"}},{"country":"in","city":"Ambe","coordinates":{"lat":"18.733333","long":"76.383333"}},{"country":"in","city":"Ambedem","coordinates":{"lat":"15.55","long":"74.166667"}},{"country":"in","city":"Ambegaon","coordinates":{"lat":"19.116667","long":"73.733333"}},{"country":"in","city":"Ambehta Sheikha","coordinates":{"lat":"29.65","long":"77.616667"}},{"country":"in","city":"Ambejogai","coordinates":{"lat":"18.733333","long":"76.383333"}},{"country":"in","city":"Ambe Kas","coordinates":{"lat":"32.987509","long":"74.382299"}},{"country":"in","city":"Ambelim","coordinates":{"lat":"15.166667","long":"73.966667"}},{"country":"in","city":"Ambepur","coordinates":{"lat":"18.584722","long":"72.947778"}},{"country":"in","city":"Amber","coordinates":{"lat":"26.983333","long":"75.866667"}},{"country":"in","city":"Ambewari","coordinates":{"lat":"19.833333","long":"75.133333"}},{"country":"in","city":"Ambgaon","coordinates":{"lat":"20.65","long":"79.95"}},{"country":"in","city":"Ambhai","coordinates":{"lat":"20.466667","long":"75.566667"}},{"country":"in","city":"Ambheti","coordinates":{"lat":"20.383333","long":"73.016667"}},{"country":"in","city":"Ambiapur","coordinates":{"lat":"26.5117","long":"79.8345"}},{"country":"in","city":"Ambi Danna","coordinates":{"lat":"32.979167","long":"74.6375"}},{"country":"in","city":"Ambikanagar","coordinates":{"lat":"22.95","long":"86.766667"}},{"country":"in","city":"Ambikapur","coordinates":{"lat":"23.116667","long":"83.2"}},{"country":"in","city":"Ambiwala","coordinates":{"lat":"30.322222","long":"77.936667"}},{"country":"in","city":"Amblala","coordinates":{"lat":"30.5563","long":"76.7872"}},{"country":"in","city":"Ambli","coordinates":{"lat":"18.504722","long":"72.963333"}},{"country":"in","city":"Amboa","coordinates":{"lat":"30.55","long":"77.716667"}},{"country":"in","city":"Ambodala","coordinates":{"lat":"19.833333","long":"83.483333"}},{"country":"in","city":"Amboli","coordinates":{"lat":"20.133333","long":"73.033333"}},{"country":"in","city":"Amboli","coordinates":{"lat":"17.716667","long":"73.55"}},{"country":"in","city":"Ambora","coordinates":{"lat":"15.316667","long":"73.983333"}},{"country":"in","city":"Ambur","coordinates":{"lat":"12.783333","long":"78.7"}},{"country":"in","city":"Ambwala","coordinates":{"lat":"30.7385","long":"76.9346"}},{"country":"in","city":"Ambwala","coordinates":{"lat":"30.132778","long":"77.764722"}},{"country":"in","city":"Amda","coordinates":{"lat":"22.75","long":"85.8"}},{"country":"in","city":"Amda Kadal","coordinates":{"lat":"34.115278","long":"74.816667"}},{"country":"in","city":"Amdanga","coordinates":{"lat":"22.811944","long":"88.515"}},{"country":"in","city":"Amdapur","coordinates":{"lat":"17.2775","long":"78.291667"}},{"country":"in","city":"Amdapur","coordinates":{"lat":"19.683333","long":"77.916667"}},{"country":"in","city":"Amdapur","coordinates":{"lat":"26.4857","long":"79.2306"}},{"country":"in","city":"Amdara","coordinates":{"lat":"24.116667","long":"80.583333"}},{"country":"in","city":"Amdhala","coordinates":{"lat":"22.291111","long":"88.610833"}},{"country":"in","city":"Amdhi","coordinates":{"lat":"23.85","long":"81.45"}},{"country":"in","city":"Amdi","coordinates":{"lat":"23.85","long":"81.45"}},{"country":"in","city":"Ameh","coordinates":{"lat":"29.963611","long":"78.709167"}},{"country":"in","city":"Amer","coordinates":{"lat":"26.983333","long":"75.866667"}},{"country":"in","city":"Ameta","coordinates":{"lat":"24.416667","long":"76.416667"}},{"country":"in","city":"Amet","coordinates":{"lat":"25.3","long":"73.933333"}},{"country":"in","city":"Amethi","coordinates":{"lat":"28.016667","long":"81.05"}},{"country":"in","city":"Amgachia","coordinates":{"lat":"22.409444","long":"88.304722"}},{"country":"in","city":"Amgaon","coordinates":{"lat":"20.65","long":"79.95"}},{"country":"in","city":"Amgaon","coordinates":{"lat":"22.866667","long":"79.066667"}},{"country":"in","city":"Amgaon","coordinates":{"lat":"20.916667","long":"80.766667"}},{"country":"in","city":"Amgawan","coordinates":{"lat":"23.083333","long":"80.45"}},{"country":"in","city":"Amgawan","coordinates":{"lat":"26.0537","long":"79.4616"}},{"country":"in","city":"Amguri","coordinates":{"lat":"26.8","long":"94.533333"}},{"country":"in","city":"Amguri Bazar","coordinates":{"lat":"26.666667","long":"90.6"}},{"country":"in","city":"Amhara","coordinates":{"lat":"26.283333","long":"87.316667"}},{"country":"in","city":"Amhat","coordinates":{"lat":"25.766667","long":"83.8"}},{"country":"in","city":"Amihora","coordinates":{"lat":"26.351635","long":"89.998579"}},{"country":"in","city":"Amilia","coordinates":{"lat":"27.5717","long":"79.6981"}},{"country":"in","city":"Amili","coordinates":{"lat":"28.433333","long":"95.866667"}},{"country":"in","city":"Amin","coordinates":{"lat":"29.916667","long":"76.85"}},{"country":"in","city":"Aminbhavi","coordinates":{"lat":"15.55","long":"75.066667"}},{"country":"in","city":"Amingad","coordinates":{"lat":"16.066667","long":"75.95"}},{"country":"in","city":"Amingaon","coordinates":{"lat":"26.184722","long":"91.669167"}},{"country":"in","city":"Amingarh","coordinates":{"lat":"16.066667","long":"75.95"}},{"country":"in","city":"Aminjikarai","coordinates":{"lat":"13.073889","long":"80.224444"}},{"country":"in","city":"Aminpura","coordinates":{"lat":"28.4271","long":"75.6512"}},{"country":"in","city":"Amira Kadal","coordinates":{"lat":"34.069444","long":"74.804167"}},{"country":"in","city":"Amir Mahal","coordinates":{"lat":"13.053889","long":"80.2675"}},{"country":"in","city":"Amirpet","coordinates":{"lat":"17.149167","long":"78.340833"}},{"country":"in","city":"Amita Purwa","coordinates":{"lat":"27.068","long":"79.7907"}},{"country":"in","city":"Amjapur","coordinates":{"lat":"17.302778","long":"78.588611"}},{"country":"in","city":"Amjhera","coordinates":{"lat":"22.55","long":"75.1"}},{"country":"in","city":"Amjhor","coordinates":{"lat":"23.533333","long":"81.4"}},{"country":"in","city":"Amka","coordinates":{"lat":"30.7443","long":"76.9564"}},{"country":"in","city":"Amkatla","coordinates":{"lat":"29.811389","long":"78.709722"}},{"country":"in","city":"Amkhera","coordinates":{"lat":"23.3","long":"78.033333"}},{"country":"in","city":"Amkhera","coordinates":{"lat":"26.2081","long":"79.2533"}},{"country":"in","city":"Amkholi","coordinates":{"lat":"29.844444","long":"78.596389"}},{"country":"in","city":"Amkhuta","coordinates":{"lat":"21.4","long":"73.216667"}},{"country":"in","city":"Amkhut","coordinates":{"lat":"22.45","long":"74.283333"}},{"country":"in","city":"Amla","coordinates":{"lat":"21.933333","long":"78.116667"}},{"country":"in","city":"Amla","coordinates":{"lat":"29.527778","long":"77.359722"}},{"country":"in","city":"Amlagora","coordinates":{"lat":"22.833333","long":"87.333333"}},{"country":"in","city":"Amlaha","coordinates":{"lat":"23.116667","long":"76.9"}},{"country":"in","city":"Amlakhi","coordinates":{"lat":"25.966667","long":"93.5"}},{"country":"in","city":"Amlataria","coordinates":{"lat":"22.316667","long":"87.333333"}},{"country":"in","city":"Amlauha","coordinates":{"lat":"27.5096","long":"79.7112"}},{"country":"in","city":"Amlesa","coordinates":{"lat":"29.796667","long":"78.701111"}},{"country":"in","city":"Amlia","coordinates":{"lat":"24.05","long":"82.416667"}},{"country":"in","city":"Amlia","coordinates":{"lat":"26.9319","long":"79.6056"}},{"country":"in","city":"Amli","coordinates":{"lat":"20.283333","long":"73.016667"}},{"country":"in","city":"Amli","coordinates":{"lat":"21.616667","long":"74.033333"}},{"country":"in","city":"Amli","coordinates":{"lat":"24.833333","long":"73.116667"}},{"country":"in","city":"Amli","coordinates":{"lat":"25.56","long":"79.1915"}},{"country":"in","city":"Amlipadar","coordinates":{"lat":"19.933333","long":"82.433333"}},{"country":"in","city":"Amliyara","coordinates":{"lat":"23.216667","long":"73.033333"}},{"country":"in","city":"Amloda","coordinates":{"lat":"27.333333","long":"76.066667"}},{"country":"in","city":"Amloh","coordinates":{"lat":"30.6084","long":"76.2319"}},{"country":"in","city":"Ammalapadu","coordinates":{"lat":"18.65","long":"84.4"}},{"country":"in","city":"Ammanabrole","coordinates":{"lat":"15.583333","long":"80.15"}},{"country":"in","city":"Ammanabrolu","coordinates":{"lat":"15.583333","long":"80.15"}},{"country":"in","city":"Ammani Chattram","coordinates":{"lat":"10.2","long":"79.266667"}},{"country":"in","city":"Ammanitchatram","coordinates":{"lat":"10.2","long":"79.266667"}},{"country":"in","city":"Ammapatam","coordinates":{"lat":"10.016667","long":"79.233333"}},{"country":"in","city":"Ammapatnam","coordinates":{"lat":"10.016667","long":"79.233333"}},{"country":"in","city":"Ammapattinam","coordinates":{"lat":"10.016667","long":"79.233333"}},{"country":"in","city":"Ammapet","coordinates":{"lat":"10.8","long":"79.333333"}},{"country":"in","city":"Ammapettai","coordinates":{"lat":"10.8","long":"79.333333"}},{"country":"in","city":"Ammapur","coordinates":{"lat":"16.433333","long":"77.866667"}},{"country":"in","city":"Ammatti","coordinates":{"lat":"12.25","long":"75.85"}},{"country":"in","city":"Ammavaripalem","coordinates":{"lat":"14.466667","long":"79.716667"}},{"country":"in","city":"Ammenalli","coordinates":{"lat":"14.55","long":"74.716667"}},{"country":"in","city":"Amnari","coordinates":{"lat":"24.066667","long":"85.6"}},{"country":"in","city":"Amoda","coordinates":{"lat":"23.6","long":"79.95"}},{"country":"in","city":"Amod","coordinates":{"lat":"21.983333","long":"72.9"}},{"country":"in","city":"Amoi Patha","coordinates":{"lat":"25.516667","long":"77.95"}},{"country":"in","city":"Amokhor","coordinates":{"lat":"33.022222","long":"74.391667"}},{"country":"in","city":"Amola","coordinates":{"lat":"25.4","long":"77.933333"}},{"country":"in","city":"Amola","coordinates":{"lat":"29.867222","long":"78.523611"}},{"country":"in","city":"Amoli","coordinates":{"lat":"26.5342","long":"79.8212"}},{"country":"in","city":"Amona","coordinates":{"lat":"15.533333","long":"73.983333"}},{"country":"in","city":"Amona","coordinates":{"lat":"23.15","long":"76.25"}},{"country":"in","city":"Amora","coordinates":{"lat":"24.6368","long":"78.6534"}},{"country":"in","city":"Amour","coordinates":{"lat":"25.966667","long":"87.716667"}},{"country":"in","city":"Ampadar","coordinates":{"lat":"19.55","long":"83.116667"}},{"country":"in","city":"Ampahta Uakubpur","coordinates":{"lat":"29.646667","long":"77.421667"}},{"country":"in","city":"Ampalam","coordinates":{"lat":"18.366667","long":"84.133333"}},{"country":"in","city":"Ampani","coordinates":{"lat":"19.583333","long":"82.633333"}},{"country":"in","city":"Ampi Bazar","coordinates":{"lat":"23.65","long":"91.624722"}},{"country":"in","city":"Ampultun","coordinates":{"lat":"34.216667","long":"76.6"}},{"country":"in","city":"Am Purwa","coordinates":{"lat":"27.0789","long":"79.8117"}},{"country":"in","city":"Amra","coordinates":{"lat":"25.3","long":"83.433333"}},{"country":"in","city":"Amrabad","coordinates":{"lat":"16.383333","long":"78.833333"}},{"country":"in","city":"Amrala","coordinates":{"lat":"30.6118","long":"76.9937"}},{"country":"in","city":"Amran","coordinates":{"lat":"22.816667","long":"70.566667"}},{"country":"in","city":"Amraoti","coordinates":{"lat":"20.933333","long":"77.75"}},{"country":"in","city":"Amraoti","coordinates":{"lat":"21.65","long":"78.183333"}},{"country":"in","city":"Amrapara","coordinates":{"lat":"24.533333","long":"87.566667"}},{"country":"in","city":"Amrapur","coordinates":{"lat":"21.716667","long":"70.05"}},{"country":"in","city":"Amrasa","coordinates":{"lat":"28.775278","long":"74.723056"}},{"country":"in","city":"Amratala","coordinates":{"lat":"22.241667","long":"88.663889"}},{"country":"in","city":"Amrati","coordinates":{"lat":"19.583333","long":"81.95"}},{"country":"in","city":"Amratiya","coordinates":{"lat":"25.5875","long":"75.509722"}},{"country":"in","city":"Amraud","coordinates":{"lat":"24.616667","long":"77.85"}},{"country":"in","city":"Amrauli","coordinates":{"lat":"27.1277","long":"79.8361"}},{"country":"in","city":"Amravati","coordinates":{"lat":"20.933333","long":"77.75"}},{"country":"in","city":"Amreli","coordinates":{"lat":"21.616667","long":"71.233333"}},{"country":"in","city":"Amreswar","coordinates":{"lat":"22.469722","long":"88.559167"}},{"country":"in","city":"Amria","coordinates":{"lat":"22.271667","long":"88.191944"}},{"country":"in","city":"Amring","coordinates":{"lat":"25.733333","long":"92.833333"}},{"country":"in","city":"Amritpur","coordinates":{"lat":"26.8234","long":"79.0748"}},{"country":"in","city":"Amritsar","coordinates":{"lat":"31.633056","long":"74.865556"}},{"country":"in","city":"Amrod","coordinates":{"lat":"25.116667","long":"77.366667"}},{"country":"in","city":"Amroha","coordinates":{"lat":"28.916667","long":"78.466667"}},{"country":"in","city":"Amrohia","coordinates":{"lat":"26.7018","long":"79.7719"}},{"country":"in","city":"Amroli","coordinates":{"lat":"21.3","long":"72.85"}},{"country":"in","city":"Amrui","coordinates":{"lat":"34.35","long":"73.816667"}},{"country":"in","city":"Amrutur","coordinates":{"lat":"12.916111","long":"76.933056"}},{"country":"in","city":"Amsanpalli","coordinates":{"lat":"17.941389","long":"78.24"}},{"country":"in","city":"Amsaur","coordinates":{"lat":"29.786111","long":"78.586389"}},{"country":"in","city":"Amta","coordinates":{"lat":"21.933333","long":"73.933333"}},{"country":"in","city":"Amta","coordinates":{"lat":"22.58","long":"88.008333"}},{"country":"in","city":"Amtala","coordinates":{"lat":"26.083333","long":"91.416667"}},{"country":"in","city":"Amtala","coordinates":{"lat":"22.371389","long":"88.294444"}},{"country":"in","city":"Amtika","coordinates":{"lat":"26.783333","long":"90.533333"}},{"country":"in","city":"Amtun","coordinates":{"lat":"25.247222","long":"75.646111"}},{"country":"in","city":"Amudalavalasa","coordinates":{"lat":"18.416667","long":"83.9"}},{"country":"in","city":"Amudur","coordinates":{"lat":"13.166111","long":"80.028611"}},{"country":"in","city":"Amur","coordinates":{"lat":"18.8","long":"78.283333"}},{"country":"in","city":"Amurtur","coordinates":{"lat":"12.916111","long":"76.933056"}},{"country":"in","city":"Amwala Tarla","coordinates":{"lat":"30.373889","long":"77.997222"}},{"country":"in","city":"Amwa Majhar","coordinates":{"lat":"26.716667","long":"84.583333"}},{"country":"in","city":"Anadra","coordinates":{"lat":"24.633333","long":"72.65"}},{"country":"in","city":"Anagodu","coordinates":{"lat":"14.4","long":"76.05"}},{"country":"in","city":"Anah","coordinates":{"lat":"33.155556","long":"74.398611"}},{"country":"in","city":"Anaimalai","coordinates":{"lat":"10.583333","long":"76.933333"}},{"country":"in","city":"Anaimalais","coordinates":{"lat":"10.583333","long":"76.933333"}},{"country":"in","city":"Anaitha","coordinates":{"lat":"26.4454","long":"79.2082"}},{"country":"in","city":"Anaji","coordinates":{"lat":"14.483333","long":"76.1"}},{"country":"in","city":"Anajpur","coordinates":{"lat":"17.270278","long":"78.694167"}},{"country":"in","city":"Anakapalle","coordinates":{"lat":"17.683333","long":"83.016667"}},{"country":"in","city":"Anakaputtur","coordinates":{"lat":"12.982778","long":"80.126389"}},{"country":"in","city":"Anamalai","coordinates":{"lat":"10.583333","long":"76.933333"}},{"country":"in","city":"Anamalainagar","coordinates":{"lat":"11.4","long":"79.733333"}},{"country":"in","city":"Anamasamudrampeta","coordinates":{"lat":"14.7","long":"79.683333"}},{"country":"in","city":"Ananapuri Colony","coordinates":{"lat":"30.6589","long":"76.8286"}},{"country":"in","city":"Anand","coordinates":{"lat":"22.566667","long":"72.933333"}},{"country":"in","city":"Anandapuram","coordinates":{"lat":"14.083333","long":"75.2"}},{"country":"in","city":"Anandapur","coordinates":{"lat":"26.36892","long":"89.859229"}},{"country":"in","city":"Anandgarh","coordinates":{"lat":"28.783333","long":"72.966667"}},{"country":"in","city":"Anandnagar","coordinates":{"lat":"27.1","long":"83.283333"}},{"country":"in","city":"Anand Nagla","coordinates":{"lat":"27.7724","long":"79.4302"}},{"country":"in","city":"Anandpura","coordinates":{"lat":"28.2722","long":"75.2593"}},{"country":"in","city":"Anandpur","coordinates":{"lat":"22.216667","long":"71.166667"}},{"country":"in","city":"Anandpur","coordinates":{"lat":"21.214722","long":"86.110278"}},{"country":"in","city":"Anandpur","coordinates":{"lat":"31.25","long":"76.5"}},{"country":"in","city":"Anandpur","coordinates":{"lat":"24.15","long":"77.433333"}},{"country":"in","city":"Anandpur","coordinates":{"lat":"27.1224","long":"79.3198"}},{"country":"in","city":"Anandpur","coordinates":{"lat":"22.45","long":"85.166667"}},{"country":"in","city":"Anandpur Kota","coordinates":{"lat":"27.8425","long":"79.3954"}},{"country":"in","city":"Anandpur Sahib","coordinates":{"lat":"31.25","long":"76.5"}},{"country":"in","city":"Anandwasi","coordinates":{"lat":"28.270833","long":"74.520556"}},{"country":"in","city":"Ananianpur","coordinates":{"lat":"27.2114","long":"79.7779"}},{"country":"in","city":"Anantagiripalli","coordinates":{"lat":"17.998611","long":"78.750833"}},{"country":"in","city":"Anantamadugu","coordinates":{"lat":"14.133333","long":"79.716667"}},{"country":"in","city":"Anantapuramu","coordinates":{"lat":"14.683333","long":"77.6"}},{"country":"in","city":"Anantapur","coordinates":{"lat":"14.683333","long":"77.6"}},{"country":"in","city":"Anantapur","coordinates":{"lat":"22.105","long":"88.114167"}},{"country":"in","city":"Anantapur","coordinates":{"lat":"26.829","long":"79.5342"}},{"country":"in","city":"Anantaram","coordinates":{"lat":"17.515556","long":"78.845556"}},{"country":"in","city":"Anantasagaram","coordinates":{"lat":"14.583333","long":"79.416667"}},{"country":"in","city":"Anantasagram","coordinates":{"lat":"14.583333","long":"79.416667"}},{"country":"in","city":"Anantganj","coordinates":{"lat":"25.565","long":"75.611944"}},{"country":"in","city":"Anantnag","coordinates":{"lat":"33.733333","long":"75.15"}},{"country":"in","city":"Anant Peth","coordinates":{"lat":"25.966667","long":"78.266667"}},{"country":"in","city":"Anantpura","coordinates":{"lat":"24.787","long":"78.8364"}},{"country":"in","city":"Anantpur","coordinates":{"lat":"20.3","long":"86.516667"}},{"country":"in","city":"Anantpur","coordinates":{"lat":"23.516667","long":"79.116667"}},{"country":"in","city":"Anantpur","coordinates":{"lat":"26.9502","long":"79.6461"}},{"country":"in","city":"Anantsagar","coordinates":{"lat":"17.685556","long":"78.621944"}},{"country":"in","city":"Ananwan","coordinates":{"lat":"34.35","long":"74.319444"}},{"country":"in","city":"Anari ki Dahar","coordinates":{"lat":"27.292257","long":"71.71847"}},{"country":"in","city":"Anarnath","coordinates":{"lat":"33.802778","long":"74.261111"}},{"country":"in","city":"Anarwala","coordinates":{"lat":"27.822159","long":"71.696553"}},{"country":"in","city":"Anaskura","coordinates":{"lat":"16.783333","long":"73.8"}},{"country":"in","city":"Anati","coordinates":{"lat":"34.569444","long":"76.2125"}},{"country":"in","city":"Anaud","coordinates":{"lat":"22.566667","long":"72.933333"}},{"country":"in","city":"Anaugi","coordinates":{"lat":"27.0589","long":"79.7796"}},{"country":"in","city":"Anaula","coordinates":{"lat":"27.9826","long":"79.1906"}},{"country":"in","city":"Anaura","coordinates":{"lat":"24.6517","long":"78.5287"}},{"country":"in","city":"Anavatti","coordinates":{"lat":"14.566667","long":"75.166667"}},{"country":"in","city":"Anawal","coordinates":{"lat":"20.833333","long":"73.266667"}},{"country":"in","city":"Anchal","coordinates":{"lat":"8.9","long":"76.9"}},{"country":"in","city":"Anchar","coordinates":{"lat":"34.141667","long":"74.797222"}},{"country":"in","city":"Anchetti","coordinates":{"lat":"12.35","long":"77.716667"}},{"country":"in","city":"Anda","coordinates":{"lat":"21.066667","long":"81.283333"}},{"country":"in","city":"Andal","coordinates":{"lat":"23.6","long":"87.2"}},{"country":"in","city":"Andal Junction","coordinates":{"lat":"23.6","long":"87.2"}},{"country":"in","city":"Andanda","coordinates":{"lat":"19.016667","long":"84.383333"}},{"country":"in","city":"Andarbug","coordinates":{"lat":"34.45","long":"74.452778"}},{"country":"in","city":"Andargam","coordinates":{"lat":"34.205556","long":"74.526389"}},{"country":"in","city":"Andarhom","coordinates":{"lat":"34.5","long":"74.297222"}},{"country":"in","city":"Andarsul","coordinates":{"lat":"20","long":"74.566667"}},{"country":"in","city":"Andarwan","coordinates":{"lat":"34.308333","long":"74.811111"}},{"country":"in","city":"Andaura","coordinates":{"lat":"32.15","long":"75.683333"}},{"country":"in","city":"Andela","coordinates":{"lat":"24.5689","long":"78.5464"}},{"country":"in","city":"Andeli","coordinates":{"lat":"24.2008","long":"78.1375"}},{"country":"in","city":"Andevanahalli","coordinates":{"lat":"12.466667","long":"77.766667"}},{"country":"in","city":"Andhari","coordinates":{"lat":"20.266667","long":"75.483333"}},{"country":"in","city":"Andharkaneh","coordinates":{"lat":"22.233333","long":"74.083333"}},{"country":"in","city":"Andharkotha","coordinates":{"lat":"24.05","long":"88.7"}},{"country":"in","city":"Andharmanik","coordinates":{"lat":"22.373889","long":"88.357222"}},{"country":"in","city":"Andher","coordinates":{"lat":"20.15","long":"76.233333"}},{"country":"in","city":"Andher","coordinates":{"lat":"25.324722","long":"75.6375"}},{"country":"in","city":"Andher","coordinates":{"lat":"24.8114","long":"78.4336"}},{"country":"in","city":"Andheri","coordinates":{"lat":"19.116667","long":"72.833333"}},{"country":"in","city":"Andhgarh","coordinates":{"lat":"29.919722","long":"77.046389"}},{"country":"in","city":"Andhiari","coordinates":{"lat":"24.8061","long":"78.3508"}},{"country":"in","city":"Andhori","coordinates":{"lat":"18.766667","long":"76.833333"}},{"country":"in","city":"Andhra Tharhi","coordinates":{"lat":"26.383333","long":"86.333333"}},{"country":"in","city":"Andhra Thari","coordinates":{"lat":"26.383333","long":"86.333333"}},{"country":"in","city":"Andimadam","coordinates":{"lat":"11.333333","long":"79.383333"}},{"country":"in","city":"Andimatam","coordinates":{"lat":"11.333333","long":"79.383333"}},{"country":"in","city":"Andipor","coordinates":{"lat":"22.716667","long":"86.533333"}},{"country":"in","city":"Andippatti","coordinates":{"lat":"9.983333","long":"77.633333"}},{"country":"in","city":"Andipur","coordinates":{"lat":"22.716667","long":"86.533333"}},{"country":"in","city":"Andiyur","coordinates":{"lat":"11.583333","long":"77.6"}},{"country":"in","city":"Andkhera","coordinates":{"lat":"27.6337","long":"79.7458"}},{"country":"in","city":"Andkua","coordinates":{"lat":"24.7908","long":"78.9432"}},{"country":"in","city":"Ando","coordinates":{"lat":"34.544444","long":"76.147222"}},{"country":"in","city":"Andola","coordinates":{"lat":"16.95","long":"76.833333"}},{"country":"in","city":"Andol","coordinates":{"lat":"17.813056","long":"78.077222"}},{"country":"in","city":"Andori","coordinates":{"lat":"20.533333","long":"78.5"}},{"country":"in","city":"Andra","coordinates":{"lat":"18.35","long":"83.2"}},{"country":"in","city":"Andrail","coordinates":{"lat":"31.174444","long":"77.096944"}},{"country":"in","city":"Andrut","coordinates":{"lat":"33.243056","long":"74.186111"}},{"country":"in","city":"Andua","coordinates":{"lat":"24.1599","long":"78.439"}},{"country":"in","city":"Andura","coordinates":{"lat":"20.883333","long":"76.85"}},{"country":"in","city":"Andur","coordinates":{"lat":"17.9","long":"77.416667"}},{"country":"in","city":"Andurkonam","coordinates":{"lat":"8.6","long":"76.883333"}},{"country":"in","city":"Ane","coordinates":{"lat":"19.166667","long":"74.233333"}},{"country":"in","city":"Anechaukur","coordinates":{"lat":"12.25","long":"76.083333"}},{"country":"in","city":"Anehosur","coordinates":{"lat":"16.15","long":"76.383333"}},{"country":"in","city":"Anekal","coordinates":{"lat":"12.7","long":"77.7"}},{"country":"in","city":"Anelih","coordinates":{"lat":"28.516667","long":"95.783333"}},{"country":"in","city":"Anelin","coordinates":{"lat":"28.516667","long":"95.783333"}},{"country":"in","city":"Anepur","coordinates":{"lat":"26.4677","long":"79.4804"}},{"country":"in","city":"Angadippuram","coordinates":{"lat":"10.966667","long":"76.216667"}},{"country":"in","city":"Angadipuram","coordinates":{"lat":"10.966667","long":"76.216667"}},{"country":"in","city":"Angadpur","coordinates":{"lat":"26.5215","long":"79.8631"}},{"country":"in","city":"Angadu","coordinates":{"lat":"13.224444","long":"80.183611"}},{"country":"in","city":"Angai","coordinates":{"lat":"26.6","long":"77.466667"}},{"country":"in","city":"Angaikor","coordinates":{"lat":"34.522222","long":"75.183333"}},{"country":"in","city":"Angamali","coordinates":{"lat":"10.2","long":"76.4"}},{"country":"in","city":"Angamally","coordinates":{"lat":"10.2","long":"76.4"}},{"country":"in","city":"Angami","coordinates":{"lat":"25.616667","long":"94.533333"}},{"country":"in","city":"Anganpathri","coordinates":{"lat":"33.936111","long":"74.316667"}},{"country":"in","city":"Angara","coordinates":{"lat":"24.7348","long":"78.8574"}},{"country":"in","city":"Angara","coordinates":{"lat":"23.4","long":"85.516667"}},{"country":"in","city":"Angar","coordinates":{"lat":"17.9","long":"75.566667"}},{"country":"in","city":"Angarle","coordinates":{"lat":"17.851667","long":"73.091667"}},{"country":"in","city":"Angatsi","coordinates":{"lat":"28.316667","long":"95.533333"}},{"country":"in","city":"Angdela ki Marhaiyan","coordinates":{"lat":"26.3865","long":"79.0982"}},{"country":"in","city":"Angdhar","coordinates":{"lat":"23.95","long":"75.616667"}},{"country":"in","city":"Anghad","coordinates":{"lat":"22.383333","long":"73.083333"}},{"country":"in","city":"Angnao","coordinates":{"lat":"28.116667","long":"72.783333"}},{"country":"in","city":"Angripet","coordinates":{"lat":"17.903056","long":"78.3725"}},{"country":"in","city":"Angul","coordinates":{"lat":"20.85","long":"85.1"}},{"country":"in","city":"Aniali","coordinates":{"lat":"22.15","long":"71.183333"}},{"country":"in","city":"Ani","coordinates":{"lat":"31.433333","long":"77.416667"}},{"country":"in","city":"Anikkaranchattram","coordinates":{"lat":"11.333333","long":"79.716667"}},{"country":"in","city":"Anison","coordinates":{"lat":"26.7609","long":"79.6506"}},{"country":"in","city":"Aniwas","coordinates":{"lat":"33.261111","long":"74.047222"}},{"country":"in","city":"Anjad","coordinates":{"lat":"22.033333","long":"75.05"}},{"country":"in","city":"Anjakpani","coordinates":{"lat":"26.45","long":"93.1"}},{"country":"in","city":"Anjala","coordinates":{"lat":"21.1","long":"75.75"}},{"country":"in","city":"Anjan","coordinates":{"lat":"23.133333","long":"84.483333"}},{"country":"in","city":"Anjanapura","coordinates":{"lat":"14.166667","long":"75.366667"}},{"country":"in","city":"Anjangaon","coordinates":{"lat":"21.163056","long":"77.309444"}},{"country":"in","city":"Anjangaon","coordinates":{"lat":"21.966667","long":"75.966667"}},{"country":"in","city":"Anjangaon Bari","coordinates":{"lat":"20.816667","long":"77.783333"}},{"country":"in","city":"Anjania","coordinates":{"lat":"22.5","long":"80.5"}},{"country":"in","city":"Anjanvel","coordinates":{"lat":"17.55","long":"73.15"}},{"country":"in","city":"Anjar","coordinates":{"lat":"23.133333","long":"70.016667"}},{"country":"in","city":"Anjarla","coordinates":{"lat":"17.851667","long":"73.091667"}},{"country":"in","city":"Anjarle","coordinates":{"lat":"17.851667","long":"73.091667"}},{"country":"in","city":"Anjengo","coordinates":{"lat":"8.666667","long":"76.766667"}},{"country":"in","city":"Anji","coordinates":{"lat":"20.866667","long":"78.533333"}},{"country":"in","city":"Anjih","coordinates":{"lat":"20.866667","long":"78.533333"}},{"country":"in","city":"Anjongo","coordinates":{"lat":"8.666667","long":"76.766667"}},{"country":"in","city":"Anjorpur","coordinates":{"lat":"25.7","long":"84.05"}},{"country":"in","city":"Anjuarampur","coordinates":{"lat":"26.5006","long":"79.8443"}},{"country":"in","city":"Anjuna","coordinates":{"lat":"15.583333","long":"73.733333"}},{"country":"in","city":"Anjunem","coordinates":{"lat":"15.616667","long":"74.083333"}},{"country":"in","city":"Anjuriem","coordinates":{"lat":"15.616667","long":"74.083333"}},{"country":"in","city":"Ankalampadu","coordinates":{"lat":"16.983333","long":"81.166667"}},{"country":"in","city":"Ankalgi","coordinates":{"lat":"16.033333","long":"74.7"}},{"country":"in","city":"Ankasandra","coordinates":{"lat":"13.545833","long":"76.886667"}},{"country":"in","city":"Ankevalia","coordinates":{"lat":"22.833333","long":"71.45"}},{"country":"in","city":"Ankevalia Mota","coordinates":{"lat":"22.833333","long":"71.45"}},{"country":"in","city":"Ankhawari","coordinates":{"lat":"22.483333","long":"78.833333"}},{"country":"in","city":"Ankisha","coordinates":{"lat":"18.716667","long":"80.133333"}},{"country":"in","city":"Ankla","coordinates":{"lat":"17.05","long":"75.033333"}},{"country":"in","city":"Anklachh","coordinates":{"lat":"20.566667","long":"73.266667"}},{"country":"in","city":"Ankleshwar","coordinates":{"lat":"21.6","long":"73"}},{"country":"in","city":"Anklesvar","coordinates":{"lat":"21.6","long":"73"}},{"country":"in","city":"Ankli","coordinates":{"lat":"16.55","long":"74.666667"}},{"country":"in","city":"Ankola","coordinates":{"lat":"14.666667","long":"74.3"}},{"country":"in","city":"Ankol","coordinates":{"lat":"34.206944","long":"74.633333"}},{"country":"in","city":"Ankraddipalli","coordinates":{"lat":"17.562222","long":"78.685556"}},{"country":"in","city":"Ankral","coordinates":{"lat":"17.4125","long":"78.7625"}},{"country":"in","city":"Ankreddipalli","coordinates":{"lat":"17.998889","long":"78.919722"}},{"country":"in","city":"Ankua","coordinates":{"lat":"22.3","long":"85.25"}},{"country":"in","city":"Anna ka Jhonpara","coordinates":{"lat":"25.967778","long":"75.550833"}},{"country":"in","city":"Annamalai","coordinates":{"lat":"11.4","long":"79.733333"}},{"country":"in","city":"Annamalainagar","coordinates":{"lat":"11.4","long":"79.733333"}},{"country":"in","city":"Anna Nagar","coordinates":{"lat":"13.082778","long":"80.219167"}},{"country":"in","city":"Anna Nagar West","coordinates":{"lat":"13.091944","long":"80.199167"}},{"country":"in","city":"Annapareddipalle","coordinates":{"lat":"17.383333","long":"80.783333"}},{"country":"in","city":"Annaram","coordinates":{"lat":"17.022222","long":"78.179722"}},{"country":"in","city":"Annasagar","coordinates":{"lat":"17.844722","long":"78.791389"}},{"country":"in","city":"Annavaram","coordinates":{"lat":"17.283333","long":"82.4"}},{"country":"in","city":"Annavasal","coordinates":{"lat":"10.466667","long":"78.7"}},{"country":"in","city":"Annigeri","coordinates":{"lat":"15.433333","long":"75.433333"}},{"country":"in","city":"Annur","coordinates":{"lat":"11.233333","long":"77.133333"}},{"country":"in","city":"Anojiguda","coordinates":{"lat":"17.430556","long":"78.655"}},{"country":"in","city":"Anokhe Purwa","coordinates":{"lat":"27.1135","long":"79.9496"}},{"country":"in","city":"Anowa","coordinates":{"lat":"7.966667","long":"93.55"}},{"country":"in","city":"Ansahra","coordinates":{"lat":"27.083333","long":"82.666667"}},{"country":"in","city":"Anshi","coordinates":{"lat":"14.983333","long":"74.366667"}},{"country":"in","city":"Anshing","coordinates":{"lat":"20.033333","long":"77.316667"}},{"country":"in","city":"Ansing","coordinates":{"lat":"20.033333","long":"77.316667"}},{"country":"in","city":"Anta","coordinates":{"lat":"25.15","long":"76.3"}},{"country":"in","city":"Antagarh","coordinates":{"lat":"20.0925","long":"81.156389"}},{"country":"in","city":"Antaigudam","coordinates":{"lat":"17.86","long":"78.837778"}},{"country":"in","city":"Antammagudam","coordinates":{"lat":"17.286389","long":"78.84"}},{"country":"in","city":"Antampet","coordinates":{"lat":"17.036667","long":"78.890556"}},{"country":"in","city":"Antapur","coordinates":{"lat":"20.95","long":"73.416667"}},{"country":"in","city":"Antaram","coordinates":{"lat":"17.328611","long":"78.0325"}},{"country":"in","city":"Antarasante","coordinates":{"lat":"12.0175","long":"76.299722"}},{"country":"in","city":"Antarba","coordinates":{"lat":"19.383333","long":"84.183333"}},