[{"country":"mu","city":"Abercrombie","coordinates":{"lat":"-20.1480556","long":"57.5161111"}},{"country":"mu","city":"Albion","coordinates":{"lat":"-20.2116667","long":"57.4008333"}},{"country":"mu","city":"Alma","coordinates":{"lat":"-20.2397222","long":"57.5663889"}},{"country":"mu","city":"Amaury","coordinates":{"lat":"-20.1308333","long":"57.6591667"}},{"country":"mu","city":"Amitié","coordinates":{"lat":"-20.15","long":"57.5666667"}},{"country":"mu","city":"Amitié","coordinates":{"lat":"-20.1094444","long":"57.6638889"}},{"country":"mu","city":"Anna","coordinates":{"lat":"-20.265","long":"57.3783333"}},{"country":"mu","city":"Anse aux Anglais","coordinates":{"lat":"-19.675","long":"63.4305556"}},{"country":"mu","city":"Anse Jonchée","coordinates":{"lat":"-20.3475","long":"57.7452778"}},{"country":"mu","city":"Antoinette","coordinates":{"lat":"-20.1216667","long":"57.6341667"}},{"country":"mu","city":"Argy","coordinates":{"lat":"-20.1980556","long":"57.7294444"}},{"country":"mu","city":"Arsenal","coordinates":{"lat":"-20.1055556","long":"57.5352778"}},{"country":"mu","city":"Astréa","coordinates":{"lat":"-20.3908333","long":"57.6288889"}},{"country":"mu","city":"Astroea","coordinates":{"lat":"-20.3908333","long":"57.6288889"}},{"country":"mu","city":"Bagatelle","coordinates":{"lat":"-20.2169444","long":"57.4866667"}},{"country":"mu","city":"Bagatelle","coordinates":{"lat":"-20.2505556","long":"57.5133333"}},{"country":"mu","city":"Baie aux Huîtres","coordinates":{"lat":"-19.6944444","long":"63.4083333"}},{"country":"mu","city":"Baie du Cap","coordinates":{"lat":"-20.4883333","long":"57.3705556"}},{"country":"mu","city":"Baie du Tombeau","coordinates":{"lat":"-20.1194444","long":"57.4913889"}},{"country":"mu","city":"Baie Manioc","coordinates":{"lat":"-20.2913889","long":"57.73"}},{"country":"mu","city":"Baie Mannioc","coordinates":{"lat":"-20.2913889","long":"57.73"}},{"country":"mu","city":"Baie Topaze","coordinates":{"lat":"-19.7291667","long":"63.3611111"}},{"country":"mu","city":"Baillache","coordinates":{"lat":"-20.1452778","long":"57.5641667"}},{"country":"mu","city":"Bain des Dames","coordinates":{"lat":"-20.1591667","long":"57.4755556"}},{"country":"mu","city":"Balisson","coordinates":{"lat":"-20.3927778","long":"57.5819444"}},{"country":"mu","city":"Bambou","coordinates":{"lat":"-19.6833333","long":"63.45"}},{"country":"mu","city":"Bambous","coordinates":{"lat":"-20.2566667","long":"57.4061111"}},{"country":"mu","city":"Bambous Virieux","coordinates":{"lat":"-20.3427778","long":"57.7575"}},{"country":"mu","city":"Bananes","coordinates":{"lat":"-20.3466667","long":"57.5886111"}},{"country":"mu","city":"Barachois","coordinates":{"lat":"-20.3202778","long":"57.3730556"}},{"country":"mu","city":"Barkly","coordinates":{"lat":"-20.2202778","long":"57.4494444"}},{"country":"mu","city":"Bar le Duc","coordinates":{"lat":"-20.2333333","long":"57.5666667"}},{"country":"mu","city":"Barlow","coordinates":{"lat":"-20.1241667","long":"57.6477778"}},{"country":"mu","city":"Bassin Cabri","coordinates":{"lat":"-19.7361111","long":"63.4666667"}},{"country":"mu","city":"Bassin Louloup","coordinates":{"lat":"-20.1711111","long":"57.5613889"}},{"country":"mu","city":"Batimarais","coordinates":{"lat":"-20.4813889","long":"57.5675"}},{"country":"mu","city":"Baty Mare","coordinates":{"lat":"-20.4813889","long":"57.5675"}},{"country":"mu","city":"Beau Bassin","coordinates":{"lat":"-20.2194444","long":"57.4583333"}},{"country":"mu","city":"Beau Bois","coordinates":{"lat":"-20.2047222","long":"57.5597222"}},{"country":"mu","city":"Beau Bois","coordinates":{"lat":"-20.4605556","long":"57.5369444"}},{"country":"mu","city":"Beau Champ","coordinates":{"lat":"-20.2713889","long":"57.7663889"}},{"country":"mu","city":"Beau Champ","coordinates":{"lat":"-20.4980556","long":"57.4336111"}},{"country":"mu","city":"Beau Fond","coordinates":{"lat":"-20.445","long":"57.6433333"}},{"country":"mu","city":"Beau Mangue","coordinates":{"lat":"-19.9838889","long":"57.6011111"}},{"country":"mu","city":"Beau Manguier","coordinates":{"lat":"-19.9838889","long":"57.6011111"}},{"country":"mu","city":"Beau Plan","coordinates":{"lat":"-20.0941667","long":"57.5683333"}},{"country":"mu","city":"Beau Séjour","coordinates":{"lat":"-20.2477778","long":"57.4730556"}},{"country":"mu","city":"Beau Séjour","coordinates":{"lat":"-20.0947222","long":"57.6286111"}},{"country":"mu","city":"Beau Site","coordinates":{"lat":"-20.3677778","long":"57.6633333"}},{"country":"mu","city":"Beau Vallon","coordinates":{"lat":"-20.35","long":"57.6833333"}},{"country":"mu","city":"Beaux Songes","coordinates":{"lat":"-20.2780556","long":"57.4194444"}},{"country":"mu","city":"Bel Air","coordinates":{"lat":"-20.2541667","long":"57.7452778"}},{"country":"mu","city":"Bel Air","coordinates":{"lat":"-20.4063889","long":"57.6736111"}},{"country":"mu","city":"Bel Air","coordinates":{"lat":"-20.5005556","long":"57.5705556"}},{"country":"mu","city":"Bel Étang","coordinates":{"lat":"-20.2397222","long":"57.6563889"}},{"country":"mu","city":"Belle Étoile","coordinates":{"lat":"-20.2016667","long":"57.4641667"}},{"country":"mu","city":"Belle Isle","coordinates":{"lat":"-20.25","long":"57.3833333"}},{"country":"mu","city":"Belle Mare","coordinates":{"lat":"-20.195","long":"57.7683333"}},{"country":"mu","city":"Belle Ombre","coordinates":{"lat":"-20.5022222","long":"57.4061111"}},{"country":"mu","city":"Belle Rive","coordinates":{"lat":"-20.3091667","long":"57.7197222"}},{"country":"mu","city":"Belle Rose","coordinates":{"lat":"-20.2616667","long":"57.7263889"}},{"country":"mu","city":"Belle Rose","coordinates":{"lat":"-20.215","long":"57.5183333"}},{"country":"mu","city":"Belle Ross","coordinates":{"lat":"-20.215","long":"57.5183333"}},{"country":"mu","city":"Belle Terre","coordinates":{"lat":"-20.2608333","long":"57.5172222"}},{"country":"mu","city":"Belle Vue Allendy","coordinates":{"lat":"-20.1883333","long":"57.6986111"}},{"country":"mu","city":"Belle Vue","coordinates":{"lat":"-20.195","long":"57.4116667"}},{"country":"mu","city":"Belle Vue","coordinates":{"lat":"-20.3691667","long":"57.7222222"}},{"country":"mu","city":"Belle Vue","coordinates":{"lat":"-20.05","long":"57.5833333"}},{"country":"mu","city":"Belle-Vue","coordinates":{"lat":"-20.0658333","long":"57.5941667"}},{"country":"mu","city":"Belle Vue","coordinates":{"lat":"-20.1202778","long":"57.6636111"}},{"country":"mu","city":"Belle Vue Harel","coordinates":{"lat":"-20.0658333","long":"57.5941667"}},{"country":"mu","city":"Belle Vue Maurel","coordinates":{"lat":"-20.1202778","long":"57.6636111"}},{"country":"mu","city":"Belle Vue Pilot","coordinates":{"lat":"-20.05","long":"57.5833333"}},{"country":"mu","city":"Bell Village","coordinates":{"lat":"-20.1675","long":"57.4794444"}},{"country":"mu","city":"Bell Village Station","coordinates":{"lat":"-20.1675","long":"57.4794444"}},{"country":"mu","city":"Belmont","coordinates":{"lat":"-20.045","long":"57.6586111"}},{"country":"mu","city":"Bel Ombre","coordinates":{"lat":"-20.5022222","long":"57.4061111"}},{"country":"mu","city":"Belvédère","coordinates":{"lat":"-20.1752778","long":"57.6538889"}},{"country":"mu","city":"Belvédère","coordinates":{"lat":"-20.1483333","long":"57.5833333"}},{"country":"mu","city":"Bémanique","coordinates":{"lat":"-20.3727778","long":"57.5863889"}},{"country":"mu","city":"Bénarès","coordinates":{"lat":"-20.4969444","long":"57.5830556"}},{"country":"mu","city":"Black River","coordinates":{"lat":"-20.3602778","long":"57.3661111"}},{"country":"mu","city":"Blanche Mont","coordinates":{"lat":"-20.2827778","long":"57.6544444"}},{"country":"mu","city":"Bois Chéri","coordinates":{"lat":"-20.4194444","long":"57.5325"}},{"country":"mu","city":"Bois des Amourettes","coordinates":{"lat":"-20.3630556","long":"57.7311111"}},{"country":"mu","city":"Bois d'Oiseau","coordinates":{"lat":"-20.1625","long":"57.685"}},{"country":"mu","city":"Bois d'Oiseaux","coordinates":{"lat":"-20.1625","long":"57.685"}},{"country":"mu","city":"Bois d'Oiseaux","coordinates":{"lat":"-20.4130556","long":"57.6"}},{"country":"mu","city":"Bois d'Oisseaux","coordinates":{"lat":"-20.1625","long":"57.685"}},{"country":"mu","city":"Bois Jacot","coordinates":{"lat":"-20.1358333","long":"57.665"}},{"country":"mu","city":"Bois Mangue","coordinates":{"lat":"-20.0641667","long":"57.5825"}},{"country":"mu","city":"Bois Marchand","coordinates":{"lat":"-20.1233333","long":"57.5330556"}},{"country":"mu","city":"Bois Marchand Station","coordinates":{"lat":"-20.1233333","long":"57.5330556"}},{"country":"mu","city":"Bois Pignolet","coordinates":{"lat":"-20.1305556","long":"57.5386111"}},{"country":"mu","city":"Bois Pougnet","coordinates":{"lat":"-20.2666667","long":"57.6"}},{"country":"mu","city":"Bois Rouge","coordinates":{"lat":"-20.0813889","long":"57.5830556"}},{"country":"mu","city":"Bois Sec","coordinates":{"lat":"-20.4413889","long":"57.5102778"}},{"country":"mu","city":"Bon Accueil","coordinates":{"lat":"-20.1708333","long":"57.6563889"}},{"country":"mu","city":"Bon Air","coordinates":{"lat":"-20.0619444","long":"57.5619444"}},{"country":"mu","city":"Bon Courage","coordinates":{"lat":"-20.4836111","long":"57.4175"}},{"country":"mu","city":"Bon Espoir","coordinates":{"lat":"-20.0861111","long":"57.6202778"}},{"country":"mu","city":"Bon Manioc","coordinates":{"lat":"-20.2913889","long":"57.73"}},{"country":"mu","city":"Bonne Mère","coordinates":{"lat":"-20.2005556","long":"57.7122222"}},{"country":"mu","city":"Bonne Terre","coordinates":{"lat":"-20.2877778","long":"57.4755556"}},{"country":"mu","city":"Bonne Veine","coordinates":{"lat":"-20.2380556","long":"57.5877778"}},{"country":"mu","city":"Bouchon","coordinates":{"lat":"-20.465","long":"57.6697222"}},{"country":"mu","city":"Bramsthan","coordinates":{"lat":"-20.2097222","long":"57.7305556"}},{"country":"mu","city":"Brisée Verdière","coordinates":{"lat":"-20.1638889","long":"57.6466667"}},{"country":"mu","city":"Britannia","coordinates":{"lat":"-20.4502778","long":"57.5575"}},{"country":"mu","city":"Brûlé","coordinates":{"lat":"-19.7027778","long":"63.4666667"}},{"country":"mu","city":"Cachette","coordinates":{"lat":"-20.4288889","long":"57.3830556"}},{"country":"mu","city":"Calebasses","coordinates":{"lat":"-20.1116667","long":"57.5538889"}},{"country":"mu","city":"Camp Accacia","coordinates":{"lat":"-20.4638889","long":"57.6611111"}},{"country":"mu","city":"Camp Auguste","coordinates":{"lat":"-20.2383333","long":"57.5247222"}},{"country":"mu","city":"Camp Benoit","coordinates":{"lat":"-20.1788889","long":"57.4638889"}},{"country":"mu","city":"Camp Berthaud","coordinates":{"lat":"-20.4425","long":"57.5519444"}},{"country":"mu","city":"Camp Bestel","coordinates":{"lat":"-20.0536111","long":"57.5213889"}},{"country":"mu","city":"Camp Bonnemère","coordinates":{"lat":"-20.2088889","long":"57.6961111"}},{"country":"mu","city":"Camp Bouillon","coordinates":{"lat":"-20.1886111","long":"57.7322222"}},{"country":"mu","city":"Camp Carol","coordinates":{"lat":"-20.4575","long":"57.6708333"}},{"country":"mu","city":"Camp Cassia","coordinates":{"lat":"-20.4638889","long":"57.6611111"}},{"country":"mu","city":"Camp Caval","coordinates":{"lat":"-20.32","long":"57.5019444"}},{"country":"mu","city":"Camp Créole","coordinates":{"lat":"-20.1327778","long":"57.5933333"}},{"country":"mu","city":"Camp Créoles","coordinates":{"lat":"-20.2044444","long":"57.4088889"}},{"country":"mu","city":"Camp Créoles","coordinates":{"lat":"-20.1327778","long":"57.5933333"}},{"country":"mu","city":"Camp de Masque","coordinates":{"lat":"-20.2369444","long":"57.6633333"}},{"country":"mu","city":"Camp de Masque Pave","coordinates":{"lat":"-20.2361111","long":"57.675"}},{"country":"mu","city":"Camp de Masque Station","coordinates":{"lat":"-20.2369444","long":"57.6633333"}},{"country":"mu","city":"Camp des Embrevades","coordinates":{"lat":"-20.1147222","long":"57.5702778"}},{"country":"mu","city":"Camp Diable","coordinates":{"lat":"-20.4627778","long":"57.5788889"}},{"country":"mu","city":"Camp du Roi","coordinates":{"lat":"-19.6888889","long":"63.425"}},{"country":"mu","city":"Camp Fouquereaux","coordinates":{"lat":"-20.2869444","long":"57.5211111"}},{"country":"mu","city":"Camp Garreau","coordinates":{"lat":"-20.2005556","long":"57.7122222"}},{"country":"mu","city":"Camp Ithier","coordinates":{"lat":"-20.2158333","long":"57.7455556"}},{"country":"mu","city":"Camp Jardin","coordinates":{"lat":"-20.3880556","long":"57.6555556"}},{"country":"mu","city":"Camp La Savanne","coordinates":{"lat":"-20.325","long":"57.4686111"}},{"country":"mu","city":"Camp Malgache","coordinates":{"lat":"-20.33","long":"57.4016667"}},{"country":"mu","city":"Camp Mapou","coordinates":{"lat":"-20.3322222","long":"57.4652778"}},{"country":"mu","city":"Camp Marcelin","coordinates":{"lat":"-20.2097222","long":"57.7305556"}},{"country":"mu","city":"Camp Poorun","coordinates":{"lat":"-20.1675","long":"57.7252778"}},{"country":"mu","city":"Camp Roches","coordinates":{"lat":"-20.3219444","long":"57.4677778"}},{"country":"mu","city":"Camp Sonah","coordinates":{"lat":"-20.2333333","long":"57.6666667"}},{"country":"mu","city":"Camp Thorel","coordinates":{"lat":"-20.2147222","long":"57.6161111"}},{"country":"mu","city":"Camp Thoret","coordinates":{"lat":"-20.2147222","long":"57.6161111"}},{"country":"mu","city":"Camp Yoloff","coordinates":{"lat":"-20.1513889","long":"57.5022222"}},{"country":"mu","city":"Candos","coordinates":{"lat":"-20.2769444","long":"57.4719444"}},{"country":"mu","city":"Canot","coordinates":{"lat":"-20.2175","long":"57.4216667"}},{"country":"mu","city":"Cap Malheureux","coordinates":{"lat":"-19.9841667","long":"57.6141667"}},{"country":"mu","city":"Caroline","coordinates":{"lat":"-20.1797222","long":"57.5583333"}},{"country":"mu","city":"Carreau La Liane","coordinates":{"lat":"-20.2805556","long":"57.4763889"}},{"country":"mu","city":"Carreau Lalo","coordinates":{"lat":"-20.1536111","long":"57.5202778"}},{"country":"mu","city":"Cascavelle","coordinates":{"lat":"-20.2869444","long":"57.4072222"}},{"country":"mu","city":"Casela","coordinates":{"lat":"-20.2947222","long":"57.3947222"}},{"country":"mu","city":"Cassis","coordinates":{"lat":"-20.1588889","long":"57.4808333"}},{"country":"mu","city":"Cazela","coordinates":{"lat":"-20.2947222","long":"57.3947222"}},{"country":"mu","city":"Cent Gaulettes","coordinates":{"lat":"-20.3716667","long":"57.6447222"}},{"country":"mu","city":"Centre de Flacq","coordinates":{"lat":"-20.1897222","long":"57.7144444"}},{"country":"mu","city":"Centre of Flacq","coordinates":{"lat":"-20.1897222","long":"57.7144444"}},{"country":"mu","city":"Chamarel","coordinates":{"lat":"-20.4225","long":"57.3838889"}},{"country":"mu","city":"Chameaux","coordinates":{"lat":"-19.7027778","long":"63.4541667"}},{"country":"mu","city":"Chamouny","coordinates":{"lat":"-20.4822222","long":"57.4661111"}},{"country":"mu","city":"Champ de Mars","coordinates":{"lat":"-20.1644444","long":"57.5072222"}},{"country":"mu","city":"Chantenay","coordinates":{"lat":"-20.2119444","long":"57.5138889"}},{"country":"mu","city":"Chantenuy","coordinates":{"lat":"-20.2119444","long":"57.5138889"}},{"country":"mu","city":"Chébel","coordinates":{"lat":"-20.1980556","long":"57.4513889"}},{"country":"mu","city":"Chemin Grenier","coordinates":{"lat":"-20.4872222","long":"57.4655556"}},{"country":"mu","city":"Choisy","coordinates":{"lat":"-20.0205556","long":"57.5555556"}},{"country":"mu","city":"Choisy","coordinates":{"lat":"-20.4794444","long":"57.3730556"}},{"country":"mu","city":"Cinq Arpents","coordinates":{"lat":"-20.2680556","long":"57.5238889"}},{"country":"mu","city":"Circonstance","coordinates":{"lat":"-20.2205556","long":"57.5380556"}},{"country":"mu","city":"Cité La Cure","coordinates":{"lat":"-20.1558333","long":"57.5277778"}},{"country":"mu","city":"Cité Valijée","coordinates":{"lat":"-20.1644444","long":"57.4747222"}},{"country":"mu","city":"Citron Donis","coordinates":{"lat":"-19.7291667","long":"63.4166667"}},{"country":"mu","city":"Citronelle","coordinates":{"lat":"-19.7","long":"63.4416667"}},{"country":"mu","city":"Clarence","coordinates":{"lat":"-20.2977778","long":"57.3925"}},{"country":"mu","city":"Clarens","coordinates":{"lat":"-20.2977778","long":"57.3925"}},{"country":"mu","city":"Clavet","coordinates":{"lat":"-20.2986111","long":"57.6977778"}},{"country":"mu","city":"Clémencia","coordinates":{"lat":"-20.2638889","long":"57.7061111"}},{"country":"mu","city":"Cluny","coordinates":{"lat":"-20.3669444","long":"57.6038889"}},{"country":"mu","city":"Congomah","coordinates":{"lat":"-20.1488889","long":"57.5908333"}},{"country":"mu","city":"Constance","coordinates":{"lat":"-20.1777778","long":"57.7086111"}},{"country":"mu","city":"Coquinbourg","coordinates":{"lat":"-20.2377778","long":"57.6380556"}},{"country":"mu","city":"Coromandel","coordinates":{"lat":"-20.1822222","long":"57.4572222"}},{"country":"mu","city":"Coromandel","coordinates":{"lat":"-19.7138889","long":"63.475"}},{"country":"mu","city":"Coteau Raffin","coordinates":{"lat":"-20.4338889","long":"57.3452778"}},{"country":"mu","city":"Coteau Rafin","coordinates":{"lat":"-20.4338889","long":"57.3452778"}},{"country":"mu","city":"Côte d'Or","coordinates":{"lat":"-20.2447222","long":"57.5272222"}},{"country":"mu","city":"Cottage","coordinates":{"lat":"-20.0597222","long":"57.6291667"}},{"country":"mu","city":"Crève Coeur","coordinates":{"lat":"-20.1911111","long":"57.5572222"}},{"country":"mu","city":"Crève Coeur","coordinates":{"lat":"-19.6805556","long":"63.4305556"}},{"country":"mu","city":"Curepipe","coordinates":{"lat":"-20.3147222","long":"57.5202778"}},{"country":"mu","city":"Dagotière","coordinates":{"lat":"-20.2444444","long":"57.5541667"}},{"country":"mu","city":"Dalais","coordinates":{"lat":"-20.3972222","long":"57.6852778"}},{"country":"mu","city":"Deep River","coordinates":{"lat":"-20.2791667","long":"57.7327778"}},{"country":"mu","city":"D'Epinay","coordinates":{"lat":"-20.1269444","long":"57.5891667"}},{"country":"mu","city":"Deux Bras","coordinates":{"lat":"-20.4013889","long":"57.6311111"}},{"country":"mu","city":"Deux Frères","coordinates":{"lat":"-20.2866667","long":"57.7711111"}},{"country":"mu","city":"Dubreuil","coordinates":{"lat":"-20.2975","long":"57.595"}},{"country":"mu","city":"Eau Bleue","coordinates":{"lat":"-20.3736111","long":"57.6236111"}},{"country":"mu","city":"Eau Bonne","coordinates":{"lat":"-20.2588889","long":"57.4119444"}},{"country":"mu","city":"Eau Vannée","coordinates":{"lat":"-19.7319444","long":"63.4222222"}},{"country":"mu","city":"Eaux Coulée","coordinates":{"lat":"-20.3041667","long":"57.5175"}},{"country":"mu","city":"Ebène","coordinates":{"lat":"-20.2438889","long":"57.4797222"}},{"country":"mu","city":"Ecroignard","coordinates":{"lat":"-20.2261111","long":"57.7361111"}},{"country":"mu","city":"Eighteenth Mile Village","coordinates":{"lat":"-20.3405556","long":"57.5394444"}},{"country":"mu","city":"Engrais Cathan","coordinates":{"lat":"-20.2991667","long":"57.5186111"}},{"country":"mu","city":"Engrais Martial","coordinates":{"lat":"-20.3002778","long":"57.5094444"}},{"country":"mu","city":"Ernest Florent","coordinates":{"lat":"-20.2641667","long":"57.7591667"}},{"country":"mu","city":"Escalier","coordinates":{"lat":"-20.47","long":"57.6122222"}},{"country":"mu","city":"Espérance","coordinates":{"lat":"-20.225","long":"57.5872222"}},{"country":"mu","city":"Espérance","coordinates":{"lat":"-20.0697222","long":"57.6419444"}},{"country":"mu","city":"Espérance Trébuchet","coordinates":{"lat":"-20.0697222","long":"57.6419444"}},{"country":"mu","city":"Etoile","coordinates":{"lat":"-20.3044444","long":"57.7030556"}},{"country":"mu","city":"Ferney","coordinates":{"lat":"-20.3611111","long":"57.6977778"}},{"country":"mu","city":"Ferney Mill","coordinates":{"lat":"-20.3611111","long":"57.6977778"}},{"country":"mu","city":"Flacq","coordinates":{"lat":"-20.1897222","long":"57.7144444"}},{"country":"mu","city":"Flic en Flac","coordinates":{"lat":"-20.2741667","long":"57.3630556"}},{"country":"mu","city":"Flic-en-Flacq","coordinates":{"lat":"-20.2741667","long":"57.3630556"}},{"country":"mu","city":"Floréal","coordinates":{"lat":"-20.3094444","long":"57.5008333"}},{"country":"mu","city":"Fond du Sac","coordinates":{"lat":"-20.0430556","long":"57.5786111"}},{"country":"mu","city":"Fontenelle","coordinates":{"lat":"-20.4986111","long":"57.5352778"}},{"country":"mu","city":"Forbach","coordinates":{"lat":"-20.0644444","long":"57.6258333"}},{"country":"mu","city":"Forest Side","coordinates":{"lat":"-20.32","long":"57.5305556"}},{"country":"mu","city":"Frederica","coordinates":{"lat":"-20.4836111","long":"57.425"}},{"country":"mu","city":"Gaboola","coordinates":{"lat":"-20.1041667","long":"57.6469444"}},{"country":"mu","city":"Gabriel","coordinates":{"lat":"-19.7","long":"63.4333333"}},{"country":"mu","city":"Gabrielle","coordinates":{"lat":"-19.7","long":"63.4333333"}},{"country":"mu","city":"Germain","coordinates":{"lat":"-20.0158333","long":"57.6663889"}},{"country":"mu","city":"Glen Park","coordinates":{"lat":"-20.3211111","long":"57.4783333"}},{"country":"mu","city":"Gokoola","coordinates":{"lat":"-20.1041667","long":"57.6469444"}},{"country":"mu","city":"Goodlands","coordinates":{"lat":"-20.035","long":"57.6430556"}},{"country":"mu","city":"Grand Baie","coordinates":{"lat":"-20.0136111","long":"57.5738889"}},{"country":"mu","city":"Grand Baie","coordinates":{"lat":"-19.6777778","long":"63.4486111"}},{"country":"mu","city":"Grand Bel Air","coordinates":{"lat":"-20.4063889","long":"57.6736111"}},{"country":"mu","city":"Grand Bois","coordinates":{"lat":"-20.4188889","long":"57.5441667"}},{"country":"mu","city":"Grand dans Fond","coordinates":{"lat":"-20.1811111","long":"57.6666667"}},{"country":"mu","city":"Grande Baie","coordinates":{"lat":"-20.0136111","long":"57.5738889"}},{"country":"mu","city":"Grande Case Noyale","coordinates":{"lat":"-20.41","long":"57.3619444"}},{"country":"mu","city":"Grande Gaube","coordinates":{"lat":"-20.0063889","long":"57.6608333"}},{"country":"mu","city":"Grande Montagne","coordinates":{"lat":"-19.7125","long":"63.4666667"}},{"country":"mu","city":"Grande Pointe aux Piments","coordinates":{"lat":"-20.0627778","long":"57.5130556"}},{"country":"mu","city":"Grande Retraite","coordinates":{"lat":"-20.1655556","long":"57.6766667"}},{"country":"mu","city":"Grande Retraits","coordinates":{"lat":"-20.1655556","long":"57.6766667"}},{"country":"mu","city":"Grande Reviere Sud Est","coordinates":{"lat":"-20.2861111","long":"57.7758333"}},{"country":"mu","city":"Grande Rivière Noire","coordinates":{"lat":"-20.3602778","long":"57.3661111"}},{"country":"mu","city":"Grande Rivière Sud Est","coordinates":{"lat":"-20.2861111","long":"57.7758333"}},{"country":"mu","city":"Grande Rosalie","coordinates":{"lat":"-20.1313889","long":"57.6047222"}},{"country":"mu","city":"Grand Gaube","coordinates":{"lat":"-20.0063889","long":"57.6608333"}},{"country":"mu","city":"Grand River","coordinates":{"lat":"-20.2861111","long":"57.7758333"}},{"country":"mu","city":"Grand River North West","coordinates":{"lat":"-20.1752778","long":"57.4675"}},{"country":"mu","city":"Grand River South East","coordinates":{"lat":"-20.2861111","long":"57.7758333"}},{"country":"mu","city":"Grand Rivière Noire","coordinates":{"lat":"-20.3602778","long":"57.3661111"}},{"country":"mu","city":"Grand Sable","coordinates":{"lat":"-20.3141667","long":"57.7644444"}},{"country":"mu","city":"Gros Billot","coordinates":{"lat":"-20.4163889","long":"57.6030556"}},{"country":"mu","city":"Gros Bois","coordinates":{"lat":"-20.4377778","long":"57.6072222"}},{"country":"mu","city":"Gros Cailloux","coordinates":{"lat":"-20.2072222","long":"57.43"}},{"country":"mu","city":"Haut de Flacq","coordinates":{"lat":"-20.2027778","long":"57.6680556"}},{"country":"mu","city":"Haute Rive","coordinates":{"lat":"-20.0969444","long":"57.6980556"}},{"country":"mu","city":"Haut Rive","coordinates":{"lat":"-20.0969444","long":"57.6980556"}},{"country":"mu","city":"Helvétia","coordinates":{"lat":"-20.2213889","long":"57.5166667"}},{"country":"mu","city":"Henrietta","coordinates":{"lat":"-20.3355556","long":"57.4663889"}},{"country":"mu","city":"Hermitage","coordinates":{"lat":"-20.2608333","long":"57.7025"}},{"country":"mu","city":"Hermitage","coordinates":{"lat":"-20.25","long":"57.55"}},{"country":"mu","city":"Hermitage","coordinates":{"lat":"-20.0811111","long":"57.6847222"}},{"country":"mu","city":"Hervé","coordinates":{"lat":"-20.2666667","long":"57.6"}},{"country":"mu","city":"Highlands","coordinates":{"lat":"-20.2747222","long":"57.5111111"}},{"country":"mu","city":"Holyrood","coordinates":{"lat":"-20.3097222","long":"57.4675"}},{"country":"mu","city":"Île d'Ambre","coordinates":{"lat":"-20.0741667","long":"57.6802778"}},{"country":"mu","city":"Îlot","coordinates":{"lat":"-20.13","long":"57.5725"}},{"country":"mu","city":"Isidore Rose","coordinates":{"lat":"-20.2077778","long":"57.7480556"}},{"country":"mu","city":"Joli Bois","coordinates":{"lat":"-20.4411111","long":"57.58"}},{"country":"mu","city":"Jolis Bois","coordinates":{"lat":"-20.4411111","long":"57.58"}},{"country":"mu","city":"Julien","coordinates":{"lat":"-20.2263889","long":"57.6363889"}},{"country":"mu","city":"Khoyratty","coordinates":{"lat":"-20.1205556","long":"57.5475"}},{"country":"mu","city":"La Baraque","coordinates":{"lat":"-20.4669444","long":"57.6194444"}},{"country":"mu","city":"La Barraque","coordinates":{"lat":"-20.4669444","long":"57.6194444"}},{"country":"mu","city":"La Bergerie","coordinates":{"lat":"-20.1133333","long":"57.5252778"}},{"country":"mu","city":"Labonté","coordinates":{"lat":"-20.4333333","long":"57.3166667"}},{"country":"mu","city":"Labourdonnais","coordinates":{"lat":"-20.0683333","long":"57.61"}},{"country":"mu","city":"La Caroline","coordinates":{"lat":"-20.2458333","long":"57.7466667"}},{"country":"mu","city":"La Caverne","coordinates":{"lat":"-20.2938889","long":"57.4738889"}},{"country":"mu","city":"La Clémence","coordinates":{"lat":"-20.1027778","long":"57.6763889"}},{"country":"mu","city":"La Cocoterie","coordinates":{"lat":"-20.1302778","long":"57.4913889"}},{"country":"mu","city":"La Commune","coordinates":{"lat":"-20.3083333","long":"57.7208333"}},{"country":"mu","city":"La Coterie","coordinates":{"lat":"-20.2991667","long":"57.7705556"}},{"country":"mu","city":"La Crete","coordinates":{"lat":"-20.4194444","long":"57.3794444"}},{"country":"mu","city":"La Croisée","coordinates":{"lat":"-20.3186111","long":"57.4783333"}},{"country":"mu","city":"La Dagotière","coordinates":{"lat":"-20.2444444","long":"57.5541667"}},{"country":"mu","city":"La Ferme","coordinates":{"lat":"-19.7","long":"63.3833333"}},{"country":"mu","city":"La Flora","coordinates":{"lat":"-20.4102778","long":"57.5536111"}},{"country":"mu","city":"La Fouche","coordinates":{"lat":"-19.7388889","long":"63.3819444"}},{"country":"mu","city":"La Gaiété","coordinates":{"lat":"-20.2136111","long":"57.7244444"}},{"country":"mu","city":"La Gaulette","coordinates":{"lat":"-20.4247222","long":"57.3527778"}},{"country":"mu","city":"Lagesse","coordinates":{"lat":"-20.0327778","long":"57.6191667"}},{"country":"mu","city":"L'Agrément","coordinates":{"lat":"-20.2141667","long":"57.5227778"}},{"country":"mu","city":"La Laura","coordinates":{"lat":"-20.2002778","long":"57.5455556"}},{"country":"mu","city":"Lalmatie","coordinates":{"lat":"-20.1897222","long":"57.6611111"}},{"country":"mu","city":"La Louise","coordinates":{"lat":"-20.2683333","long":"57.4658333"}},{"country":"mu","city":"La Lucia","coordinates":{"lat":"-20.1241667","long":"57.6477778"}},{"country":"mu","city":"La Lucie","coordinates":{"lat":"-20.2597222","long":"57.7355556"}},{"country":"mu","city":"La Marie","coordinates":{"lat":"-20.335","long":"57.485"}},{"country":"mu","city":"La Marre","coordinates":{"lat":"-20.1566667","long":"57.6419444"}},{"country":"mu","city":"La Mecque","coordinates":{"lat":"-20.2486111","long":"57.3894444"}},{"country":"mu","city":"L'Amitie","coordinates":{"lat":"-20.1094444","long":"57.6638889"}},{"country":"mu","city":"La Mivoie","coordinates":{"lat":"-20.3413889","long":"57.3566667"}},{"country":"mu","city":"La Morue","coordinates":{"lat":"-20.1333333","long":"57.65"}},{"country":"mu","city":"La Nourrice","coordinates":{"lat":"-20.2872222","long":"57.7380556"}},{"country":"mu","city":"La Rampe","coordinates":{"lat":"-20.4258333","long":"57.6316667"}},{"country":"mu","city":"La Rampe - Le Moirt","coordinates":{"lat":"-20.4258333","long":"57.6316667"}},{"country":"mu","city":"La Rosa","coordinates":{"lat":"-20.4136111","long":"57.6169444"}},{"country":"mu","city":"La Rotraite","coordinates":{"lat":"-20.2","long":"57.4666667"}},{"country":"mu","city":"La Russie","coordinates":{"lat":"-20.2436111","long":"57.5966667"}},{"country":"mu","city":"La Source","coordinates":{"lat":"-20.2675","long":"57.4566667"}},{"country":"mu","city":"La Sourdine","coordinates":{"lat":"-20.4783333","long":"57.6127778"}},{"country":"mu","city":"L'Assurance","coordinates":{"lat":"-20.2497222","long":"57.5472222"}},{"country":"mu","city":"Latanier","coordinates":{"lat":"-19.7138889","long":"63.4472222"}},{"country":"mu","city":"Lataniers","coordinates":{"lat":"-19.7138889","long":"63.4472222"}},{"country":"mu","city":"L'Avenir","coordinates":{"lat":"-20.215","long":"57.5452778"}},{"country":"mu","city":"Laventure","coordinates":{"lat":"-20.1458333","long":"57.6766667"}},{"country":"mu","city":"Lavilléon","coordinates":{"lat":"-20.4425","long":"57.3561111"}},{"country":"mu","city":"Le Bocage","coordinates":{"lat":"-20.2161111","long":"57.5038889"}},{"country":"mu","city":"Le Bouchon","coordinates":{"lat":"-20.465","long":"57.6697222"}},{"country":"mu","city":"Le Chaland","coordinates":{"lat":"-20.4447222","long":"57.6986111"}},{"country":"mu","city":"Le Goulet","coordinates":{"lat":"-20.1008333","long":"57.5105556"}},{"country":"mu","city":"Le Hochet","coordinates":{"lat":"-20.135","long":"57.5211111"}},{"country":"mu","city":"Le Marres","coordinates":{"lat":"-20.4252778","long":"57.4680556"}},{"country":"mu","city":"L'Embrasure","coordinates":{"lat":"-20.4641667","long":"57.3363889"}},{"country":"mu","city":"Léonbourg","coordinates":{"lat":"-20.1136111","long":"57.4972222"}},{"country":"mu","city":"Le Plessis","coordinates":{"lat":"-20.1147222","long":"57.5975"}},{"country":"mu","city":"Le Ravin","coordinates":{"lat":"-20.1","long":"57.6833333"}},{"country":"mu","city":"Le Réduit","coordinates":{"lat":"-20.2275","long":"57.4925"}},{"country":"mu","city":"L'Escalier","coordinates":{"lat":"-20.47","long":"57.6122222"}},{"country":"mu","city":"L'Escalier","coordinates":{"lat":"-20.19","long":"57.5822222"}},{"country":"mu","city":"Les Casernes","coordinates":{"lat":"-20.3261111","long":"57.4986111"}},{"country":"mu","city":"Les Guibies","coordinates":{"lat":"-20.1869444","long":"57.4875"}},{"country":"mu","city":"Les Mariannes","coordinates":{"lat":"-20.1641667","long":"57.5836111"}},{"country":"mu","city":"L'Espérance","coordinates":{"lat":"-20.0863889","long":"57.6355556"}},{"country":"mu","city":"L'Espoir","coordinates":{"lat":"-20.1111111","long":"57.5497222"}},{"country":"mu","city":"Lesur","coordinates":{"lat":"-20.2894444","long":"57.675"}},{"country":"mu","city":"L'Étoile","coordinates":{"lat":"-20.3044444","long":"57.7030556"}},{"country":"mu","city":"Le Val","coordinates":{"lat":"-20.3547222","long":"57.6208333"}},{"country":"mu","city":"Le Vallon","coordinates":{"lat":"-20.3619444","long":"57.6825"}},{"country":"mu","city":"Ligne Barrin","coordinates":{"lat":"-20.4733333","long":"57.6586111"}},{"country":"mu","city":"Long Mountain","coordinates":{"lat":"-20.1430556","long":"57.5622222"}},{"country":"mu","city":"Luchon","coordinates":{"lat":"-20.4666667","long":"57.45"}},{"country":"mu","city":"Luçon","coordinates":{"lat":"-20.4666667","long":"57.45"}},{"country":"mu","city":"L'Union","coordinates":{"lat":"-20.505","long":"57.5386111"}},{"country":"mu","city":"L'Unité","coordinates":{"lat":"-20.2327778","long":"57.6672222"}},{"country":"mu","city":"Madame Azor","coordinates":{"lat":"-20.03","long":"57.6611111"}},{"country":"mu","city":"Madame Cayeux","coordinates":{"lat":"-20.1119444","long":"57.5875"}},{"country":"mu","city":"Mahébourg","coordinates":{"lat":"-20.4080556","long":"57.7"}},{"country":"mu","city":"Maison Blanche","coordinates":{"lat":"-20.1080556","long":"57.5747222"}},{"country":"mu","city":"Malherbes","coordinates":{"lat":"-20.3091667","long":"57.5247222"}},{"country":"mu","city":"Mamzelle Jeanne","coordinates":{"lat":"-20.0302778","long":"57.6497222"}},{"country":"mu","city":"Mangue","coordinates":{"lat":"-19.7166667","long":"63.3916667"}},{"country":"mu","city":"Mangues","coordinates":{"lat":"-19.7166667","long":"63.3916667"}},{"country":"mu","city":"Mapou","coordinates":{"lat":"-20.0758333","long":"57.6013889"}},{"country":"mu","city":"Maréchal","coordinates":{"lat":"-19.7333333","long":"63.3944444"}},{"country":"mu","city":"Mare Chicose","coordinates":{"lat":"-20.3794444","long":"57.6275"}},{"country":"mu","city":"Mare d'Albert","coordinates":{"lat":"-20.4186111","long":"57.6227778"}},{"country":"mu","city":"Mare d'Australia","coordinates":{"lat":"-20.1527778","long":"57.6405556"}},{"country":"mu","city":"Mare Jacot","coordinates":{"lat":"-20.2477778","long":"57.6763889"}},{"country":"mu","city":"Mare Jocquot","coordinates":{"lat":"-20.2477778","long":"57.6763889"}},{"country":"mu","city":"Mare La Chaux","coordinates":{"lat":"-20.1980556","long":"57.7494444"}},{"country":"mu","city":"Mare Samson","coordinates":{"lat":"-20.1713889","long":"57.4416667"}},{"country":"mu","city":"Mare Tabac","coordinates":{"lat":"-20.4358333","long":"57.5886111"}},{"country":"mu","city":"Marie Jeanie","coordinates":{"lat":"-20.3961111","long":"57.5880556"}},{"country":"mu","city":"Marie Jeanne","coordinates":{"lat":"-20.3038889","long":"57.7608333"}},{"country":"mu","city":"Médine","coordinates":{"lat":"-20.2602778","long":"57.3888889"}},{"country":"mu","city":"Médine","coordinates":{"lat":"-20.2422222","long":"57.6425"}},{"country":"mu","city":"Melotte","coordinates":{"lat":"-20.1875","long":"57.5597222"}},{"country":"mu","city":"Melrose","coordinates":{"lat":"-20.2697222","long":"57.6319444"}},{"country":"mu","city":"Melville","coordinates":{"lat":"-20.0194444","long":"57.6744444"}},{"country":"mu","city":"Mesnil","coordinates":{"lat":"-20.2902778","long":"57.5116667"}},{"country":"mu","city":"Midlands","coordinates":{"lat":"-20.3325","long":"57.5583333"}},{"country":"mu","city":"Minissy","coordinates":{"lat":"-20.2375","long":"57.5066667"}},{"country":"mu","city":"Moka","coordinates":{"lat":"-20.4477778","long":"57.3544444"}},{"country":"mu","city":"Moka","coordinates":{"lat":"-20.2188889","long":"57.4958333"}},{"country":"mu","city":"Moka Village","coordinates":{"lat":"-20.2188889","long":"57.4958333"}},{"country":"mu","city":"Mon Choisy","coordinates":{"lat":"-20.0205556","long":"57.5555556"}},{"country":"mu","city":"Mon Désert","coordinates":{"lat":"-20.4472222","long":"57.6716667"}},{"country":"mu","city":"Mon Désert","coordinates":{"lat":"-20.2222222","long":"57.5263889"}},{"country":"mu","city":"Mon Goût","coordinates":{"lat":"-20.1175","long":"57.5897222"}},{"country":"mu","city":"Mon Loisir","coordinates":{"lat":"-20.0327778","long":"57.6191667"}},{"country":"mu","city":"Mon Piton","coordinates":{"lat":"-20.0891667","long":"57.6244444"}},{"country":"mu","city":"Mon Rocher","coordinates":{"lat":"-20.0905556","long":"57.5738889"}},{"country":"mu","city":"Mon Songe","coordinates":{"lat":"-20.1361111","long":"57.6344444"}},{"country":"mu","city":"Montagne Blanche","coordinates":{"lat":"-20.2827778","long":"57.6544444"}},{"country":"mu","city":"Montagne Ory","coordinates":{"lat":"-20.215","long":"57.4822222"}},{"country":"mu","city":"Mont Blanche","coordinates":{"lat":"-20.2827778","long":"57.6544444"}},{"country":"mu","city":"Mont Blanc","coordinates":{"lat":"-20.4788889","long":"57.4744444"}},{"country":"mu","city":"Mont Choisy","coordinates":{"lat":"-20.0205556","long":"57.5555556"}},{"country":"mu","city":"Montebello","coordinates":{"lat":"-20.1991667","long":"57.4752778"}},{"country":"mu","city":"Mont Fleury","coordinates":{"lat":"-20.2169444","long":"57.5344444"}},{"country":"mu","city":"Mont Ida","coordinates":{"lat":"-20.2388889","long":"57.6308333"}},{"country":"mu","city":"Mont Longue","coordinates":{"lat":"-20.1430556","long":"57.5622222"}},{"country":"mu","city":"Mont Lubin","coordinates":{"lat":"-19.7083333","long":"63.4416667"}},{"country":"mu","city":"Mont Piton","coordinates":{"lat":"-20.0902778","long":"57.6302778"}},{"country":"mu","city":"Mon Trésor - Mon Désert","coordinates":{"lat":"-20.4475","long":"57.6716667"}},{"country":"mu","city":"Mon Trésor","coordinates":{"lat":"-20.4466667","long":"57.6716667"}},{"country":"mu","city":"Mon Vallon","coordinates":{"lat":"-20.3","long":"57.4"}},{"country":"mu","city":"Morcellemont Saint André","coordinates":{"lat":"-20.0730556","long":"57.5580556"}},{"country":"mu","city":"Mount Choisy","coordinates":{"lat":"-20.0205556","long":"57.5555556"}},{"country":"mu","city":"Mount","coordinates":{"lat":"-20.1113889","long":"57.6022222"}},{"country":"mu","city":"Mount Ory","coordinates":{"lat":"-20.215","long":"57.4822222"}},{"country":"mu","city":"New Grove","coordinates":{"lat":"-20.4086111","long":"57.6136111"}},{"country":"mu","city":"New Grove Station","coordinates":{"lat":"-20.4086111","long":"57.6136111"}},{"country":"mu","city":"Notre Dame","coordinates":{"lat":"-20.1405556","long":"57.5530556"}},{"country":"mu","city":"Notre Dame Station","coordinates":{"lat":"-20.1405556","long":"57.5530556"}},{"country":"mu","city":"Nouvelle Découverte","coordinates":{"lat":"-20.1872222","long":"57.5819444"}},{"country":"mu","city":"Nouvelle Découverte","coordinates":{"lat":"-19.7111111","long":"63.4694444"}},{"country":"mu","city":"Nouvelle France","coordinates":{"lat":"-20.3705556","long":"57.5611111"}},{"country":"mu","city":"Old Grand Port","coordinates":{"lat":"-20.3669444","long":"57.7063889"}},{"country":"mu","city":"Oliva","coordinates":{"lat":"-20.2975","long":"57.7255556"}},{"country":"mu","city":"Olivia","coordinates":{"lat":"-20.2975","long":"57.7255556"}},{"country":"mu","city":"Oyster Bay","coordinates":{"lat":"-19.6944444","long":"63.4083333"}},{"country":"mu","city":"Pailles","coordinates":{"lat":"-20.1855556","long":"57.4772222"}},{"country":"mu","city":"Pailles Village","coordinates":{"lat":"-20.1855556","long":"57.4772222"}},{"country":"mu","city":"Palissade Ternel","coordinates":{"lat":"-19.7111111","long":"63.4541667"}},{"country":"mu","city":"Palma","coordinates":{"lat":"-20.2791667","long":"57.4441667"}},{"country":"mu","city":"Palmar","coordinates":{"lat":"-20.2172222","long":"57.7688889"}},{"country":"mu","city":"Palmyre","coordinates":{"lat":"-20.2822222","long":"57.3844444"}},{"country":"mu","city":"Pamplemousses","coordinates":{"lat":"-20.1038889","long":"57.5702778"}},{"country":"mu","city":"Pamplemousses Village","coordinates":{"lat":"-20.1038889","long":"57.5702778"}},{"country":"mu","city":"Patate Théophile","coordinates":{"lat":"-19.7","long":"63.4833333"}},{"country":"mu","city":"Paves","coordinates":{"lat":"-19.6833333","long":"63.45"}},{"country":"mu","city":"Pavillon du Grand Port","coordinates":{"lat":"-20.3711111","long":"57.7175"}},{"country":"mu","city":"Pavillon","coordinates":{"lat":"-19.9897222","long":"57.6088889"}},{"country":"mu","city":"Pelissis","coordinates":{"lat":"-20.1147222","long":"57.5975"}},{"country":"mu","city":"Pellegrin","coordinates":{"lat":"-20.2775","long":"57.6791667"}},{"country":"mu","city":"Pellegrin","coordinates":{"lat":"-20.2558333","long":"57.4833333"}},{"country":"mu","city":"Pereybèré","coordinates":{"lat":"-19.9905556","long":"57.5855556"}},{"country":"mu","city":"Petit Bel Air","coordinates":{"lat":"-20.3994444","long":"57.6919444"}},{"country":"mu","city":"Petit Bois","coordinates":{"lat":"-20.2413889","long":"57.755"}},{"country":"mu","city":"Petit Brûlé","coordinates":{"lat":"-19.7111111","long":"63.4625"}},{"country":"mu","city":"Petit Camp","coordinates":{"lat":"-20.2688889","long":"57.4922222"}},{"country":"mu","city":"Petite Butte","coordinates":{"lat":"-19.75","long":"63.3833333"}},{"country":"mu","city":"Petite Cabane","coordinates":{"lat":"-20.2519444","long":"57.6688889"}},{"country":"mu","city":"Petite Case Noyale","coordinates":{"lat":"-20.3930556","long":"57.365"}},{"country":"mu","city":"Petite Julie","coordinates":{"lat":"-20.1386111","long":"57.6183333"}},{"country":"mu","city":"Petite Rivière Noire","coordinates":{"lat":"-20.3897222","long":"57.3722222"}},{"country":"mu","city":"Petite Rivière","coordinates":{"lat":"-20.1894444","long":"57.4452778"}},{"country":"mu","city":"Petite Rosalie","coordinates":{"lat":"-20.1202778","long":"57.6025"}},{"country":"mu","city":"Petite Verger","coordinates":{"lat":"-20.1755556","long":"57.4336111"}},{"country":"mu","city":"Petit Gabriel","coordinates":{"lat":"-19.7166667","long":"63.4166667"}},{"country":"mu","city":"Petit Gamin","coordinates":{"lat":"-20.1038889","long":"57.5175"}},{"country":"mu","city":"Petit Gravier","coordinates":{"lat":"-19.7277778","long":"63.4833333"}},{"country":"mu","city":"Petit Paquet","coordinates":{"lat":"-20.2747222","long":"57.6552778"}},{"country":"mu","city":"Petit Paquet","coordinates":{"lat":"-20.0013889","long":"57.6291667"}},{"country":"mu","city":"Petit Raffray","coordinates":{"lat":"-20.0133333","long":"57.6119444"}},{"country":"mu","city":"Petit Sable","coordinates":{"lat":"-20.3286111","long":"57.76"}},{"country":"mu","city":"Petit Verger","coordinates":{"lat":"-20.1755556","long":"57.4336111"}},{"country":"mu","city":"Petit Verger","coordinates":{"lat":"-20.2172222","long":"57.5113889"}},{"country":"mu","city":"Phoenix","coordinates":{"lat":"-20.2866667","long":"57.5022222"}},{"country":"mu","city":"Piton","coordinates":{"lat":"-20.0902778","long":"57.6302778"}},{"country":"mu","city":"Plaine Corail","coordinates":{"lat":"-19.7583333","long":"63.3583333"}},{"country":"mu","city":"Plaine des Papayes","coordinates":{"lat":"-20.065","long":"57.5725"}},{"country":"mu","city":"Plaine Magnien","coordinates":{"lat":"-20.4286111","long":"57.6530556"}},{"country":"mu","city":"Plaines des Papayes","coordinates":{"lat":"-20.065","long":"57.5725"}},{"country":"mu","city":"Plaines des Roches","coordinates":{"lat":"-20.1116667","long":"57.6908333"}},{"country":"mu","city":"Plaines Magnien","coordinates":{"lat":"-20.4286111","long":"57.6530556"}},{"country":"mu","city":"Plaine Verte","coordinates":{"lat":"-20.1536111","long":"57.5077778"}},{"country":"mu","city":"Plaisance","coordinates":{"lat":"-20.4183333","long":"57.6713889"}},{"country":"mu","city":"Plaisance","coordinates":{"lat":"-20.2377778","long":"57.4505556"}},{"country":"mu","city":"Plein Bois","coordinates":{"lat":"-20.4575","long":"57.6211111"}},{"country":"mu","city":"Pointe aux Cannoniers","coordinates":{"lat":"-20.0083333","long":"57.56"}},{"country":"mu","city":"Pointe aux Canonniers","coordinates":{"lat":"-20.0083333","long":"57.56"}},{"country":"mu","city":"Pointe aux Feuilles","coordinates":{"lat":"-20.3058333","long":"57.7733333"}},{"country":"mu","city":"Pointe aux Roches","coordinates":{"lat":"-20.3233333","long":"57.7625"}},{"country":"mu","city":"Pointe aux Sables","coordinates":{"lat":"-20.1655556","long":"57.4511111"}},{"country":"mu","city":"Pointe d'Esny","coordinates":{"lat":"-20.4266667","long":"57.7197222"}},{"country":"mu","city":"Pomponnette","coordinates":{"lat":"-20.5094444","long":"57.4802778"}},{"country":"mu","city":"Pont Blanc","coordinates":{"lat":"-20.1666667","long":"57.7044444"}},{"country":"mu","city":"Pont Colville","coordinates":{"lat":"-20.3827778","long":"57.5580556"}},{"country":"mu","city":"Pont Praslin","coordinates":{"lat":"-20.1494444","long":"57.6325"}},{"country":"mu","city":"Pont Prastin","coordinates":{"lat":"-20.1494444","long":"57.6325"}},{"country":"mu","city":"Porte Sainte Rita","coordinates":{"lat":"-10.4833333","long":"56.7"}},{"country":"mu","city":"Port Louis","coordinates":{"lat":"-20.1619444","long":"57.4988889"}},{"country":"mu","city":"Port Louis Town","coordinates":{"lat":"-20.1619444","long":"57.4988889"}},{"country":"mu","city":"Port Mathurin","coordinates":{"lat":"-19.6833333","long":"63.4166667"}},{"country":"mu","city":"Port Sainte Rita","coordinates":{"lat":"-10.4833333","long":"56.7"}},{"country":"mu","city":"Port Souillac","coordinates":{"lat":"-20.5166667","long":"57.5166667"}},{"country":"mu","city":"Port South East","coordinates":{"lat":"-19.75","long":"63.45"}},{"country":"mu","city":"Port Sud-Est","coordinates":{"lat":"-19.75","long":"63.45"}},{"country":"mu","city":"Poste de Flacq","coordinates":{"lat":"-20.1630556","long":"57.7305556"}},{"country":"mu","city":"Post of Flacq","coordinates":{"lat":"-20.1630556","long":"57.7305556"}},{"country":"mu","city":"Poudre d'Or Hamlet","coordinates":{"lat":"-20.0769444","long":"57.6477778"}},{"country":"mu","city":"Poudre d'Or","coordinates":{"lat":"-20.06","long":"57.6766667"}},{"country":"mu","city":"Poudre D'Or Village","coordinates":{"lat":"-20.06","long":"57.6766667"}},{"country":"mu","city":"Providence","coordinates":{"lat":"-20.1788889","long":"57.7280556"}},{"country":"mu","city":"Providence","coordinates":{"lat":"-20.355","long":"57.7363889"}},{"country":"mu","city":"Providence","coordinates":{"lat":"-20.2447222","long":"57.6122222"}},{"country":"mu","city":"Quartier Militaire","coordinates":{"lat":"-20.2438889","long":"57.5891667"}},{"country":"mu","city":"Quatre Bornes","coordinates":{"lat":"-20.2644444","long":"57.4719444"}},{"country":"mu","city":"Quatre Cocos","coordinates":{"lat":"-20.2077778","long":"57.7625"}},{"country":"mu","city":"Quatre Soeurs Br.","coordinates":{"lat":"-20.2991667","long":"57.7705556"}},{"country":"mu","city":"Quatre Soeurs","coordinates":{"lat":"-20.2991667","long":"57.7705556"}},{"country":"mu","city":"Quatre Vents","coordinates":{"lat":"-19.7","long":"63.4"}},{"country":"mu","city":"Queen Victoria","coordinates":{"lat":"-20.22","long":"57.7075"}},{"country":"mu","city":"Quinze Cantons","coordinates":{"lat":"-20.3008333","long":"57.4725"}},{"country":"mu","city":"Rama","coordinates":{"lat":"-20.3736111","long":"57.6236111"}},{"country":"mu","city":"Ravin","coordinates":{"lat":"-20.1","long":"57.6833333"}},{"country":"mu","city":"Reduit","coordinates":{"lat":"-20.2275","long":"57.4925"}},{"country":"mu","city":"Réunion Maurel","coordinates":{"lat":"-20.0191667","long":"57.6308333"}},{"country":"mu","city":"Réunion","coordinates":{"lat":"-20.3091667","long":"57.4880556"}},{"country":"mu","city":"Riambel","coordinates":{"lat":"-20.515","long":"57.5"}},{"country":"mu","city":"Riche Bois","coordinates":{"lat":"-20.4563889","long":"57.5769444"}},{"country":"mu","city":"Riche en Eau","coordinates":{"lat":"-20.3847222","long":"57.6555556"}},{"country":"mu","city":"Richeterre","coordinates":{"lat":"-20.1166667","long":"57.5"}},{"country":"mu","city":"Rich Fund","coordinates":{"lat":"-20.2088889","long":"57.6658333"}},{"country":"mu","city":"Ripailles","coordinates":{"lat":"-20.1936111","long":"57.5722222"}},{"country":"mu","city":"River des Anguilles","coordinates":{"lat":"-20.4852778","long":"57.5508333"}},{"country":"mu","city":"River Dragon","coordinates":{"lat":"-20.4461111","long":"57.56"}},{"country":"mu","city":"River du Poste Station","coordinates":{"lat":"-20.4241667","long":"57.5669444"}},{"country":"mu","city":"River Side","coordinates":{"lat":"-20.2775","long":"57.4966667"}},{"country":"mu","city":"Rivière Baptiste","coordinates":{"lat":"-20.2061111","long":"57.5277778"}},{"country":"mu","city":"Rivière Cocos","coordinates":{"lat":"-19.7402778","long":"63.4111111"}},{"country":"mu","city":"Rivière Créoles","coordinates":{"lat":"-20.3880556","long":"57.6886111"}},{"country":"mu","city":"Rivière des Anguilles","coordinates":{"lat":"-20.4852778","long":"57.5508333"}},{"country":"mu","city":"Rivière des Creoles","coordinates":{"lat":"-20.3880556","long":"57.6886111"}},{"country":"mu","city":"Rivière Dragon","coordinates":{"lat":"-20.4461111","long":"57.56"}},{"country":"mu","city":"Rivière du Poste","coordinates":{"lat":"-20.4241667","long":"57.5669444"}},{"country":"mu","city":"Rivière du Poste Station","coordinates":{"lat":"-20.4241667","long":"57.5669444"}},{"country":"mu","city":"Rivière du Post","coordinates":{"lat":"-20.4241667","long":"57.5669444"}},{"country":"mu","city":"Rivière du Rempart","coordinates":{"lat":"-20.1030556","long":"57.6847222"}},{"country":"mu","city":"Rivière Noire","coordinates":{"lat":"-20.3602778","long":"57.3661111"}},{"country":"mu","city":"Rivière Sèche","coordinates":{"lat":"-20.2541667","long":"57.7452778"}},{"country":"mu","city":"Robinson","coordinates":{"lat":"-20.1711111","long":"57.5613889"}},{"country":"mu","city":"Roche Bois","coordinates":{"lat":"-20.1363889","long":"57.5047222"}},{"country":"mu","city":"Roche Bon Dieu","coordinates":{"lat":"-19.6916667","long":"63.4708333"}},{"country":"mu","city":"Roche Noire","coordinates":{"lat":"-20.1111111","long":"57.7122222"}},{"country":"mu","city":"Roche Noires","coordinates":{"lat":"-20.1111111","long":"57.7122222"}},{"country":"mu","city":"Roches Brunes","coordinates":{"lat":"-20.2330556","long":"57.4525"}},{"country":"mu","city":"Roches Noire","coordinates":{"lat":"-20.1111111","long":"57.7122222"}},{"country":"mu","city":"Roches Noires","coordinates":{"lat":"-20.1111111","long":"57.7122222"}},{"country":"mu","city":"Roche Terre","coordinates":{"lat":"-20.0186111","long":"57.6447222"}},{"country":"mu","city":"Rose Belle","coordinates":{"lat":"-20.4002778","long":"57.5966667"}},{"country":"mu","city":"Rose Hill","coordinates":{"lat":"-20.2419444","long":"57.47"}},{"country":"mu","city":"Roselyn Cottage","coordinates":{"lat":"-20.2102778","long":"57.5172222"}},{"country":"mu","city":"Rouge Terre","coordinates":{"lat":"-20.0433333","long":"57.5683333"}},{"country":"mu","city":"Ruisseau Copeaux","coordinates":{"lat":"-20.4186111","long":"57.6572222"}},{"country":"mu","city":"Ruisseau Créole","coordinates":{"lat":"-20.4833333","long":"57.3833333"}},{"country":"mu","city":"Ruisseau Rose","coordinates":{"lat":"-20.1527778","long":"57.5677778"}},{"country":"mu","city":"Saint-André","coordinates":{"lat":"-20.0730556","long":"57.5580556"}},{"country":"mu","city":"Saint Antoine","coordinates":{"lat":"-20.2813889","long":"57.5238889"}},{"country":"mu","city":"Saint Antoine","coordinates":{"lat":"-20.0416667","long":"57.6536111"}},{"country":"mu","city":"Saint Aubin","coordinates":{"lat":"-20.4916667","long":"57.5413889"}},{"country":"mu","city":"Saint Avold","coordinates":{"lat":"-20.4375","long":"57.5508333"}},{"country":"mu","city":"Saint Cloud","coordinates":{"lat":"-20.1477778","long":"57.6341667"}},{"country":"mu","city":"Sainte Croix","coordinates":{"lat":"-20.145","long":"57.5213889"}},{"country":"mu","city":"Sainte Madeleine","coordinates":{"lat":"-20.3605556","long":"57.6341667"}},{"country":"mu","city":"Sainte-Marie","coordinates":{"lat":"-20.4836111","long":"57.425"}},{"country":"mu","city":"Sainte Rita","coordinates":{"lat":"-10.4833333","long":"56.7"}},{"country":"mu","city":"Saint Félix","coordinates":{"lat":"-20.4866667","long":"57.5663889"}},{"country":"mu","city":"Saint François","coordinates":{"lat":"-20.0044444","long":"57.6341667"}},{"country":"mu","city":"Saint Gabriel","coordinates":{"lat":"-19.7","long":"63.4333333"}},{"country":"mu","city":"Saint Hilaire","coordinates":{"lat":"-20.3736111","long":"57.6408333"}},{"country":"mu","city":"Saint Hubert","coordinates":{"lat":"-20.3641667","long":"57.6383333"}},{"country":"mu","city":"Saint Jean","coordinates":{"lat":"-20.2502778","long":"57.48"}},{"country":"mu","city":"Saint Julien","coordinates":{"lat":"-20.2263889","long":"57.6363889"}},{"country":"mu","city":"Saint Julien Village","coordinates":{"lat":"-20.2263889","long":"57.6363889"}},{"country":"mu","city":"Saint Louis","coordinates":{"lat":"-19.7166667","long":"63.475"}},{"country":"mu","city":"Saint Martin","coordinates":{"lat":"-20.4963889","long":"57.3883333"}},{"country":"mu","city":"Saint Paul","coordinates":{"lat":"-20.2877778","long":"57.5044444"}},{"country":"mu","city":"Saint Pierre","coordinates":{"lat":"-20.2175","long":"57.5208333"}},{"country":"mu","city":"Saint Pierre Village","coordinates":{"lat":"-20.2175","long":"57.5208333"}},{"country":"mu","city":"Saint Remy","coordinates":{"lat":"-20.1872222","long":"57.7119444"}},{"country":"mu","city":"Salazie","coordinates":{"lat":"-20.1744444","long":"57.61"}},{"country":"mu","city":"Sans Souci","coordinates":{"lat":"-20.2958333","long":"57.6513889"}},{"country":"mu","city":"Savannah","coordinates":{"lat":"-20.485","long":"57.6088889"}},{"country":"mu","city":"Savinia","coordinates":{"lat":"-20.4744444","long":"57.6330556"}},{"country":"mu","city":"Schoenfeld","coordinates":{"lat":"-20.0805556","long":"57.6655556"}},{"country":"mu","city":"Sebastopol","coordinates":{"lat":"-20.2888889","long":"57.6875"}},{"country":"mu","city":"Seizième Mille","coordinates":{"lat":"-20.3405556","long":"57.5394444"}},{"country":"mu","city":"Senneville","coordinates":{"lat":"-20.5011111","long":"57.55"}},{"country":"mu","city":"Solférino","coordinates":{"lat":"-20.2908333","long":"57.4672222"}},{"country":"mu","city":"Solitude","coordinates":{"lat":"-20.0769444","long":"57.5386111"}},{"country":"mu","city":"Solitude","coordinates":{"lat":"-19.6861111","long":"63.4375"}},{"country":"mu","city":"Songe","coordinates":{"lat":"-19.7388889","long":"63.4416667"}},{"country":"mu","city":"Sottise","coordinates":{"lat":"-20.0208333","long":"57.5722222"}},{"country":"mu","city":"Souffleur","coordinates":{"lat":"-20.4816667","long":"57.6388889"}},{"country":"mu","city":"Souillac","coordinates":{"lat":"-20.5166667","long":"57.5166667"}},{"country":"mu","city":"Soullac","coordinates":{"lat":"-20.5166667","long":"57.5166667"}},{"country":"mu","city":"Soupir","coordinates":{"lat":"-19.7055556","long":"63.4291667"}},{"country":"mu","city":"Stanley","coordinates":{"lat":"-20.2469444","long":"57.45"}},{"country":"mu","city":"St Remy","coordinates":{"lat":"-20.1872222","long":"57.7119444"}},{"country":"mu","city":"Suase","coordinates":{"lat":"-20.3166667","long":"57.4166667"}},{"country":"mu","city":"Surinam","coordinates":{"lat":"-20.5097222","long":"57.5052778"}},{"country":"mu","city":"Tamarin","coordinates":{"lat":"-20.3255556","long":"57.3705556"}},{"country":"mu","city":"Telfair","coordinates":{"lat":"-20.2263889","long":"57.4991667"}},{"country":"mu","city":"Terracine","coordinates":{"lat":"-20.5061111","long":"57.5144444"}},{"country":"mu","city":"Terre Rouge","coordinates":{"lat":"-20.0433333","long":"57.5683333"}},{"country":"mu","city":"The Mount","coordinates":{"lat":"-20.1113889","long":"57.6022222"}},{"country":"mu","city":"The Vale","coordinates":{"lat":"-20.0283333","long":"57.5877778"}},{"country":"mu","city":"Tranquebar","coordinates":{"lat":"-20.1747222","long":"57.5058333"}},{"country":"mu","city":"Trèfles","coordinates":{"lat":"-19.6833333","long":"63.4666667"}},{"country":"mu","city":"Trianon","coordinates":{"lat":"-20.2477778","long":"57.4866667"}},{"country":"mu","city":"Triolet","coordinates":{"lat":"-20.0547222","long":"57.5452778"}},{"country":"mu","city":"Trio","coordinates":{"lat":"-20.0475","long":"57.535"}},{"country":"mu","city":"Trois Boutiques","coordinates":{"lat":"-20.4488889","long":"57.6411111"}},{"country":"mu","city":"Trois Îlots","coordinates":{"lat":"-20.2666667","long":"57.7380556"}},{"country":"mu","city":"Trou aux Biches","coordinates":{"lat":"-20.045","long":"57.5461111"}},{"country":"mu","city":"Trou d'Eau Douce","coordinates":{"lat":"-20.2372222","long":"57.7775"}},{"country":"mu","city":"Tyack","coordinates":{"lat":"-20.4761111","long":"57.5519444"}},{"country":"mu","city":"Union Flacq","coordinates":{"lat":"-20.2044444","long":"57.6855556"}},{"country":"mu","city":"Union Maurel","coordinates":{"lat":"-20.0191667","long":"57.6308333"}},{"country":"mu","city":"Union Park","coordinates":{"lat":"-20.3863889","long":"57.5736111"}},{"country":"mu","city":"Union Saint Aubin","coordinates":{"lat":"-20.4916667","long":"57.5413889"}},{"country":"mu","city":"Union","coordinates":{"lat":"-20.5","long":"57.4666667"}},{"country":"mu","city":"Union Vale","coordinates":{"lat":"-20.4438889","long":"57.655"}},{"country":"mu","city":"Unité","coordinates":{"lat":"-20.2327778","long":"57.6672222"}},{"country":"mu","city":"Vacoas","coordinates":{"lat":"-20.2980556","long":"57.4783333"}},{"country":"mu","city":"Vacoa","coordinates":{"lat":"-20.2980556","long":"57.4783333"}},{"country":"mu","city":"Vainqueur","coordinates":{"lat":"-19.6666667","long":"63.4666667"}},{"country":"mu","city":"Valentina","coordinates":{"lat":"-20.2719444","long":"57.4955556"}},{"country":"mu","city":"Valentina","coordinates":{"lat":"-20.4908333","long":"57.4583333"}},{"country":"mu","city":"Valetta","coordinates":{"lat":"-20.2519444","long":"57.5613889"}},{"country":"mu","city":"Vallée des Prêtres","coordinates":{"lat":"-20.1669444","long":"57.5305556"}},{"country":"mu","city":"Vallée Pitot","coordinates":{"lat":"-20.1647222","long":"57.5130556"}},{"country":"mu","city":"Valruche","coordinates":{"lat":"-20.4580556","long":"57.4366667"}},{"country":"mu","city":"Valton","coordinates":{"lat":"-20.1519444","long":"57.5627778"}},{"country":"mu","city":"Verdun Station","coordinates":{"lat":"-20.2283333","long":"57.5438889"}},{"country":"mu","city":"Verdun","coordinates":{"lat":"-20.2283333","long":"57.5438889"}},{"country":"mu","city":"Vieux Grand Port","coordinates":{"lat":"-20.3669444","long":"57.7063889"}},{"country":"mu","city":"Ville Bague","coordinates":{"lat":"-20.1447222","long":"57.6211111"}},{"country":"mu","city":"Ville d'Apray","coordinates":{"lat":"-20.3363889","long":"57.5630556"}},{"country":"mu","city":"Ville d'Avray","coordinates":{"lat":"-20.3363889","long":"57.5630556"}},{"country":"mu","city":"Ville Noire","coordinates":{"lat":"-20.4019444","long":"57.6947222"}},{"country":"mu","city":"Ville Valio","coordinates":{"lat":"-20.0938889","long":"57.5038889"}},{"country":"mu","city":"Virginia","coordinates":{"lat":"-20.4677778","long":"57.6558333"}},{"country":"mu","city":"Vuillemain","coordinates":{"lat":"-20.215","long":"57.4663889"}},{"country":"mu","city":"Vuillemin","coordinates":{"lat":"-20.255","long":"57.5847222"}},{"country":"mu","city":"Yemen","coordinates":{"lat":"-20.335","long":"57.4005556"}}]