[{"country":"am","city":"Abaran","coordinates":{"lat":"40.5961111","long":"44.3536111"}},{"country":"am","city":"Abaran Verin","coordinates":{"lat":"40.5961111","long":"44.3536111"}},{"country":"am","city":"Abilkend","coordinates":{"lat":"40.0236111","long":"44.4244444"}},{"country":"am","city":"Ablkend","coordinates":{"lat":"40.0236111","long":"44.4244444"}},{"country":"am","city":"Abovyan","coordinates":{"lat":"40.0488889","long":"44.5475"}},{"country":"am","city":"Abovyan","coordinates":{"lat":"40.2691667","long":"44.6244444"}},{"country":"am","city":"Achadzhur","coordinates":{"lat":"40.9902778","long":"45.1452778"}},{"country":"am","city":"Ach'ajur","coordinates":{"lat":"40.9902778","long":"45.1452778"}},{"country":"am","city":"Achanan","coordinates":{"lat":"39.2347222","long":"46.4313889"}},{"country":"am","city":"Achasu","coordinates":{"lat":"40.9902778","long":"45.1452778"}},{"country":"am","city":"Achkhlu","coordinates":{"lat":"39.2294444","long":"46.3083333"}},{"country":"am","city":"Achpach","coordinates":{"lat":"39.25","long":"46.0833333"}},{"country":"am","city":"Achtarak","coordinates":{"lat":"40.3016667","long":"44.3591667"}},{"country":"am","city":"Adamkhan","coordinates":{"lat":"40.1875","long":"45.1938889"}},{"country":"am","city":"Adyaman","coordinates":{"lat":"40.4833333","long":"43.95"}},{"country":"am","city":"Adzhatin","coordinates":{"lat":"39.2038889","long":"46.1386111"}},{"country":"am","city":"Adzhebadzh","coordinates":{"lat":"39.25","long":"46.0833333"}},{"country":"am","city":"Adzhibadzh","coordinates":{"lat":"39.25","long":"46.0833333"}},{"country":"am","city":"Adzhilu","coordinates":{"lat":"39.1608333","long":"46.2875"}},{"country":"am","city":"Agadzor","coordinates":{"lat":"40.2561111","long":"44.6766667"}},{"country":"am","city":"Agagchi","coordinates":{"lat":"40.4666667","long":"43.95"}},{"country":"am","city":"Agalu","coordinates":{"lat":"40.1830556","long":"45.8255556"}},{"country":"am","city":"Agamzalu","coordinates":{"lat":"40.0666667","long":"44.4666667"}},{"country":"am","city":"Agarakadzor","coordinates":{"lat":"39.7363889","long":"45.3455556"}},{"country":"am","city":"Agarak","coordinates":{"lat":"40.3077778","long":"44.2847222"}},{"country":"am","city":"Agarak","coordinates":{"lat":"41.0105556","long":"44.4675"}},{"country":"am","city":"Agarak","coordinates":{"lat":"39.2038889","long":"46.5472222"}},{"country":"am","city":"Agavnadzor","coordinates":{"lat":"40.5841667","long":"44.6913889"}},{"country":"am","city":"Agavnadzor","coordinates":{"lat":"39.7836111","long":"45.2280556"}},{"country":"am","city":"Agavnatun","coordinates":{"lat":"40.2336111","long":"44.2513889"}},{"country":"am","city":"Agbash","coordinates":{"lat":"40.0488889","long":"44.5475"}},{"country":"am","city":"Agbulag","coordinates":{"lat":"40.5263889","long":"45.2772222"}},{"country":"am","city":"Agbulag","coordinates":{"lat":"40.8652778","long":"44.0305556"}},{"country":"am","city":"Agbulakh","coordinates":{"lat":"40.5263889","long":"45.2772222"}},{"country":"am","city":"Agbulakh","coordinates":{"lat":"40.8652778","long":"44.0305556"}},{"country":"am","city":"Agbulalakh","coordinates":{"lat":"40.5263889","long":"45.2772222"}},{"country":"am","city":"Agdan","coordinates":{"lat":"40.8486111","long":"45.1497222"}},{"country":"am","city":"Agdzhakala","coordinates":{"lat":"40.3452778","long":"44.0555556"}},{"country":"am","city":"Agdzhakala","coordinates":{"lat":"40.2","long":"44.2275"}},{"country":"am","city":"Agdzhakishlag","coordinates":{"lat":"40.0380556","long":"44.5638889"}},{"country":"am","city":"Agdzhakishlag","coordinates":{"lat":"40.1333333","long":"44.4333333"}},{"country":"am","city":"Agdzharkh","coordinates":{"lat":"40.1005556","long":"44.0969444"}},{"country":"am","city":"Agëkhush","coordinates":{"lat":"40.25","long":"45.85"}},{"country":"am","city":"Agexus","coordinates":{"lat":"40.2791667","long":"45.8319444"}},{"country":"am","city":"Aghavnadzor","coordinates":{"lat":"40.5841667","long":"44.6913889"}},{"country":"am","city":"Aghavnadzor","coordinates":{"lat":"39.7836111","long":"45.2280556"}},{"country":"am","city":"Aghavnatun","coordinates":{"lat":"40.2336111","long":"44.2513889"}},{"country":"am","city":"Aghavnavank'","coordinates":{"lat":"40.7308333","long":"45.0933333"}},{"country":"am","city":"Aghberk'","coordinates":{"lat":"40.5263889","long":"45.2772222"}},{"country":"am","city":"Aghbulagh","coordinates":{"lat":"39.3511111","long":"46.3983333"}},{"country":"am","city":"Aghin","coordinates":{"lat":"40.59","long":"43.6983333"}},{"country":"am","city":"Aghitu","coordinates":{"lat":"39.5152778","long":"46.0808333"}},{"country":"am","city":"Aghk'end","coordinates":{"lat":"39.4763889","long":"45.9977778"}},{"country":"am","city":"Aghkend","coordinates":{"lat":"39.9022222","long":"45.2475"}},{"country":"am","city":"Aghk'ilisa","coordinates":{"lat":"40.0225","long":"45.0136111"}},{"country":"am","city":"Aghnjadzor","coordinates":{"lat":"39.9022222","long":"45.2475"}},{"country":"am","city":"Aghts'k'","coordinates":{"lat":"40.3163889","long":"44.2536111"}},{"country":"am","city":"Aghudi","coordinates":{"lat":"39.5152778","long":"46.0808333"}},{"country":"am","city":"Aghvani","coordinates":{"lat":"39.355","long":"46.3030556"}},{"country":"am","city":"Aghvorik","coordinates":{"lat":"41.0758333","long":"43.755"}},{"country":"am","city":"Aghyokhush","coordinates":{"lat":"40.2791667","long":"45.8319444"}},{"country":"am","city":"Agin","coordinates":{"lat":"40.59","long":"43.6983333"}},{"country":"am","city":"Agkilisa","coordinates":{"lat":"40.0225","long":"45.0136111"}},{"country":"am","city":"Agkilisa","coordinates":{"lat":"40.9544444","long":"44.0908333"}},{"country":"am","city":"Agkilisa","coordinates":{"lat":"40.7155556","long":"45.0483333"}},{"country":"am","city":"Agndzhadzor","coordinates":{"lat":"39.9022222","long":"45.2475"}},{"country":"am","city":"Agnilisa","coordinates":{"lat":"39.8458333","long":"45.1658333"}},{"country":"am","city":"Agpara","coordinates":{"lat":"40.5094444","long":"44.7338889"}},{"country":"am","city":"Agsu","coordinates":{"lat":"40.9","long":"45.2833333"}},{"country":"am","city":"Agudi","coordinates":{"lat":"39.5152778","long":"46.0808333"}},{"country":"am","city":"Agvani","coordinates":{"lat":"39.355","long":"46.3030556"}},{"country":"am","city":"Agveran","coordinates":{"lat":"40.5166667","long":"44.5666667"}},{"country":"am","city":"Agvi","coordinates":{"lat":"41.0666667","long":"44.5833333"}},{"country":"am","city":"Agzibir","coordinates":{"lat":"40.4611111","long":"45.065"}},{"country":"am","city":"Ahnidzor","coordinates":{"lat":"40.91","long":"44.8213889"}},{"country":"am","city":"Aigedzor","coordinates":{"lat":"39.4858333","long":"46.4197222"}},{"country":"am","city":"Ajabaj","coordinates":{"lat":"39.25","long":"46.0833333"}},{"country":"am","city":"Aj'ap'nyak","coordinates":{"lat":"40.1991667","long":"44.4705556"}},{"country":"am","city":"Ajaraj","coordinates":{"lat":"39.25","long":"46.0833333"}},{"country":"am","city":"Ajaran","coordinates":{"lat":"39.25","long":"46.0833333"}},{"country":"am","city":"Ajatin","coordinates":{"lat":"39.2038889","long":"46.1386111"}},{"country":"am","city":"Ajbaj","coordinates":{"lat":"39.25","long":"46.0833333"}},{"country":"am","city":"Ajbej","coordinates":{"lat":"39.25","long":"46.0833333"}},{"country":"am","city":"Ajbij","coordinates":{"lat":"39.25","long":"46.0833333"}},{"country":"am","city":"Ajebach'","coordinates":{"lat":"39.25","long":"46.0833333"}},{"country":"am","city":"Ajebaj","coordinates":{"lat":"39.25","long":"46.0833333"}},{"country":"am","city":"Ajevach'","coordinates":{"lat":"39.25","long":"46.0833333"}},{"country":"am","city":"Ajibaj","coordinates":{"lat":"39.25","long":"46.0833333"}},{"country":"am","city":"Ajilu","coordinates":{"lat":"39.1608333","long":"46.2875"}},{"country":"am","city":"Ajizur","coordinates":{"lat":"39.2622222","long":"46.3725"}},{"country":"am","city":"Ajlu","coordinates":{"lat":"39.1608333","long":"46.2875"}},{"country":"am","city":"Ajrlu","coordinates":{"lat":"39.1608333","long":"46.2875"}},{"country":"am","city":"Ajylu","coordinates":{"lat":"39.1608333","long":"46.2875"}},{"country":"am","city":"Akhavnadzor","coordinates":{"lat":"40.5841667","long":"44.6913889"}},{"country":"am","city":"Akhavnadzor","coordinates":{"lat":"39.7836111","long":"45.2280556"}},{"country":"am","city":"Akhavnatukh","coordinates":{"lat":"40.2336111","long":"44.2513889"}},{"country":"am","city":"Akhavnatun","coordinates":{"lat":"40.2336111","long":"44.2513889"}},{"country":"am","city":"Akhbrak","coordinates":{"lat":"40.5094444","long":"44.7338889"}},{"country":"am","city":"Akhkala","coordinates":{"lat":"40.45","long":"45.0925"}},{"country":"am","city":"Akhkend","coordinates":{"lat":"39.7744444","long":"45.6005556"}},{"country":"am","city":"Akhkikhli","coordinates":{"lat":"40.7877778","long":"45.0505556"}},{"country":"am","city":"Akhkikhlu","coordinates":{"lat":"40.7877778","long":"45.0505556"}},{"country":"am","city":"Akhkilisa","coordinates":{"lat":"40.1833333","long":"45.8666667"}},{"country":"am","city":"Akhkilisa","coordinates":{"lat":"40.8666667","long":"43.95"}},{"country":"am","city":"Akhlatian","coordinates":{"lat":"39.4422222","long":"46.0352778"}},{"country":"am","city":"Akhlat'yan","coordinates":{"lat":"39.4422222","long":"46.0352778"}},{"country":"am","city":"Akhnidzor","coordinates":{"lat":"40.91","long":"44.8213889"}},{"country":"am","city":"Akhpat","coordinates":{"lat":"41.095","long":"44.7102778"}},{"country":"am","city":"Akhpradzor","coordinates":{"lat":"40.1","long":"45.65"}},{"country":"am","city":"Akhpyurak","coordinates":{"lat":"40.5094444","long":"44.7338889"}},{"country":"am","city":"Akhs","coordinates":{"lat":"40.3163889","long":"44.2536111"}},{"country":"am","city":"Akhsibara","coordinates":{"lat":"41.0647222","long":"45.0575"}},{"country":"am","city":"Akhsu","coordinates":{"lat":"40.9","long":"45.2833333"}},{"country":"am","city":"Akhta","coordinates":{"lat":"40.5016667","long":"44.7547222"}},{"country":"am","city":"Akhta","coordinates":{"lat":"39.6447222","long":"45.565"}},{"country":"am","city":"Akhtakhana","coordinates":{"lat":"39.2686111","long":"46.3563889"}},{"country":"am","city":"Akhtala","coordinates":{"lat":"40.5016667","long":"44.7547222"}},{"country":"am","city":"Akht'ala","coordinates":{"lat":"41.1483333","long":"44.7655556"}},{"country":"am","city":"Akhtanak","coordinates":{"lat":"41.2238889","long":"44.9377778"}},{"country":"am","city":"Akhtanak","coordinates":{"lat":"40.1863889","long":"44.4238889"}},{"country":"am","city":"Akhti","coordinates":{"lat":"40.5016667","long":"44.7547222"}},{"country":"am","city":"Akhula","coordinates":{"lat":"40.6813889","long":"44.1688889"}},{"country":"am","city":"Akhum","coordinates":{"lat":"40.9638889","long":"45.3491667"}},{"country":"am","city":"Akhund Bzovan","coordinates":{"lat":"40.0","long":"44.5666667"}},{"country":"am","city":"Akhundov","coordinates":{"lat":"40.6136111","long":"44.5941667"}},{"country":"am","city":"Akhurik","coordinates":{"lat":"40.75","long":"43.7833333"}},{"country":"am","city":"Akhuryan","coordinates":{"lat":"40.7813889","long":"43.8963889"}},{"country":"am","city":"Akko","coordinates":{"lat":"40.3811111","long":"43.6994444"}},{"country":"am","city":"Aknalich","coordinates":{"lat":"40.1430556","long":"44.1483333"}},{"country":"am","city":"Aknashen","coordinates":{"lat":"40.0958333","long":"44.2861111"}},{"country":"am","city":"Akner","coordinates":{"lat":"41.0830556","long":"44.69"}},{"country":"am","city":"Akner","coordinates":{"lat":"39.5066667","long":"46.3086111"}},{"country":"am","city":"Ak'ori","coordinates":{"lat":"41.0922222","long":"44.6161111"}},{"country":"am","city":"Aksibara","coordinates":{"lat":"41.0647222","long":"45.0575"}},{"country":"am","city":"Akunk","coordinates":{"lat":"40.4166667","long":"43.9"}},{"country":"am","city":"Akunk'","coordinates":{"lat":"40.1522222","long":"45.72"}},{"country":"am","city":"Akunk'","coordinates":{"lat":"40.2691667","long":"44.6836111"}},{"country":"am","city":"Alages","coordinates":{"lat":"40.3330556","long":"43.6580556"}},{"country":"am","city":"Alagëz","coordinates":{"lat":"40.3330556","long":"43.6580556"}},{"country":"am","city":"Alagyaz","coordinates":{"lat":"40.3330556","long":"43.6580556"}},{"country":"am","city":"Alagyaz","coordinates":{"lat":"39.8588889","long":"45.3613889"}},{"country":"am","city":"Alagyoz","coordinates":{"lat":"40.3330556","long":"43.6580556"}},{"country":"am","city":"Alakilisa","coordinates":{"lat":"40.9666667","long":"43.8166667"}},{"country":"am","city":"Alap'ars","coordinates":{"lat":"40.4213889","long":"44.6347222"}},{"country":"am","city":"Alatala","coordinates":{"lat":"40.8","long":"45.4"}},{"country":"am","city":"Alavar","coordinates":{"lat":"40.77","long":"44.3841667"}},{"country":"am","city":"Alaverdi","coordinates":{"lat":"41.1305556","long":"44.6519444"}},{"country":"am","city":"Alaverdy","coordinates":{"lat":"41.1305556","long":"44.6519444"}},{"country":"am","city":"Alawerdy","coordinates":{"lat":"41.1305556","long":"44.6519444"}},{"country":"am","city":"Alayaz","coordinates":{"lat":"39.8588889","long":"45.3613889"}},{"country":"am","city":"Aldara","coordinates":{"lat":"38.9383333","long":"46.345"}},{"country":"am","city":"Alek'pol","coordinates":{"lat":"40.7894444","long":"43.8475"}},{"country":"am","city":"Alek'sandrapol","coordinates":{"lat":"40.7894444","long":"43.8475"}},{"country":"am","city":"Alek'sandrobol","coordinates":{"lat":"40.7894444","long":"43.8475"}},{"country":"am","city":"Aleksandropol'","coordinates":{"lat":"40.7894444","long":"43.8475"}},{"country":"am","city":"Aleksandrovka","coordinates":{"lat":"40.5075","long":"44.9588889"}},{"country":"am","city":"Aleksandrovka","coordinates":{"lat":"41.0366667","long":"44.4052778"}},{"country":"am","city":"Aleksandrovka","coordinates":{"lat":"40.7461111","long":"43.7969444"}},{"country":"am","city":"Alexandropol'","coordinates":{"lat":"40.7894444","long":"43.8475"}},{"country":"am","city":"Alibeklu","coordinates":{"lat":"40.1513889","long":"44.2663889"}},{"country":"am","city":"Alichali","coordinates":{"lat":"40.1502778","long":"45.5158333"}},{"country":"am","city":"Alighulashen","coordinates":{"lat":"39.4858333","long":"46.4197222"}},{"country":"am","city":"Alighuli Ashaghy","coordinates":{"lat":"39.4858333","long":"46.4197222"}},{"country":"am","city":"Alikhan","coordinates":{"lat":"40.9166667","long":"44.05"}},{"country":"am","city":"Alikhan-Payasy","coordinates":{"lat":"39.8127778","long":"45.2911111"}},{"country":"am","city":"Alikrykh","coordinates":{"lat":"40.1238889","long":"45.3566667"}},{"country":"am","city":"Alikuchak","coordinates":{"lat":"40.5252778","long":"44.3916667"}},{"country":"am","city":"Alikulik'yand","coordinates":{"lat":"39.4858333","long":"46.4197222"}},{"country":"am","city":"Alilu","coordinates":{"lat":"39.4644444","long":"45.9238889"}},{"country":"am","city":"Alkhat'yan","coordinates":{"lat":"39.4422222","long":"46.0352778"}},{"country":"am","city":"Allaverdy","coordinates":{"lat":"41.1305556","long":"44.6519444"}},{"country":"am","city":"Almalu","coordinates":{"lat":"39.5661111","long":"45.3769444"}},{"country":"am","city":"Alvar","coordinates":{"lat":"41.0508333","long":"43.7491667"}},{"country":"am","city":"Amaghu","coordinates":{"lat":"39.6813889","long":"45.2163889"}},{"country":"am","city":"Amagu","coordinates":{"lat":"39.6813889","long":"45.2163889"}},{"country":"am","city":"Amamlu","coordinates":{"lat":"40.8372222","long":"44.2675"}},{"country":"am","city":"Amamth","coordinates":{"lat":"40.8372222","long":"44.2675"}},{"country":"am","city":"Amasia","coordinates":{"lat":"40.9466667","long":"43.7813889"}},{"country":"am","city":"Amasiya","coordinates":{"lat":"40.0833333","long":"43.9666667"}},{"country":"am","city":"Amasiya","coordinates":{"lat":"40.9466667","long":"43.7813889"}},{"country":"am","city":"Amberd","coordinates":{"lat":"40.2416667","long":"44.2727778"}},{"country":"am","city":"Amirkher","coordinates":{"lat":"40.65","long":"45.1166667"}},{"country":"am","city":"Amodzh","coordinates":{"lat":"41.0666667","long":"44.6"}},{"country":"am","city":"Amrakits'","coordinates":{"lat":"40.9972222","long":"44.4272222"}},{"country":"am","city":"Anastasavan","coordinates":{"lat":"39.9458333","long":"44.6088889"}},{"country":"am","city":"Anastasavan","coordinates":{"lat":"40.2191667","long":"44.4794444"}},{"country":"am","city":"Angeghakot'","coordinates":{"lat":"39.5680556","long":"45.9438889"}},{"country":"am","city":"Angekhakot","coordinates":{"lat":"39.5680556","long":"45.9438889"}},{"country":"am","city":"Angelaut","coordinates":{"lat":"39.5680556","long":"45.9438889"}},{"country":"am","city":"Anipemza","coordinates":{"lat":"40.4486111","long":"43.6041667"}},{"country":"am","city":"Ankadzor","coordinates":{"lat":"40.8833333","long":"44.65"}},{"country":"am","city":"Ankavan","coordinates":{"lat":"40.6441667","long":"44.4813889"}},{"country":"am","city":"Antaramut","coordinates":{"lat":"40.9386111","long":"44.5591667"}},{"country":"am","city":"Antarashat","coordinates":{"lat":"39.3002778","long":"46.3291667"}},{"country":"am","city":"Antarramej","coordinates":{"lat":"40.6833333","long":"45.1333333"}},{"country":"am","city":"Antarramut","coordinates":{"lat":"40.9386111","long":"44.5591667"}},{"country":"am","city":"Antarrashat","coordinates":{"lat":"39.3002778","long":"46.3291667"}},{"country":"am","city":"Antarut","coordinates":{"lat":"40.35","long":"44.2666667"}},{"country":"am","city":"Anushavan","coordinates":{"lat":"40.6419444","long":"43.9822222"}},{"country":"am","city":"Apaga","coordinates":{"lat":"40.0961111","long":"44.2511111"}},{"country":"am","city":"Aparan","coordinates":{"lat":"40.5961111","long":"44.3536111"}},{"country":"am","city":"Aparanbol","coordinates":{"lat":"40.5961111","long":"44.3536111"}},{"country":"am","city":"Aparanpol","coordinates":{"lat":"40.5961111","long":"44.3536111"}},{"country":"am","city":"Aparan Verin","coordinates":{"lat":"40.5961111","long":"44.3536111"}},{"country":"am","city":"Apaven","coordinates":{"lat":"41.2","long":"44.35"}},{"country":"am","city":"Ap'nagyugh","coordinates":{"lat":"40.4394444","long":"44.3961111"}},{"country":"am","city":"Apnagyukh","coordinates":{"lat":"40.4394444","long":"44.3961111"}},{"country":"am","city":"Aqarak","coordinates":{"lat":"39.2038889","long":"46.5472222"}},{"country":"am","city":"Arabkir","coordinates":{"lat":"40.2002778","long":"44.4941667"}},{"country":"am","city":"Arachadzor","coordinates":{"lat":"39.2622222","long":"46.3725"}},{"country":"am","city":"Aragats","coordinates":{"lat":"40.3330556","long":"43.6580556"}},{"country":"am","city":"Aragats","coordinates":{"lat":"40.2183333","long":"44.2327778"}},{"country":"am","city":"Aragatsotn","coordinates":{"lat":"40.2588889","long":"44.1819444"}},{"country":"am","city":"Aragyugh","coordinates":{"lat":"40.4025","long":"44.5436111"}},{"country":"am","city":"Aragyukh","coordinates":{"lat":"40.4025","long":"44.5436111"}},{"country":"am","city":"Arai","coordinates":{"lat":"40.4622222","long":"44.3736111"}},{"country":"am","city":"Arak's","coordinates":{"lat":"40.0547222","long":"44.3027778"}},{"country":"am","city":"Arak'savan","coordinates":{"lat":"40.0011111","long":"44.47"}},{"country":"am","city":"Aralek","coordinates":{"lat":"39.9002778","long":"44.6533333"}},{"country":"am","city":"Aralykh","coordinates":{"lat":"40.1172222","long":"44.2705556"}},{"country":"am","city":"Aralykh","coordinates":{"lat":"40.7","long":"43.75"}},{"country":"am","city":"Aramis","coordinates":{"lat":"39.4611111","long":"46.1025"}},{"country":"am","city":"Aramus","coordinates":{"lat":"40.2511111","long":"44.6630556"}},{"country":"am","city":"Arapi","coordinates":{"lat":"40.7797222","long":"43.8005556"}},{"country":"am","city":"Ararat","coordinates":{"lat":"39.8094444","long":"44.7144444"}},{"country":"am","city":"Arates","coordinates":{"lat":"39.9041667","long":"45.44"}},{"country":"am","city":"Aravet","coordinates":{"lat":"41.0466667","long":"43.7769444"}},{"country":"am","city":"Aravus","coordinates":{"lat":"39.405","long":"45.9011111"}},{"country":"am","city":"Arazap","coordinates":{"lat":"40.0427778","long":"44.1458333"}},{"country":"am","city":"Arazdayan","coordinates":{"lat":"39.7166667","long":"44.75"}},{"country":"am","city":"Arbat'","coordinates":{"lat":"40.1369444","long":"44.3983333"}},{"country":"am","city":"Arch'adzor","coordinates":{"lat":"39.2622222","long":"46.3725"}},{"country":"am","city":"Archis","coordinates":{"lat":"41.1641667","long":"44.8725"}},{"country":"am","city":"Archut","coordinates":{"lat":"40.8630556","long":"44.3822222"}},{"country":"am","city":"Ardashar","coordinates":{"lat":"40.0005556","long":"44.585"}},{"country":"am","city":"Ardenis","coordinates":{"lat":"41.0786111","long":"43.7238889"}},{"country":"am","city":"Ardvi","coordinates":{"lat":"41.0166667","long":"44.6"}},{"country":"am","city":"Areg","coordinates":{"lat":"40.3891667","long":"43.8141667"}},{"country":"am","city":"Aregnadem","coordinates":{"lat":"40.9286111","long":"43.7491667"}},{"country":"am","city":"Areguni","coordinates":{"lat":"40.3416667","long":"45.6083333"}},{"country":"am","city":"Areni","coordinates":{"lat":"39.7208333","long":"45.1838889"}},{"country":"am","city":"Arevabuyr","coordinates":{"lat":"40.0361111","long":"44.4688889"}},{"country":"am","city":"Arevashat","coordinates":{"lat":"40.1416667","long":"44.3708333"}},{"country":"am","city":"Arevashet","coordinates":{"lat":"40.1416667","long":"44.3708333"}},{"country":"am","city":"Arevashogh","coordinates":{"lat":"40.8613889","long":"44.2727778"}},{"country":"am","city":"Arevashokh","coordinates":{"lat":"40.8613889","long":"44.2727778"}},{"country":"am","city":"Arevatsag","coordinates":{"lat":"40.9738889","long":"44.6105556"}},{"country":"am","city":"Arevik","coordinates":{"lat":"40.1005556","long":"44.0969444"}},{"country":"am","city":"Arevik","coordinates":{"lat":"40.7361111","long":"43.8927778"}},{"country":"am","city":"Arevis","coordinates":{"lat":"39.405","long":"45.9011111"}},{"country":"am","city":"Arevshat","coordinates":{"lat":"40.0391667","long":"44.5416667"}},{"country":"am","city":"Arevshat","coordinates":{"lat":"40.6486111","long":"44.0444444"}},{"country":"am","city":"Argavand","coordinates":{"lat":"40.1580556","long":"44.44"}},{"country":"am","city":"Argavand","coordinates":{"lat":"40.0608333","long":"44.0952778"}},{"country":"am","city":"Argel","coordinates":{"lat":"40.3794444","long":"44.5994444"}},{"country":"am","city":"Argishti","coordinates":{"lat":"40.1377778","long":"44.5716667"}},{"country":"am","city":"Arich","coordinates":{"lat":"40.5980556","long":"44.0075"}},{"country":"am","city":"Arikhvali","coordinates":{"lat":"40.8666667","long":"43.9166667"}},{"country":"am","city":"Arin","coordinates":{"lat":"39.7272222","long":"45.4938889"}},{"country":"am","city":"Arindzh","coordinates":{"lat":"40.2313889","long":"44.5711111"}},{"country":"am","city":"Arjadzor","coordinates":{"lat":"39.2622222","long":"46.3725"}},{"country":"am","city":"Arjagur-Avsarlu","coordinates":{"lat":"39.1330556","long":"46.26"}},{"country":"am","city":"Arjazur","coordinates":{"lat":"39.2622222","long":"46.3725"}},{"country":"am","city":"Arjut","coordinates":{"lat":"40.8630556","long":"44.3822222"}},{"country":"am","city":"Arkel","coordinates":{"lat":"40.3794444","long":"44.5994444"}},{"country":"am","city":"Armanis","coordinates":{"lat":"41.0080556","long":"44.3291667"}},{"country":"am","city":"Armash","coordinates":{"lat":"39.7666667","long":"44.8083333"}},{"country":"am","city":"Armavir","coordinates":{"lat":"40.0897222","long":"44.0483333"}},{"country":"am","city":"Armutlu","coordinates":{"lat":"40.0772222","long":"44.0886111"}},{"country":"am","city":"Armutlu","coordinates":{"lat":"40.6","long":"43.9"}},{"country":"am","city":"Armyanskiy Gerger","coordinates":{"lat":"40.9569444","long":"44.4427778"}},{"country":"am","city":"Arpa","coordinates":{"lat":"39.7208333","long":"45.1838889"}},{"country":"am","city":"Arpavar","coordinates":{"lat":"40.0391667","long":"44.5416667"}},{"country":"am","city":"Arpeni","coordinates":{"lat":"40.9166667","long":"43.8833333"}},{"country":"am","city":"Arp'i","coordinates":{"lat":"39.7391667","long":"45.2616667"}},{"country":"am","city":"Arp'unk'","coordinates":{"lat":"40.2833333","long":"45.7333333"}},{"country":"am","city":"Arrach'adzor","coordinates":{"lat":"39.2622222","long":"46.3725"}},{"country":"am","city":"Arrajadzor","coordinates":{"lat":"39.2622222","long":"46.3725"}},{"country":"am","city":"Arrajnadzor","coordinates":{"lat":"39.2622222","long":"46.3725"}},{"country":"am","city":"Arrap'i","coordinates":{"lat":"40.7797222","long":"43.8005556"}},{"country":"am","city":"Arratashen","coordinates":{"lat":"40.1286111","long":"44.2275"}},{"country":"am","city":"Arrinj","coordinates":{"lat":"40.2313889","long":"44.5711111"}},{"country":"am","city":"Arrjahur","coordinates":{"lat":"39.1330556","long":"46.26"}},{"country":"am","city":"Arshaluys","coordinates":{"lat":"40.1688889","long":"44.2141667"}},{"country":"am","city":"Artabuynk'","coordinates":{"lat":"39.8586111","long":"45.3294444"}},{"country":"am","city":"Artagyukh","coordinates":{"lat":"40.8355556","long":"44.0466667"}},{"country":"am","city":"Artanish","coordinates":{"lat":"40.4958333","long":"45.3627778"}},{"country":"am","city":"Artashar","coordinates":{"lat":"40.1091667","long":"44.1811111"}},{"country":"am","city":"Artashat","coordinates":{"lat":"39.9538889","long":"44.5505556"}},{"country":"am","city":"Artashavan","coordinates":{"lat":"40.3936111","long":"44.3813889"}},{"country":"am","city":"Artashe","coordinates":{"lat":"39.4858333","long":"46.4197222"}},{"country":"am","city":"Artashen","coordinates":{"lat":"40.1286111","long":"44.2275"}},{"country":"am","city":"Artashen","coordinates":{"lat":"41.0094444","long":"43.9227778"}},{"country":"am","city":"Artashen","coordinates":{"lat":"39.4858333","long":"46.4197222"}},{"country":"am","city":"Artavan","coordinates":{"lat":"40.4780556","long":"44.4005556"}},{"country":"am","city":"Artavan","coordinates":{"lat":"39.6575","long":"45.6166667"}},{"country":"am","city":"Artavaz","coordinates":{"lat":"40.6191667","long":"44.5747222"}},{"country":"am","city":"Artemed","coordinates":{"lat":"40.1727778","long":"44.2925"}},{"country":"am","city":"Arteni","coordinates":{"lat":"40.2983333","long":"43.7541667"}},{"country":"am","city":"Art'ik","coordinates":{"lat":"40.6172222","long":"43.9758333"}},{"country":"am","city":"Artimet","coordinates":{"lat":"40.1513889","long":"44.2663889"}},{"country":"am","city":"Artiz","coordinates":{"lat":"40.1588889","long":"44.7966667"}},{"country":"am","city":"Artsbashen","coordinates":{"lat":"40.6461111","long":"45.5155556"}},{"country":"am","city":"Artsevanik'","coordinates":{"lat":"39.2616667","long":"46.4736111"}},{"country":"am","city":"Artsni","coordinates":{"lat":"41.2141667","long":"44.37"}},{"country":"am","city":"Artsvaberd","coordinates":{"lat":"40.8336111","long":"45.4711111"}},{"country":"am","city":"Artsvakar","coordinates":{"lat":"40.3552778","long":"45.1725"}},{"country":"am","city":"Artsvanik","coordinates":{"lat":"39.2616667","long":"46.4736111"}},{"country":"am","city":"Artsvanist","coordinates":{"lat":"40.1544444","long":"45.5022222"}},{"country":"am","city":"Artsvashen","coordinates":{"lat":"40.6461111","long":"45.5155556"}},{"country":"am","city":"Artsvenik","coordinates":{"lat":"39.2616667","long":"46.4736111"}},{"country":"am","city":"Artzvanik","coordinates":{"lat":"39.2616667","long":"46.4736111"}},{"country":"am","city":"Arum","coordinates":{"lat":"40.2905556","long":"44.0697222"}},{"country":"am","city":"Arzakan","coordinates":{"lat":"40.4494444","long":"44.6063889"}},{"country":"am","city":"Arzakyand","coordinates":{"lat":"40.4494444","long":"44.6063889"}},{"country":"am","city":"Arzhis","coordinates":{"lat":"39.4333333","long":"46.2216667"}},{"country":"am","city":"Arzni","coordinates":{"lat":"40.2963889","long":"44.5958333"}},{"country":"am","city":"Ashaga Zeyva","coordinates":{"lat":"39.3180556","long":"46.4952778"}},{"country":"am","city":"Ashaya-Zeyva","coordinates":{"lat":"39.3180556","long":"46.4952778"}},{"country":"am","city":"Ashnak","coordinates":{"lat":"40.3275","long":"43.9166667"}},{"country":"am","city":"Ashotavan","coordinates":{"lat":"39.4763889","long":"45.9977778"}},{"country":"am","city":"Ashots'k'","coordinates":{"lat":"41.0375","long":"43.8580556"}},{"country":"am","city":"Ashtarak","coordinates":{"lat":"40.3016667","long":"44.3591667"}},{"country":"am","city":"Ashtarakats' Gyugh","coordinates":{"lat":"40.3016667","long":"44.3591667"}},{"country":"am","city":"Astazur","coordinates":{"lat":"38.9427778","long":"46.3769444"}},{"country":"am","city":"Astghadzor","coordinates":{"lat":"40.1238889","long":"45.3566667"}},{"country":"am","city":"Astkhadzor","coordinates":{"lat":"40.1238889","long":"45.3566667"}},{"country":"am","city":"Astvatsinkal","coordinates":{"lat":"40.4647222","long":"44.4319444"}},{"country":"am","city":"Atamkhan","coordinates":{"lat":"40.1875","long":"45.1938889"}},{"country":"am","city":"At'an","coordinates":{"lat":"40.9338889","long":"44.8491667"}},{"country":"am","city":"Atarbekyan","coordinates":{"lat":"40.1513889","long":"44.2663889"}},{"country":"am","city":"At'arbekyan","coordinates":{"lat":"40.5338889","long":"44.7691667"}},{"country":"am","city":"Atarbekyan","coordinates":{"lat":"40.5338889","long":"44.7691667"}},{"country":"am","city":"Atdash","coordinates":{"lat":"40.035","long":"45.1897222"}},{"country":"am","city":"At'ghunk'","coordinates":{"lat":"39.4858333","long":"46.4197222"}},{"country":"am","city":"Atis","coordinates":{"lat":"40.3405556","long":"44.7297222"}},{"country":"am","city":"Atsarat","coordinates":{"lat":"40.3427778","long":"45.1133333"}},{"country":"am","city":"Atsashen","coordinates":{"lat":"40.4333333","long":"43.7666667"}},{"country":"am","city":"Atsavan","coordinates":{"lat":"40.1377778","long":"44.6522222"}},{"country":"am","city":"Atsavan","coordinates":{"lat":"39.4627778","long":"45.9730556"}},{"country":"am","city":"Atsik","coordinates":{"lat":"40.1641667","long":"43.9408333"}},{"country":"am","city":"Atsik","coordinates":{"lat":"40.8475","long":"43.8741667"}},{"country":"am","city":"Avagabinaper","coordinates":{"lat":"40.785","long":"45.2911111"}},{"country":"am","city":"Avan-Arrinj","coordinates":{"lat":"40.2225","long":"44.5702778"}},{"country":"am","city":"Avan","coordinates":{"lat":"40.3333333","long":"44.1694444"}},{"country":"am","city":"Avan","coordinates":{"lat":"40.215","long":"44.5786111"}},{"country":"am","city":"Avan Vardgesi","coordinates":{"lat":"40.1727778","long":"44.2925"}},{"country":"am","city":"Avazak","coordinates":{"lat":"40.4058333","long":"44.5922222"}},{"country":"am","city":"Avazan","coordinates":{"lat":"40.3","long":"45.7"}},{"country":"am","city":"Avdalagalu","coordinates":{"lat":"40.1377778","long":"45.3291667"}},{"country":"am","city":"Avdalar","coordinates":{"lat":"40.1377778","long":"44.6522222"}},{"country":"am","city":"Avdibek","coordinates":{"lat":"40.7986111","long":"44.1072222"}},{"country":"am","city":"Avgeat","coordinates":{"lat":"41.0191667","long":"44.6213889"}},{"country":"am","city":"Avsarlu","coordinates":{"lat":"39.1330556","long":"46.26"}},{"country":"am","city":"Avshar","coordinates":{"lat":"39.8405556","long":"44.6836111"}},{"country":"am","city":"Avshen","coordinates":{"lat":"40.7258333","long":"44.2916667"}},{"country":"am","city":"Avtona","coordinates":{"lat":"40.3833333","long":"44.05"}},{"country":"am","city":"Axpradzor","coordinates":{"lat":"40.1","long":"45.65"}},{"country":"am","city":"Ayar","coordinates":{"lat":"39.7363889","long":"45.3455556"}},{"country":"am","city":"Ayarlu","coordinates":{"lat":"40.2633333","long":"44.2636111"}},{"country":"am","city":"Ayasasi","coordinates":{"lat":"39.9041667","long":"45.44"}},{"country":"am","city":"Ayaslu","coordinates":{"lat":"40.0030556","long":"44.5575"}},{"country":"am","city":"Aydarbek","coordinates":{"lat":"41.0972222","long":"44.4008333"}},{"country":"am","city":"Aydarli","coordinates":{"lat":"40.7833333","long":"44.3833333"}},{"country":"am","city":"Aygabats","coordinates":{"lat":"40.7","long":"43.9"}},{"country":"am","city":"Aygavan","coordinates":{"lat":"39.8647222","long":"44.6702778"}},{"country":"am","city":"Aygeat","coordinates":{"lat":"41.0161111","long":"44.5952778"}},{"country":"am","city":"Aygedzor","coordinates":{"lat":"39.9458333","long":"44.6088889"}},{"country":"am","city":"Aygedzor","coordinates":{"lat":"39.4627778","long":"46.4152778"}},{"country":"am","city":"Aygedzor","coordinates":{"lat":"40.8255556","long":"45.5408333"}},{"country":"am","city":"Aygehat","coordinates":{"lat":"41.0161111","long":"44.5952778"}},{"country":"am","city":"Aygehovit","coordinates":{"lat":"40.9744444","long":"45.2519444"}},{"country":"am","city":"Aygek","coordinates":{"lat":"40.1886111","long":"44.3833333"}},{"country":"am","city":"Aygeovit","coordinates":{"lat":"40.9744444","long":"45.2519444"}},{"country":"am","city":"Aygepar","coordinates":{"lat":"40.9419444","long":"45.4622222"}},{"country":"am","city":"Aygepat","coordinates":{"lat":"39.95","long":"44.6"}},{"country":"am","city":"Aygerlich","coordinates":{"lat":"40.1430556","long":"44.1483333"}},{"country":"am","city":"Aygeshat","coordinates":{"lat":"40.2355556","long":"44.2866667"}},{"country":"am","city":"Aygeshat","coordinates":{"lat":"40.0666667","long":"44.0666667"}},{"country":"am","city":"Aygestan","coordinates":{"lat":"40.0030556","long":"44.5575"}},{"country":"am","city":"Aygezard","coordinates":{"lat":"39.9458333","long":"44.6088889"}},{"country":"am","city":"Aygut","coordinates":{"lat":"40.6841667","long":"45.1730556"}},{"country":"am","city":"Aykadzor","coordinates":{"lat":"40.5377778","long":"43.6608333"}},{"country":"am","city":"Aykasar","coordinates":{"lat":"40.6","long":"43.8833333"}},{"country":"am","city":"Aykashen","coordinates":{"lat":"40.0727778","long":"44.3069444"}},{"country":"am","city":"Aykavan","coordinates":{"lat":"40.0833333","long":"44.05"}},{"country":"am","city":"Aykavan","coordinates":{"lat":"40.7558333","long":"43.77"}},{"country":"am","city":"Aynadzor","coordinates":{"lat":"39.7836111","long":"45.2280556"}},{"country":"am","city":"Aynali","coordinates":{"lat":"40.3666667","long":"43.9666667"}},{"country":"am","city":"Aynt'ap'","coordinates":{"lat":"40.0986111","long":"44.4680556"}},{"country":"am","city":"Ayravank'","coordinates":{"lat":"40.4344444","long":"45.0969444"}},{"country":"am","city":"Ayrenyats","coordinates":{"lat":"40.6327778","long":"43.8705556"}},{"country":"am","city":"Ayrivan","coordinates":{"lat":"40.4344444","long":"45.0969444"}},{"country":"am","city":"Ayrivan","coordinates":{"lat":"40.1811111","long":"44.5136111"}},{"country":"am","city":"Ayrk'","coordinates":{"lat":"40.1263889","long":"45.7911111"}},{"country":"am","city":"Ayrum","coordinates":{"lat":"41.195","long":"44.8925"}},{"country":"am","city":"Ayrum","coordinates":{"lat":"41.1716667","long":"44.8191667"}},{"country":"am","city":"Aysasi","coordinates":{"lat":"39.9041667","long":"45.44"}},{"country":"am","city":"Aysori Dvin","coordinates":{"lat":"40.0252778","long":"44.5908333"}},{"country":"am","city":"Aytag","coordinates":{"lat":"40.1808333","long":"44.2297222"}},{"country":"am","city":"Aytakh","coordinates":{"lat":"40.1808333","long":"44.2297222"}},{"country":"am","city":"Azad","coordinates":{"lat":"40.1833333","long":"45.8666667"}},{"country":"am","city":"Azatamut","coordinates":{"lat":"40.9758333","long":"45.1980556"}},{"country":"am","city":"Azatan","coordinates":{"lat":"40.7238889","long":"43.8205556"}},{"country":"am","city":"Azatashen-Alighuli","coordinates":{"lat":"39.4858333","long":"46.4197222"}},{"country":"am","city":"Azatashen","coordinates":{"lat":"40.135","long":"44.415"}},{"country":"am","city":"Azatavan","coordinates":{"lat":"39.9833333","long":"44.5"}},{"country":"am","city":"Azatavan","coordinates":{"lat":"40.1333333","long":"44.0666667"}},{"country":"am","city":"Azat","coordinates":{"lat":"40.1833333","long":"45.8666667"}},{"country":"am","city":"Azatek","coordinates":{"lat":"39.65","long":"45.4383333"}},{"country":"am","city":"Azeri","coordinates":{"lat":"39.7188889","long":"45.6483333"}},{"country":"am","city":"Azizbekov","coordinates":{"lat":"40.9286111","long":"43.7491667"}},{"country":"am","city":"Azizbekov","coordinates":{"lat":"39.6372222","long":"45.5086111"}},{"country":"am","city":"Azizkend","coordinates":{"lat":"39.95","long":"44.95"}},{"country":"am","city":"Azizlu","coordinates":{"lat":"40.15","long":"45.8666667"}},{"country":"am","city":"Aznvadzor","coordinates":{"lat":"40.8769444","long":"44.4169444"}},{"country":"am","city":"Babadzhan","coordinates":{"lat":"40.4166667","long":"45.4833333"}},{"country":"am","city":"Babajan","coordinates":{"lat":"40.4166667","long":"45.4833333"}},{"country":"am","city":"Babakishi","coordinates":{"lat":"40.4552778","long":"44.5205556"}},{"country":"am","city":"Baburli","coordinates":{"lat":"40.6","long":"43.7333333"}},{"country":"am","city":"Badal","coordinates":{"lat":"40.0902778","long":"44.1625"}},{"country":"am","city":"Badzhogli","coordinates":{"lat":"40.7558333","long":"43.77"}},{"country":"am","city":"Baganis","coordinates":{"lat":"41.1166667","long":"45.0666667"}},{"country":"am","city":"Bagaran","coordinates":{"lat":"40.1494444","long":"43.6927778"}},{"country":"am","city":"Bagar","coordinates":{"lat":"40.2833333","long":"45.7333333"}},{"country":"am","city":"Bagarlu","coordinates":{"lat":"39.2208333","long":"46.2202778"}},{"country":"am","city":"Baghramian","coordinates":{"lat":"39.9766667","long":"44.5194444"}},{"country":"am","city":"Baghramyan","coordinates":{"lat":"39.9766667","long":"44.5194444"}},{"country":"am","city":"Baghramyan","coordinates":{"lat":"40.1908333","long":"43.8494444"}},{"country":"am","city":"Bagramyan","coordinates":{"lat":"39.9766667","long":"44.5194444"}},{"country":"am","city":"Bagramyan","coordinates":{"lat":"40.1933333","long":"44.3686111"}},{"country":"am","city":"Bagratashen","coordinates":{"lat":"41.2458333","long":"44.8211111"}},{"country":"am","city":"Bagravan","coordinates":{"lat":"40.4802778","long":"43.6708333"}},{"country":"am","city":"Bahar","coordinates":{"lat":"40.2833333","long":"45.7833333"}},{"country":"am","city":"Baharlu","coordinates":{"lat":"39.2208333","long":"46.2202778"}},{"country":"am","city":"Bakavank","coordinates":{"lat":"39.2455556","long":"46.1077778"}},{"country":"am","city":"Bakhchalar","coordinates":{"lat":"40.1333333","long":"43.6666667"}},{"country":"am","city":"Balahovit","coordinates":{"lat":"40.2536111","long":"44.6038889"}},{"country":"am","city":"Balak'","coordinates":{"lat":"39.54","long":"45.9388889"}},{"country":"am","city":"Balakend","coordinates":{"lat":"41.1833333","long":"45.0333333"}},{"country":"am","city":"Balaovit","coordinates":{"lat":"40.2536111","long":"44.6038889"}},{"country":"am","city":"Balikli","coordinates":{"lat":"41.0927778","long":"43.6597222"}},{"country":"am","city":"Balykhli","coordinates":{"lat":"41.0927778","long":"43.6597222"}},{"country":"am","city":"Balykhly","coordinates":{"lat":"41.0927778","long":"43.6597222"}},{"country":"am","city":"Bambakashat","coordinates":{"lat":"40.1144444","long":"44.0122222"}},{"country":"am","city":"Bambakavan","coordinates":{"lat":"40.0161111","long":"44.5186111"}},{"country":"am","city":"Bandivan","coordinates":{"lat":"40.9561111","long":"43.8030556"}},{"country":"am","city":"Barabat'um","coordinates":{"lat":"39.2108333","long":"46.4155556"}},{"country":"am","city":"Barana","coordinates":{"lat":"41.1725","long":"44.9936111"}},{"country":"am","city":"Baran","coordinates":{"lat":"41.1725","long":"44.9936111"}},{"country":"am","city":"Barbatum","coordinates":{"lat":"39.2108333","long":"46.4155556"}},{"country":"am","city":"Bardidzor","coordinates":{"lat":"40.8102778","long":"45.1075"}},{"country":"am","city":"Bardzrashen","coordinates":{"lat":"40.0852778","long":"44.5786111"}},{"country":"am","city":"Bardzravan","coordinates":{"lat":"39.3977778","long":"46.3297222"}},{"country":"am","city":"Bardzruni","coordinates":{"lat":"39.5208333","long":"45.4822222"}},{"country":"am","city":"Barekamavan","coordinates":{"lat":"41.1791667","long":"45.1097222"}},{"country":"am","city":"Barepat","coordinates":{"lat":"40.6666667","long":"45.1166667"}},{"country":"am","city":"Bariabad","coordinates":{"lat":"40.6666667","long":"45.1166667"}},{"country":"am","city":"Bartsrashen","coordinates":{"lat":"40.0852778","long":"44.5786111"}},{"country":"am","city":"Bartsrashen","coordinates":{"lat":"40.6","long":"43.7333333"}},{"country":"am","city":"Bartsravan","coordinates":{"lat":"39.3977778","long":"46.3297222"}},{"country":"am","city":"Bartsruni","coordinates":{"lat":"39.5208333","long":"45.4822222"}},{"country":"am","city":"Basargech'ar","coordinates":{"lat":"40.1805556","long":"45.7283333"}},{"country":"am","city":"Bash Abaran","coordinates":{"lat":"40.5961111","long":"44.3536111"}},{"country":"am","city":"Bash Aparan","coordinates":{"lat":"40.5961111","long":"44.3536111"}},{"country":"am","city":"Bash Gyarni","coordinates":{"lat":"40.1194444","long":"44.7230556"}},{"country":"am","city":"Bashgyukh","coordinates":{"lat":"40.2691667","long":"44.6836111"}},{"country":"am","city":"Bashgyukh","coordinates":{"lat":"40.6252778","long":"44.0202778"}},{"country":"am","city":"Bashkend","coordinates":{"lat":"40.2583333","long":"45.1375"}},{"country":"am","city":"Bashkend","coordinates":{"lat":"39.7938889","long":"45.3633333"}},{"country":"am","city":"Bashnalu","coordinates":{"lat":"39.9766667","long":"44.5194444"}},{"country":"am","city":"Batikyan","coordinates":{"lat":"40.3269444","long":"45.1063889"}},{"country":"am","city":"Bavra","coordinates":{"lat":"41.1275","long":"43.7758333"}},{"country":"am","city":"Bayandur","coordinates":{"lat":"40.7008333","long":"43.7730556"}},{"country":"am","city":"Bayandur","coordinates":{"lat":"39.6033333","long":"46.3680556"}},{"country":"am","city":"Bayburd","coordinates":{"lat":"40.1","long":"44.7833333"}},{"country":"am","city":"Baydash","coordinates":{"lat":"39.2005556","long":"46.3711111"}},{"country":"am","city":"Baykht'ash","coordinates":{"lat":"39.2005556","long":"46.3711111"}},{"country":"am","city":"Baysuz","coordinates":{"lat":"40.3608333","long":"44.0552778"}},{"country":"am","city":"Baysyz","coordinates":{"lat":"40.3608333","long":"44.0552778"}},{"country":"am","city":"Baytar","coordinates":{"lat":"40.9666667","long":"43.8166667"}},{"country":"am","city":"Bazarchay","coordinates":{"lat":"39.6680556","long":"45.8097222"}},{"country":"am","city":"Bazardzhug","coordinates":{"lat":"40.4622222","long":"44.3736111"}},{"country":"am","city":"Bazirkhana","coordinates":{"lat":"40.5155556","long":"43.8133333"}},{"country":"am","city":"Bazmakhpyur","coordinates":{"lat":"40.3347222","long":"44.3102778"}},{"country":"am","city":"Bazmavan","coordinates":{"lat":"40.3211111","long":"44.5797222"}},{"country":"am","city":"Bazum","coordinates":{"lat":"40.8680556","long":"44.4455556"}},{"country":"am","city":"Bebdash","coordinates":{"lat":"39.2005556","long":"46.3711111"}},{"country":"am","city":"Bedzhazlu","coordinates":{"lat":"39.9588889","long":"44.5591667"}},{"country":"am","city":"Bek'dash","coordinates":{"lat":"39.2005556","long":"46.3711111"}},{"country":"am","city":"Bekh","coordinates":{"lat":"39.2005556","long":"46.3711111"}},{"country":"am","city":"Bekyand","coordinates":{"lat":"40.8372222","long":"44.1091667"}},{"country":"am","city":"Bendik","coordinates":{"lat":"41.1575","long":"44.7086111"}},{"country":"am","city":"Beniamin","coordinates":{"lat":"40.6833333","long":"43.85"}},{"country":"am","city":"Berdashen","coordinates":{"lat":"41.0536111","long":"43.6688889"}},{"country":"am","city":"Berdavan","coordinates":{"lat":"41.2027778","long":"45.0033333"}},{"country":"am","city":"Berd","coordinates":{"lat":"40.8808333","long":"45.3916667"}},{"country":"am","city":"Berdkunk'","coordinates":{"lat":"40.45","long":"45.0925"}},{"country":"am","city":"Berkanush","coordinates":{"lat":"39.9833333","long":"44.5166667"}},{"country":"am","city":"Berkarat","coordinates":{"lat":"40.6813889","long":"44.1688889"}},{"country":"am","city":"Berk'arrat","coordinates":{"lat":"40.6813889","long":"44.1688889"}},{"country":"am","city":"Berkashat","coordinates":{"lat":"40.05","long":"43.9166667"}},{"country":"am","city":"Berrdagyugh","coordinates":{"lat":"40.8808333","long":"45.3916667"}},{"country":"am","city":"Berrdgyugh","coordinates":{"lat":"40.8808333","long":"45.3916667"}},{"country":"am","city":"Bert","coordinates":{"lat":"40.8808333","long":"45.3916667"}},{"country":"am","city":"Beyuk-Vedi","coordinates":{"lat":"39.9105556","long":"44.7277778"}},{"country":"am","city":"Birali","coordinates":{"lat":"39.8333333","long":"44.9666667"}},{"country":"am","city":"Biurakan","coordinates":{"lat":"40.3413889","long":"44.2736111"}},{"country":"am","city":"Biyuk-Vedi","coordinates":{"lat":"39.9105556","long":"44.7277778"}},{"country":"am","city":"Bjni","coordinates":{"lat":"40.4594444","long":"44.6486111"}},{"country":"am","city":"Bjurakan","coordinates":{"lat":"40.3413889","long":"44.2736111"}},{"country":"am","city":"Blagodarnoye","coordinates":{"lat":"41.0833333","long":"44.1833333"}},{"country":"am","city":"Blkher","coordinates":{"lat":"40.4861111","long":"44.3825"}},{"country":"am","city":"Bnunik'","coordinates":{"lat":"39.4444444","long":"46.0058333"}},{"country":"am","city":"Bnunis","coordinates":{"lat":"39.4444444","long":"46.0058333"}},{"country":"am","city":"Bogazkyasan","coordinates":{"lat":"40.5666667","long":"43.8666667"}},{"country":"am","city":"Bogdanovka","coordinates":{"lat":"41.1880556","long":"44.3272222"}},{"country":"am","city":"Bogutlu","coordinates":{"lat":"40.2983333","long":"43.7541667"}},{"country":"am","city":"Boloraberd","coordinates":{"lat":"39.6683333","long":"45.3444444"}},{"country":"am","city":"Bol'shaya Mazra","coordinates":{"lat":"40.2186111","long":"45.7694444"}},{"country":"am","city":"Bol'shaya Shishtapa","coordinates":{"lat":"41.0491667","long":"43.8233333"}},{"country":"am","city":"Bol'shaya Zeyva","coordinates":{"lat":"40.1297222","long":"44.2244444"}},{"country":"am","city":"Bol'shiye Demurchi","coordinates":{"lat":"40.0947222","long":"44.3894444"}},{"country":"am","city":"Bol'shoy Dzhamushli","coordinates":{"lat":"40.6813889","long":"44.2902778"}},{"country":"am","city":"Bol'shoy Gilanlar","coordinates":{"lat":"40.1","long":"44.8136111"}},{"country":"am","city":"Bol'shoy Mantash","coordinates":{"lat":"40.6494444","long":"44.0508333"}},{"country":"am","city":"Bol'shoy Tapakey","coordinates":{"lat":"41.0536111","long":"43.6688889"}},{"country":"am","city":"Borisovka","coordinates":{"lat":"39.6541667","long":"45.8305556"}},{"country":"am","city":"Bozdogan","coordinates":{"lat":"40.5561111","long":"43.7208333"}},{"country":"am","city":"Bozekhush","coordinates":{"lat":"40.9927778","long":"43.9388889"}},{"country":"am","city":"Bozigekh","coordinates":{"lat":"40.7380556","long":"44.6875"}},{"country":"am","city":"Brnakot","coordinates":{"lat":"39.4969444","long":"45.9730556"}},{"country":"am","city":"Brrat'umb","coordinates":{"lat":"39.2108333","long":"46.4155556"}},{"country":"am","city":"Brrnakot'","coordinates":{"lat":"39.4969444","long":"45.9730556"}},{"country":"am","city":"Brrun","coordinates":{"lat":"39.5338889","long":"46.3030556"}},{"country":"am","city":"Brun","coordinates":{"lat":"39.5338889","long":"46.3030556"}},{"country":"am","city":"Bugdashen","coordinates":{"lat":"40.4802778","long":"43.6708333"}},{"country":"am","city":"Bulagli","coordinates":{"lat":"40.0236111","long":"44.4244444"}},{"country":"am","city":"Bulakhlar","coordinates":{"lat":"39.7352778","long":"45.5377778"}},{"country":"am","city":"Bulakhly","coordinates":{"lat":"40.0236111","long":"44.4244444"}},{"country":"am","city":"Bununis","coordinates":{"lat":"39.4444444","long":"46.0058333"}},{"country":"am","city":"Burakan","coordinates":{"lat":"40.3413889","long":"44.2736111"}},{"country":"am","city":"Burastan","coordinates":{"lat":"39.9833333","long":"44.5"}},{"country":"am","city":"Buravet","coordinates":{"lat":"40.3666667","long":"44.3333333"}},{"country":"am","city":"Buzhakan","coordinates":{"lat":"40.4552778","long":"44.5205556"}},{"country":"am","city":"Byl Mazra","coordinates":{"lat":"39.1352778","long":"46.2066667"}},{"country":"am","city":"Byurakan","coordinates":{"lat":"40.3413889","long":"44.2736111"}},{"country":"am","city":"Byuravan","coordinates":{"lat":"40.0161111","long":"44.5186111"}},{"country":"am","city":"Byuregavan","coordinates":{"lat":"40.3147222","long":"44.5936111"}},{"country":"am","city":"Byureghavan","coordinates":{"lat":"40.3147222","long":"44.5936111"}},{"country":"am","city":"Bzhni","coordinates":{"lat":"40.4594444","long":"44.6486111"}},{"country":"am","city":"Bzovan","coordinates":{"lat":"40.0","long":"44.5666667"}},{"country":"am","city":"Bzovdal","coordinates":{"lat":"40.8680556","long":"44.4455556"}},{"country":"am","city":"Chabukhly","coordinates":{"lat":"40.6330556","long":"44.9522222"}},{"country":"am","city":"Chakaten","coordinates":{"lat":"39.1444444","long":"46.4402778"}},{"country":"am","city":"Chakhmakh","coordinates":{"lat":"40.9","long":"43.7"}},{"country":"am","city":"Chakhmakhly","coordinates":{"lat":"41.0194444","long":"45.2519444"}},{"country":"am","city":"Chakhrlu","coordinates":{"lat":"40.1722222","long":"45.6886111"}},{"country":"am","city":"Chakhyrlu","coordinates":{"lat":"40.1722222","long":"45.6886111"}},{"country":"am","city":"Chakidyn","coordinates":{"lat":"39.1444444","long":"46.4402778"}},{"country":"am","city":"Chalab","coordinates":{"lat":"40.915","long":"43.7719444"}},{"country":"am","city":"Chalabi","coordinates":{"lat":"40.8255556","long":"45.5261111"}},{"country":"am","city":"Chambarak","coordinates":{"lat":"40.5952778","long":"45.3475"}},{"country":"am","city":"Chamrlu","coordinates":{"lat":"40.5333333","long":"44.4166667"}},{"country":"am","city":"Chamyrlu","coordinates":{"lat":"40.5333333","long":"44.4166667"}},{"country":"am","city":"Chanakhchi","coordinates":{"lat":"39.8094444","long":"45.0511111"}},{"country":"am","city":"Ch'anakhch'i","coordinates":{"lat":"39.2833333","long":"46.3833333"}},{"country":"am","city":"Changli","coordinates":{"lat":"40.02","long":"44.8363889"}},{"country":"am","city":"Chapin","coordinates":{"lat":"39.2669444","long":"46.4580556"}},{"country":"am","city":"Ch'apni","coordinates":{"lat":"39.2669444","long":"46.4580556"}},{"country":"am","city":"Ch'arants'avan","coordinates":{"lat":"40.4097222","long":"44.6430556"}},{"country":"am","city":"Charbakh","coordinates":{"lat":"40.1388889","long":"44.4502778"}},{"country":"am","city":"Ch'arents'avan","coordinates":{"lat":"40.4097222","long":"44.6430556"}},{"country":"am","city":"Chatkran","coordinates":{"lat":"40.2344444","long":"44.7269444"}},{"country":"am","city":"Chaybasar","coordinates":{"lat":"41.0466667","long":"43.7769444"}},{"country":"am","city":"Chaykend","coordinates":{"lat":"40.6863889","long":"45.1263889"}},{"country":"am","city":"Ch'ayk'end","coordinates":{"lat":"39.2280556","long":"46.1291667"}},{"country":"am","city":"Chaykend","coordinates":{"lat":"39.6966667","long":"45.5594444"}},{"country":"am","city":"Chibukhchi","coordinates":{"lat":"40.0516667","long":"44.1905556"}},{"country":"am","city":"Chibukhly","coordinates":{"lat":"40.6330556","long":"44.9522222"}},{"country":"am","city":"Chichakli","coordinates":{"lat":"40.1266667","long":"45.6158333"}},{"country":"am","city":"Chiftali","coordinates":{"lat":"41.0211111","long":"43.9036111"}},{"country":"am","city":"Chigdamal","coordinates":{"lat":"40.8613889","long":"44.2727778"}},{"country":"am","city":"Chigdamlu","coordinates":{"lat":"39.9833333","long":"44.5"}},{"country":"am","city":"Chikdamal","coordinates":{"lat":"40.8613889","long":"44.2727778"}},{"country":"am","city":"Chikdamlu","coordinates":{"lat":"39.9833333","long":"44.5"}},{"country":"am","city":"Chimankend","coordinates":{"lat":"39.9166667","long":"44.8166667"}},{"country":"am","city":"Ch'inari","coordinates":{"lat":"40.8497222","long":"45.5719444"}},{"country":"am","city":"Ch'inch'in","coordinates":{"lat":"40.9116667","long":"45.3541667"}},{"country":"am","city":"Ch'invinli","coordinates":{"lat":"41.0891667","long":"43.5613889"}},{"country":"am","city":"Chirakhlu","coordinates":{"lat":"39.6880556","long":"45.6005556"}},{"country":"am","city":"Chirchir","coordinates":{"lat":"40.5561111","long":"44.9111111"}},{"country":"am","city":"Chirchiri","coordinates":{"lat":"40.8175","long":"45.1341667"}},{"country":"am","city":"Chirish","coordinates":{"lat":"39.2669444","long":"46.135"}},{"country":"am","city":"Chirpili","coordinates":{"lat":"40.55","long":"43.65"}},{"country":"am","city":"Ch'iva","coordinates":{"lat":"39.7672222","long":"45.1408333"}},{"country":"am","city":"Chivinli","coordinates":{"lat":"41.0891667","long":"43.5613889"}},{"country":"am","city":"Chizikhlar","coordinates":{"lat":"40.9480556","long":"43.8561111"}},{"country":"am","city":"Ch'kalov","coordinates":{"lat":"40.9344444","long":"44.6533333"}},{"country":"am","city":"Ch'kalovka","coordinates":{"lat":"40.5075","long":"44.9588889"}},{"country":"am","city":"Chknag","coordinates":{"lat":"40.5841667","long":"44.4338889"}},{"country":"am","city":"Chknakh","coordinates":{"lat":"40.5841667","long":"44.4338889"}},{"country":"am","city":"Chlokhan","coordinates":{"lat":"40.6833333","long":"43.85"}},{"country":"am","city":"Chobankara","coordinates":{"lat":"40.1158333","long":"44.3194444"}},{"country":"am","city":"Ch'obanlu","coordinates":{"lat":"39.2666667","long":"46.3666667"}},{"country":"am","city":"Chobanmaz","coordinates":{"lat":"40.7258333","long":"44.2916667"}},{"country":"am","city":"Chochkan","coordinates":{"lat":"41.1861111","long":"44.8313889"}},{"country":"am","city":"Choentsavan","coordinates":{"lat":"40.4097222","long":"44.6430556"}},{"country":"am","city":"Ch'orat'an","coordinates":{"lat":"40.8611111","long":"45.48"}},{"country":"am","city":"Chorlit","coordinates":{"lat":"40.95","long":"43.9166667"}},{"country":"am","city":"Chorlu","coordinates":{"lat":"40.95","long":"43.9166667"}},{"country":"am","city":"Chorort Gyukh","coordinates":{"lat":"40.1863889","long":"44.4238889"}},{"country":"am","city":"Chotur","coordinates":{"lat":"40.7725","long":"44.2191667"}},{"country":"am","city":"Chrakhli","coordinates":{"lat":"40.7461111","long":"44.0883333"}},{"country":"am","city":"Chubukhly","coordinates":{"lat":"40.6330556","long":"44.9522222"}},{"country":"am","city":"Chubuliki","coordinates":{"lat":"40.6330556","long":"44.9522222"}},{"country":"am","city":"Chullu","coordinates":{"lat":"39.2733333","long":"46.4138889"}},{"country":"am","city":"Dadakishlag","coordinates":{"lat":"40.6136111","long":"44.5941667"}},{"country":"am","city":"Dada-Kishlyag","coordinates":{"lat":"40.6136111","long":"44.5941667"}},{"country":"am","city":"Dadakyashlag","coordinates":{"lat":"40.6136111","long":"44.5941667"}},{"country":"am","city":"Dadalu","coordinates":{"lat":"40.4","long":"43.95"}},{"country":"am","city":"Dagarli","coordinates":{"lat":"40.7333333","long":"43.7833333"}},{"country":"am","city":"Dailakhlu","coordinates":{"lat":"39.7272222","long":"45.4938889"}},{"country":"am","city":"Dalar","coordinates":{"lat":"39.9669444","long":"44.5363889"}},{"country":"am","city":"Dalarik","coordinates":{"lat":"40.2183333","long":"43.8602778"}},{"country":"am","city":"Dalikardash","coordinates":{"lat":"40.2891667","long":"45.1341667"}},{"country":"am","city":"Dalikdash","coordinates":{"lat":"40.1677778","long":"45.1991667"}},{"country":"am","city":"Dallaklu","coordinates":{"lat":"40.3116667","long":"44.7488889"}},{"country":"am","city":"Dalular","coordinates":{"lat":"39.9669444","long":"44.5363889"}},{"country":"am","city":"Danagirmaz","coordinates":{"lat":"40.6216667","long":"44.2991667"}},{"country":"am","city":"Danushavan","coordinates":{"lat":"41.0161111","long":"44.5952778"}},{"country":"am","city":"Darabas","coordinates":{"lat":"39.44","long":"46.1222222"}},{"country":"am","city":"Darabaz","coordinates":{"lat":"39.44","long":"46.1222222"}},{"country":"am","city":"Darachichag","coordinates":{"lat":"40.5386111","long":"44.7113889"}},{"country":"am","city":"Darach'iman","coordinates":{"lat":"39.2047222","long":"46.4813889"}},{"country":"am","city":"Dara","coordinates":{"lat":"40.3666667","long":"45.5666667"}},{"country":"am","city":"Daragyukh","coordinates":{"lat":"41.1611111","long":"43.8844444"}},{"country":"am","city":"Darakend","coordinates":{"lat":"40.9463889","long":"44.1263889"}},{"country":"am","city":"Darakend","coordinates":{"lat":"39.6075","long":"45.6072222"}},{"country":"am","city":"Darakert","coordinates":{"lat":"40.1058333","long":"44.4138889"}},{"country":"am","city":"Darakey","coordinates":{"lat":"41.1611111","long":"43.8844444"}},{"country":"am","city":"Darakoy","coordinates":{"lat":"41.1611111","long":"43.8844444"}},{"country":"am","city":"Daranak","coordinates":{"lat":"40.3666667","long":"45.5666667"}},{"country":"am","city":"Darapas","coordinates":{"lat":"39.44","long":"46.1222222"}},{"country":"am","city":"Darband","coordinates":{"lat":"40.8666667","long":"43.8833333"}},{"country":"am","city":"Darbas","coordinates":{"lat":"40.8380556","long":"44.4233333"}},{"country":"am","city":"Darbas","coordinates":{"lat":"39.44","long":"46.1222222"}},{"country":"am","city":"Darb","coordinates":{"lat":"39.7188889","long":"45.6483333"}},{"country":"am","city":"Darbnik","coordinates":{"lat":"40.1069444","long":"44.3763889"}},{"country":"am","city":"Dargalu","coordinates":{"lat":"39.9458333","long":"44.6088889"}},{"country":"am","city":"Dargalu Verkhniy","coordinates":{"lat":"39.95","long":"44.6"}},{"country":"am","city":"Darik","coordinates":{"lat":"41.1227778","long":"43.6730556"}},{"country":"am","city":"Darpas","coordinates":{"lat":"40.8380556","long":"44.4233333"}},{"country":"am","city":"Dash Abaron","coordinates":{"lat":"40.5961111","long":"44.3536111"}},{"country":"am","city":"Dashalty","coordinates":{"lat":"39.7055556","long":"45.4416667"}},{"country":"am","city":"Dashkala","coordinates":{"lat":"40.5436111","long":"43.8277778"}},{"country":"am","city":"Dashkand","coordinates":{"lat":"40.1263889","long":"45.7911111"}},{"country":"am","city":"Dashkend","coordinates":{"lat":"40.1263889","long":"45.7911111"}},{"country":"am","city":"Dashkerpi","coordinates":{"lat":"40.9666667","long":"43.7666667"}},{"country":"am","city":"Dashlu","coordinates":{"lat":"39.9166667","long":"44.75"}},{"country":"am","city":"Dashnoa","coordinates":{"lat":"39.9497222","long":"45.0161111"}},{"country":"am","city":"Dashtadem","coordinates":{"lat":"41.1366667","long":"44.175"}},{"country":"am","city":"Dashtavan","coordinates":{"lat":"40.1016667","long":"44.3905556"}},{"country":"am","city":"Dasht","coordinates":{"lat":"40.2280556","long":"44.3011111"}},{"country":"am","city":"Dastakern","coordinates":{"lat":"39.3683333","long":"46.0366667"}},{"country":"am","city":"Dastakert","coordinates":{"lat":"39.3683333","long":"46.0366667"}},{"country":"am","city":"Dastakyurd","coordinates":{"lat":"39.3683333","long":"46.0366667"}},{"country":"am","city":"Davalinskiy Tsemzavod","coordinates":{"lat":"39.8302778","long":"44.7025"}},{"country":"am","city":"Davalu","coordinates":{"lat":"39.8094444","long":"44.7144444"}},{"country":"am","city":"Davdashen","coordinates":{"lat":"40.3666667","long":"43.9666667"}},{"country":"am","city":"Davidashen","coordinates":{"lat":"40.2158333","long":"44.4811111"}},{"country":"am","city":"David-Bek","coordinates":{"lat":"39.3180556","long":"46.4952778"}},{"country":"am","city":"Davitashen","coordinates":{"lat":"40.2158333","long":"44.4811111"}},{"country":"am","city":"Davit' Bek","coordinates":{"lat":"39.3180556","long":"46.4952778"}},{"country":"am","city":"Davrus","coordinates":{"lat":"39.2955556","long":"46.3597222"}},{"country":"am","city":"Davtashen","coordinates":{"lat":"40.2158333","long":"44.4811111"}},{"country":"am","city":"Daylakhlu","coordinates":{"lat":"39.7272222","long":"45.4938889"}},{"country":"am","city":"Daymadaglu","coordinates":{"lat":"39.2833333","long":"46.3913889"}},{"country":"am","city":"Ddmashen","coordinates":{"lat":"40.5719444","long":"44.8122222"}},{"country":"am","city":"Debedashen","coordinates":{"lat":"41.2333333","long":"44.8166667"}},{"country":"am","city":"Debed","coordinates":{"lat":"40.9175","long":"44.6491667"}},{"country":"am","city":"Debetashen","coordinates":{"lat":"41.2333333","long":"44.8166667"}},{"country":"am","city":"Debet","coordinates":{"lat":"40.9175","long":"44.6491667"}},{"country":"am","city":"Deghtsut","coordinates":{"lat":"40.0263889","long":"44.5488889"}},{"country":"am","city":"Dekhtsut","coordinates":{"lat":"40.0263889","long":"44.5488889"}},{"country":"am","city":"Delijan","coordinates":{"lat":"40.7408333","long":"44.8630556"}},{"country":"am","city":"Delishan","coordinates":{"lat":"40.7408333","long":"44.8630556"}},{"country":"am","city":"Delizhan","coordinates":{"lat":"40.7408333","long":"44.8630556"}},{"country":"am","city":"Demurchi","coordinates":{"lat":"40.0947222","long":"44.3894444"}},{"country":"am","city":"Demurchilar","coordinates":{"lat":"41.2","long":"44.3166667"}},{"country":"am","city":"Derek","coordinates":{"lat":"40.7033333","long":"44.3261111"}},{"country":"am","city":"Dgyr","coordinates":{"lat":"40.3438889","long":"44.2377778"}},{"country":"am","city":"Dian","coordinates":{"lat":"40.3527778","long":"44.0761111"}},{"country":"am","city":"Dilichan","coordinates":{"lat":"40.7408333","long":"44.8630556"}},{"country":"am","city":"Dili","coordinates":{"lat":"40.7408333","long":"44.8630556"}},{"country":"am","city":"Dilijan","coordinates":{"lat":"40.7408333","long":"44.8630556"}},{"country":"am","city":"Dili P'ok'r","coordinates":{"lat":"40.7408333","long":"44.8630556"}},{"country":"am","city":"Dilishan","coordinates":{"lat":"40.7408333","long":"44.8630556"}},{"country":"am","city":"Dilizhan","coordinates":{"lat":"40.7408333","long":"44.8630556"}},{"country":"am","city":"Dimitrov","coordinates":{"lat":"40.0080556","long":"44.4880556"}},{"country":"am","city":"Dirak","coordinates":{"lat":"40.7836111","long":"43.9541667"}},{"country":"am","city":"Diraklar","coordinates":{"lat":"40.7836111","long":"43.9541667"}},{"country":"am","city":"Ditak","coordinates":{"lat":"40.0452778","long":"44.5186111"}},{"country":"am","city":"Ditavan","coordinates":{"lat":"40.9588889","long":"45.2019444"}},{"country":"am","city":"Dits'mayri","coordinates":{"lat":"39.2047222","long":"46.4813889"}},{"country":"am","city":"Dodmashen","coordinates":{"lat":"40.5719444","long":"44.8122222"}},{"country":"am","city":"Doghs","coordinates":{"lat":"40.2227778","long":"44.2716667"}},{"country":"am","city":"Dokhkuz","coordinates":{"lat":"40.0088889","long":"44.5444444"}},{"country":"am","city":"Dokhs","coordinates":{"lat":"40.2227778","long":"44.2716667"}},{"country":"am","city":"Donguzyan","coordinates":{"lat":"40.0925","long":"44.3919444"}},{"country":"am","city":"Dort'ni","coordinates":{"lat":"39.3002778","long":"46.3291667"}},{"country":"am","city":"Dostlu","coordinates":{"lat":"41.1791667","long":"45.1097222"}},{"country":"am","city":"Dostlug","coordinates":{"lat":"40.1197222","long":"44.3775"}},{"country":"am","city":"Dovekh","coordinates":{"lat":"41.1833333","long":"45.0333333"}},{"country":"am","city":"Dovrus","coordinates":{"lat":"39.2955556","long":"46.3597222"}},{"country":"am","city":"Dovruz","coordinates":{"lat":"39.2955556","long":"46.3597222"}},{"country":"am","city":"Dprabak","coordinates":{"lat":"40.6863889","long":"45.1263889"}},{"country":"am","city":"Drakhtik","coordinates":{"lat":"40.5688889","long":"45.2319444"}},{"country":"am","city":"Dsegh","coordinates":{"lat":"40.9633333","long":"44.6516667"}},{"country":"am","city":"Dsekh","coordinates":{"lat":"40.9633333","long":"44.6516667"}},{"country":"am","city":"Duvakh","coordinates":{"lat":"41.1833333","long":"45.0333333"}},{"country":"am","city":"Duzk'end","coordinates":{"lat":"40.7813889","long":"43.8963889"}},{"country":"am","city":"Duzkend","coordinates":{"lat":"41.0508333","long":"43.7491667"}},{"country":"am","city":"Duzk'end Mets","coordinates":{"lat":"40.7813889","long":"43.8963889"}},{"country":"am","city":"Duzkharab","coordinates":{"lat":"41.0094444","long":"43.9227778"}},{"country":"am","city":"Duzk'yand","coordinates":{"lat":"40.7813889","long":"43.8963889"}},{"country":"am","city":"Dvin Armyanskiy","coordinates":{"lat":"40.02","long":"44.5852778"}},{"country":"am","city":"Dvin","coordinates":{"lat":"40.02","long":"44.5852778"}},{"country":"am","city":"Dvoragyukh","coordinates":{"lat":"40.1666667","long":"45.1833333"}},{"country":"am","city":"Dyarrgyarr","coordinates":{"lat":"40.9569444","long":"44.4427778"}},{"country":"am","city":"Dyg","coordinates":{"lat":"39.5547222","long":"46.4758333"}},{"country":"am","city":"Dyolli","coordinates":{"lat":"41.0786111","long":"43.7238889"}},{"country":"am","city":"Dzagidzor","coordinates":{"lat":"40.9866667","long":"44.6558333"}},{"country":"am","city":"Dzhabachalu","coordinates":{"lat":"40.0452778","long":"44.4736111"}},{"country":"am","city":"Dzhadzhur","coordinates":{"lat":"40.8505556","long":"43.9480556"}},{"country":"am","city":"Dzhafarabat","coordinates":{"lat":"40.0433333","long":"43.9447222"}},{"country":"am","city":"Dzhafarapat","coordinates":{"lat":"40.1580556","long":"44.44"}},{"country":"am","city":"Dzhalab","coordinates":{"lat":"40.915","long":"43.7719444"}},{"country":"am","city":"Dzhalalogly","coordinates":{"lat":"41.0075","long":"44.3866667"}},{"country":"am","city":"Dzhamushli","coordinates":{"lat":"40.6813889","long":"44.2902778"}},{"country":"am","city":"Dzhamushlu Bol'shoy","coordinates":{"lat":"40.6813889","long":"44.2902778"}},{"country":"am","city":"Dzhamushlu","coordinates":{"lat":"40.6905556","long":"44.2736111"}},{"country":"am","city":"Dzhanakhmed","coordinates":{"lat":"40.2677778","long":"45.8391667"}},{"country":"am","city":"Dzhanfida","coordinates":{"lat":"40.0455556","long":"44.0208333"}},{"country":"am","city":"Dzhangi","coordinates":{"lat":"40.6961111","long":"44.23"}},{"country":"am","city":"Dzhani","coordinates":{"lat":"39.9063889","long":"45.4997222"}},{"country":"am","city":"Dzhannatlu","coordinates":{"lat":"40.0713889","long":"44.5605556"}},{"country":"am","city":"Dzhararat","coordinates":{"lat":"40.5533333","long":"44.7575"}},{"country":"am","city":"Dzhardzharis","coordinates":{"lat":"40.7033333","long":"44.3261111"}},{"country":"am","city":"Dzharkhech","coordinates":{"lat":"40.7780556","long":"44.9625"}},{"country":"am","city":"Dzharkhedzh","coordinates":{"lat":"40.7780556","long":"44.9625"}},{"country":"am","city":"Dzhelaloglu","coordinates":{"lat":"41.0075","long":"44.3866667"}},{"country":"am","city":"Dzhermuk","coordinates":{"lat":"39.8416667","long":"45.6722222"}},{"country":"am","city":"Dzhibillu","coordinates":{"lat":"39.25","long":"46.5166667"}},{"country":"am","city":"Dzhil","coordinates":{"lat":"40.4544444","long":"45.4536111"}},{"country":"am","city":"Dzhiliza","coordinates":{"lat":"41.2155556","long":"44.6702778"}},{"country":"am","city":"Dzhirmanis","coordinates":{"lat":"39.9561111","long":"45.0533333"}},{"country":"am","city":"Dzhiviskli","coordinates":{"lat":"40.6641667","long":"45.2425"}},{"country":"am","city":"Dzhivrishch'","coordinates":{"lat":"40.1855556","long":"44.5869444"}},{"country":"am","city":"Dzhogaz","coordinates":{"lat":"41.0666667","long":"45.15"}},{"country":"am","city":"Dzhomardlu","coordinates":{"lat":"39.4194444","long":"45.9266667"}},{"country":"am","city":"Dzhoragyukh","coordinates":{"lat":"40.4666667","long":"43.9"}},{"country":"am","city":"Dzhorakhpyur","coordinates":{"lat":"40.205","long":"44.6430556"}},{"country":"am","city":"Dzhraber","coordinates":{"lat":"40.3519444","long":"44.645"}},{"country":"am","city":"Dzhradzor","coordinates":{"lat":"40.915","long":"43.7719444"}},{"country":"am","city":"Dzhraovit","coordinates":{"lat":"40.0452778","long":"44.4736111"}},{"country":"am","city":"Dzhrapi","coordinates":{"lat":"40.55","long":"43.65"}},{"country":"am","city":"Dzhrarat","coordinates":{"lat":"40.0713889","long":"44.2630556"}},{"country":"am","city":"Dzhrarat","coordinates":{"lat":"40.5533333","long":"44.7575"}},{"country":"am","city":"Dzhrarat","coordinates":{"lat":"40.7461111","long":"44.0883333"}},{"country":"am","city":"Dzhrashen","coordinates":{"lat":"40.0833333","long":"44.0166667"}},{"country":"am","city":"Dzhrashen","coordinates":{"lat":"40.7875","long":"44.1972222"}},{"country":"am","city":"Dzhrashen","coordinates":{"lat":"40.0547222","long":"44.5133333"}},{"country":"am","city":"Dzhrvezh","coordinates":{"lat":"40.1855556","long":"44.5869444"}},{"country":"am","city":"Dzhudzhakyand","coordinates":{"lat":"41.1877778","long":"44.1861111"}},{"country":"am","city":"Dzhudzhevan","coordinates":{"lat":"41.1322222","long":"45.0111111"}},{"country":"am","city":"Dzhul","coordinates":{"lat":"39.6575","long":"45.6166667"}},{"country":"am","city":"Dzitankov","coordinates":{"lat":"40.5155556","long":"43.8133333"}},{"country":"am","city":"Dzit'hank'ov","coordinates":{"lat":"40.5155556","long":"43.8133333"}},{"country":"am","city":"Dzitkhankov","coordinates":{"lat":"40.5155556","long":"43.8133333"}},{"country":"am","city":"Dzoraghbyur","coordinates":{"lat":"40.205","long":"44.6430556"}},{"country":"am","city":"Dzoraghp'yur","coordinates":{"lat":"40.205","long":"44.6430556"}},{"country":"am","city":"Dzoraglukh","coordinates":{"lat":"40.5802778","long":"44.4852778"}},{"country":"am","city":"Dzoragyugh","coordinates":{"lat":"40.1752778","long":"45.175"}},{"country":"am","city":"Dzoragyugh","coordinates":{"lat":"40.9516667","long":"44.6052778"}},{"country":"am","city":"Dzoragyukh","coordinates":{"lat":"40.4666667","long":"43.9"}},{"country":"am","city":"Dzoragyukh","coordinates":{"lat":"40.1752778","long":"45.175"}},{"country":"am","city":"Dzoragyukh","coordinates":{"lat":"40.9516667","long":"44.6052778"}},{"country":"am","city":"Dzorakap","coordinates":{"lat":"40.5666667","long":"43.8666667"}},{"country":"am","city":"Dzorakhpyur","coordinates":{"lat":"40.205","long":"44.6430556"}},{"country":"am","city":"Dzoramut","coordinates":{"lat":"41.1997222","long":"44.29"}},{"country":"am","city":"Dzorap","coordinates":{"lat":"40.3163889","long":"44.2536111"}},{"country":"am","city":"Dzorashen","coordinates":{"lat":"40.5666667","long":"43.7833333"}},{"country":"am","city":"Dzorashen","coordinates":{"lat":"39.4858333","long":"46.4197222"}},{"country":"am","city":"Dzorastan","coordinates":{"lat":"39.2686111","long":"46.3563889"}},{"country":"am","city":"Dzoravank'","coordinates":{"lat":"40.7027778","long":"45.1005556"}},{"country":"am","city":"Dzun","coordinates":{"lat":"41.0538889","long":"44.6113889"}},{"country":"am","city":"Dzyunashogh","coordinates":{"lat":"41.1794444","long":"44.1811111"}},{"country":"am","city":"Echmiadzin","coordinates":{"lat":"40.1625","long":"44.3422222"}},{"country":"am","city":"Echmiatsin","coordinates":{"lat":"40.1727778","long":"44.2925"}},{"country":"am","city":"Efendi","coordinates":{"lat":"40.5044444","long":"45.0227778"}},{"country":"am","city":"Efendi","coordinates":{"lat":"40.8475","long":"44.3166667"}},{"country":"am","city":"Eghnajur","coordinates":{"lat":"41.0891667","long":"43.5613889"}},{"country":"am","city":"Ejmiatsin","coordinates":{"lat":"40.1727778","long":"44.2925"}},{"country":"am","city":"Elar","coordinates":{"lat":"40.2691667","long":"44.6244444"}},{"country":"am","city":"Ellar","coordinates":{"lat":"41.1127778","long":"43.5963889"}},{"country":"am","city":"Ellar Oyugi","coordinates":{"lat":"41.1127778","long":"43.5963889"}},{"country":"am","city":"Elmalu","coordinates":{"lat":"39.5661111","long":"45.3769444"}},{"country":"am","city":"Elpin","coordinates":{"lat":"39.8058333","long":"45.1102778"}},{"country":"am","city":"Erandzor","coordinates":{"lat":"38.9572222","long":"46.4597222"}},{"country":"am","city":"Erdapin","coordinates":{"lat":"39.8586111","long":"45.3294444"}},{"country":"am","city":"Erebuni","coordinates":{"lat":"40.1397222","long":"44.5277778"}},{"country":"am","city":"Ereun","coordinates":{"lat":"40.1811111","long":"44.5136111"}},{"country":"am","city":"Erevan","coordinates":{"lat":"40.1811111","long":"44.5136111"}},{"country":"am","city":"Erewan","coordinates":{"lat":"40.1811111","long":"44.5136111"}},{"country":"am","city":"Eridzor","coordinates":{"lat":"40.8333333","long":"45.5333333"}},{"country":"am","city":"Erivan","coordinates":{"lat":"40.1811111","long":"44.5136111"}},{"country":"am","city":"Erizak","coordinates":{"lat":"40.9833333","long":"43.65"}},{"country":"am","city":"Ertich","coordinates":{"lat":"39.7405556","long":"45.2666667"}},{"country":"am","city":"Evdzhilar","coordinates":{"lat":"40.0427778","long":"44.1458333"}},{"country":"am","city":"Evlu","coordinates":{"lat":"41.1997222","long":"44.29"}},{"country":"am","city":"Eylas","coordinates":{"lat":"40.1086111","long":"44.4144444"}},{"country":"am","city":"Fantan","coordinates":{"lat":"40.3941667","long":"44.685"}},{"country":"am","city":"Farukh","coordinates":{"lat":"40.5844444","long":"44.7533333"}},{"country":"am","city":"Ferik","coordinates":{"lat":"40.1863889","long":"44.2094444"}},{"country":"am","city":"Fioletovo","coordinates":{"lat":"40.7247222","long":"44.7138889"}},{"country":"am","city":"Fontan","coordinates":{"lat":"40.3941667","long":"44.685"}},{"country":"am","city":"Franganots","coordinates":{"lat":"40.2463889","long":"44.2725"}},{"country":"am","city":"Gadzhibagir","coordinates":{"lat":"40.6030556","long":"44.3927778"}},{"country":"am","city":"Gadzhi Bagr","coordinates":{"lat":"40.6030556","long":"44.3927778"}},{"country":"am","city":"Gadzhi Bayram","coordinates":{"lat":"40.1333333","long":"43.6666667"}},{"country":"am","city":"Gadzhikara","coordinates":{"lat":"40.2355556","long":"44.2866667"}},{"country":"am","city":"Gadzhikara","coordinates":{"lat":"40.82","long":"44.3972222"}},{"country":"am","city":"Gadzhi-Khalil","coordinates":{"lat":"40.6361111","long":"44.2230556"}},{"country":"am","city":"Gadzhilar","coordinates":{"lat":"40.2008333","long":"44.2772222"}},{"country":"am","city":"Gadzhi Mukhan","coordinates":{"lat":"40.4769444","long":"45.0375"}},{"country":"am","city":"Gadzhi Nazar","coordinates":{"lat":"40.8280556","long":"43.9483333"}},{"country":"am","city":"Gagarin","coordinates":{"lat":"40.5369444","long":"44.8577778"}},{"country":"am","city":"Galavar","coordinates":{"lat":"40.77","long":"44.3841667"}},{"country":"am","city":"Galidzor","coordinates":{"lat":"39.4102778","long":"46.2952778"}},{"country":"am","city":"Gamzachemanskaya","coordinates":{"lat":"40.7380556","long":"44.6875"}},{"country":"am","city":"Gamzachiman","coordinates":{"lat":"40.7380556","long":"44.6875"}},{"country":"am","city":"Gandzak'ar","coordinates":{"lat":"40.84","long":"45.1630556"}},{"country":"am","city":"Gandzak","coordinates":{"lat":"40.3147222","long":"45.1113889"}},{"country":"am","city":"Gargarr","coordinates":{"lat":"40.9569444","long":"44.4427778"}},{"country":"am","city":"Garibdzhanyan","coordinates":{"lat":"40.7461111","long":"43.7969444"}},{"country":"am","city":"Garnarich","coordinates":{"lat":"41.0791667","long":"43.6022222"}},{"country":"am","city":"Garni","coordinates":{"lat":"40.1194444","long":"44.7230556"}},{"country":"am","city":"Garnovit","coordinates":{"lat":"40.4833333","long":"43.95"}},{"country":"am","city":"Garrgarr","coordinates":{"lat":"40.9569444","long":"44.4427778"}},{"country":"am","city":"Garrnarrich","coordinates":{"lat":"41.0791667","long":"43.6022222"}},{"country":"am","city":"Garrni","coordinates":{"lat":"40.1194444","long":"44.7230556"}},{"country":"am","city":"Garzhis","coordinates":{"lat":"39.4333333","long":"46.2216667"}},{"country":"am","city":"Gasankend","coordinates":{"lat":"39.8333333","long":"45.3016667"}},{"country":"am","city":"Gavar","coordinates":{"lat":"40.3588889","long":"45.1266667"}},{"country":"am","city":"Gavarr","coordinates":{"lat":"40.3588889","long":"45.1266667"}},{"country":"am","city":"Gaydarli","coordinates":{"lat":"40.7833333","long":"44.3833333"}},{"country":"am","city":"Gay","coordinates":{"lat":"40.0838889","long":"44.3055556"}},{"country":"am","city":"Gecherlau","coordinates":{"lat":"40.1297222","long":"44.0705556"}},{"country":"am","city":"Gechrlu","coordinates":{"lat":"40.1297222","long":"44.0705556"}},{"country":"am","city":"Gedakbulag","coordinates":{"lat":"40.1638889","long":"45.5722222"}},{"country":"am","city":"Gedaklu","coordinates":{"lat":"39.9661111","long":"44.5333333"}},{"country":"am","city":"Gegamavan","coordinates":{"lat":"40.5619444","long":"44.8827778"}},{"country":"am","city":"Geghadir","coordinates":{"lat":"40.6588889","long":"44.1072222"}},{"country":"am","city":"Geghadir","coordinates":{"lat":"40.1563889","long":"44.6511111"}},{"country":"am","city":"Geghadir","coordinates":{"lat":"40.6847222","long":"44.0238889"}},{"country":"am","city":"Geghahovit","coordinates":{"lat":"40.1005556","long":"45.3041667"}},{"country":"am","city":"Geghak'ar","coordinates":{"lat":"40.1166667","long":"45.6833333"}},{"country":"am","city":"Geghamabak","coordinates":{"lat":"40.1566667","long":"45.8011111"}},{"country":"am","city":"Geghamasar","coordinates":{"lat":"40.3116667","long":"45.68"}},{"country":"am","city":"Geghamavan","coordinates":{"lat":"40.5619444","long":"44.8827778"}},{"country":"am","city":"Geghanist","coordinates":{"lat":"40.1497222","long":"44.4344444"}},{"country":"am","city":"Geghanush","coordinates":{"lat":"39.1688889","long":"46.4169444"}},{"country":"am","city":"Geghard","coordinates":{"lat":"40.1588889","long":"44.7966667"}},{"country":"am","city":"Geghark'unik'","coordinates":{"lat":"40.2583333","long":"45.1375"}},{"country":"am","city":"Gegharot","coordinates":{"lat":"40.7058333","long":"44.2194444"}},{"country":"am","city":"Geghashen","coordinates":{"lat":"40.2344444","long":"44.7269444"}},{"country":"am","city":"Geghavank'","coordinates":{"lat":"39.2169444","long":"46.1902778"}},{"country":"am","city":"Geghi","coordinates":{"lat":"39.22","long":"46.1555556"}},{"country":"am","city":"Gegi","coordinates":{"lat":"39.22","long":"46.1555556"}},{"country":"am","city":"Gekhadir","coordinates":{"lat":"40.6588889","long":"44.1072222"}},{"country":"am","city":"Gekhadir","coordinates":{"lat":"40.1563889","long":"44.6511111"}},{"country":"am","city":"Gekhadir","coordinates":{"lat":"40.6847222","long":"44.0238889"}},{"country":"am","city":"Gekhadzor","coordinates":{"lat":"40.6327778","long":"44.1730556"}},{"country":"am","city":"Gekhakert","coordinates":{"lat":"40.1852778","long":"44.2422222"}},{"country":"am","city":"Gekhanist","coordinates":{"lat":"40.1497222","long":"44.4344444"}},{"country":"am","city":"Gekhanist","coordinates":{"lat":"40.6847222","long":"44.0238889"}},{"country":"am","city":"Gekhanush","coordinates":{"lat":"39.1688889","long":"46.4169444"}},{"country":"am","city":"Gekhard","coordinates":{"lat":"40.1588889","long":"44.7966667"}},{"country":"am","city":"Gekharkuni","coordinates":{"lat":"40.2583333","long":"45.1375"}},{"country":"am","city":"Gekharkunik","coordinates":{"lat":"40.2583333","long":"45.1375"}},{"country":"am","city":"Gekharot","coordinates":{"lat":"40.7058333","long":"44.2194444"}},{"country":"am","city":"Gekhashen","coordinates":{"lat":"40.2344444","long":"44.7269444"}},{"country":"am","city":"Gekhi","coordinates":{"lat":"39.22","long":"46.1555556"}},{"country":"am","city":"Gelaysor","coordinates":{"lat":"40.0633333","long":"44.8147222"}},{"country":"am","city":"Gël","coordinates":{"lat":"40.1636111","long":"45.2277778"}},{"country":"am","city":"Gëlkend","coordinates":{"lat":"40.6841667","long":"45.1730556"}},{"country":"am","city":"Gëlli","coordinates":{"lat":"41.0786111","long":"43.7238889"}},{"country":"am","city":"Gëran","coordinates":{"lat":"40.8955556","long":"44.1991667"}},{"country":"am","city":"Gerger","coordinates":{"lat":"40.9569444","long":"44.4427778"}},{"country":"am","city":"Gerger","coordinates":{"lat":"39.7733333","long":"45.5386111"}},{"country":"am","city":"Gergeri","coordinates":{"lat":"40.9569444","long":"44.4427778"}},{"country":"am","city":"Gerger Russkiy","coordinates":{"lat":"40.9569444","long":"44.4427778"}},{"country":"am","city":"Geryusy","coordinates":{"lat":"39.5077778","long":"46.3386111"}},{"country":"am","city":"Geshin","coordinates":{"lat":"39.8011111","long":"45.1313889"}},{"country":"am","city":"Getahovit","coordinates":{"lat":"40.8958333","long":"45.1313889"}},{"country":"am","city":"Getamech","coordinates":{"lat":"40.275","long":"44.585"}},{"country":"am","city":"Getamej","coordinates":{"lat":"40.275","long":"44.585"}},{"country":"am","city":"Getap'","coordinates":{"lat":"40.3872222","long":"43.6216667"}},{"country":"am","city":"Getap'","coordinates":{"lat":"39.7636111","long":"45.3061111"}},{"country":"am","city":"Getapi","coordinates":{"lat":"40.65","long":"44.0"}},{"country":"am","city":"Getapnia","coordinates":{"lat":"40.1405556","long":"44.4325"}},{"country":"am","city":"Getap'nya","coordinates":{"lat":"40.1405556","long":"44.4325"}},{"country":"am","city":"Getar","coordinates":{"lat":"40.3872222","long":"43.6216667"}},{"country":"am","city":"Getashen","coordinates":{"lat":"40.0380556","long":"44.5638889"}},{"country":"am","city":"Getashen","coordinates":{"lat":"40.0433333","long":"43.9447222"}},{"country":"am","city":"Getashen","coordinates":{"lat":"41.0502778","long":"45.1013889"}},{"country":"am","city":"Getatag","coordinates":{"lat":"39.4247222","long":"46.1213889"}},{"country":"am","city":"Getat'agh","coordinates":{"lat":"39.4247222","long":"46.1213889"}},{"country":"am","city":"Getatakh","coordinates":{"lat":"39.4247222","long":"46.1213889"}},{"country":"am","city":"Getazat","coordinates":{"lat":"40.0380556","long":"44.5638889"}},{"country":"am","city":"Getik","coordinates":{"lat":"40.9166667","long":"44.05"}},{"country":"am","city":"Getik","coordinates":{"lat":"39.6966667","long":"45.5594444"}},{"country":"am","city":"Getk","coordinates":{"lat":"40.7333333","long":"43.7833333"}},{"country":"am","city":"Geyarchin","coordinates":{"lat":"40.75","long":"45.05"}},{"country":"am","city":"Gëygmbet","coordinates":{"lat":"40.1497222","long":"44.4344444"}},{"country":"am","city":"Gëykilisa","coordinates":{"lat":"40.3244444","long":"44.6938889"}},{"country":"am","city":"Gëysu","coordinates":{"lat":"40.3","long":"45.7"}},{"country":"am","city":"Gey Yekhush","coordinates":{"lat":"40.8755556","long":"44.0972222"}},{"country":"am","city":"Gezaldara","coordinates":{"lat":"40.6327778","long":"44.1730556"}},{"country":"am","city":"Gezaldara","coordinates":{"lat":"40.8769444","long":"44.4169444"}},{"country":"am","city":"Gezeldara","coordinates":{"lat":"40.135","long":"45.4363889"}},{"country":"am","city":"Gezlu","coordinates":{"lat":"40.4166667","long":"43.9"}},{"country":"am","city":"Ghabakhlu","coordinates":{"lat":"39.8672222","long":"45.4719444"}},{"country":"am","city":"Ghai-kend","coordinates":{"lat":"39.6966667","long":"45.5594444"}},{"country":"am","city":"Ghalak'yand","coordinates":{"lat":"40.8808333","long":"45.3916667"}},{"country":"am","city":"Ghap'an","coordinates":{"lat":"39.2011111","long":"46.415"}},{"country":"am","city":"Gharabulagh","coordinates":{"lat":"41.0477778","long":"43.5855556"}},{"country":"am","city":"Gharaghaya","coordinates":{"lat":"39.8986111","long":"45.4836111"}},{"country":"am","city":"Gharak'ilisa","coordinates":{"lat":"40.8127778","long":"44.4883333"}},{"country":"am","city":"Gharatgha","coordinates":{"lat":"39.2819444","long":"46.3419444"}},{"country":"am","city":"Gharibjanian","coordinates":{"lat":"40.7461111","long":"43.7969444"}},{"country":"am","city":"Gharibjanyan","coordinates":{"lat":"40.7461111","long":"43.7969444"}},{"country":"am","city":"Ghashka","coordinates":{"lat":"39.8327778","long":"45.0261111"}},{"country":"am","city":"Ghavushugh","coordinates":{"lat":"39.8794444","long":"45.4263889"}},{"country":"am","city":"Ghazanch'i","coordinates":{"lat":"41.0788889","long":"43.8216667"}},{"country":"am","city":"Ghazaravan","coordinates":{"lat":"40.3477778","long":"44.3416667"}},{"country":"am","city":"Ghonjali","coordinates":{"lat":"41.0016667","long":"43.6594444"}},{"country":"am","city":"Ghovshut","coordinates":{"lat":"39.2086111","long":"46.2408333"}},{"country":"am","city":"Ghukasavan","coordinates":{"lat":"40.1261111","long":"44.4177778"}},{"country":"am","city":"Ghukasyan","coordinates":{"lat":"41.0375","long":"43.8580556"}},{"country":"am","city":"Ghurdghulagh","coordinates":{"lat":"39.3427778","long":"46.4338889"}},{"country":"am","city":"Ghursali","coordinates":{"lat":"40.8272222","long":"44.3436111"}},{"country":"am","city":"Ghushch'i","coordinates":{"lat":"39.45","long":"45.9666667"}},{"country":"am","city":"Ghyotur","coordinates":{"lat":"39.7636111","long":"45.3061111"}},{"country":"am","city":"Ghzlgyul","coordinates":{"lat":"39.9041667","long":"45.44"}},{"country":"am","city":"Ghzljugh","coordinates":{"lat":"39.56","long":"46.0436111"}},{"country":"am","city":"Ghzyljugh","coordinates":{"lat":"39.56","long":"46.0436111"}},{"country":"am","city":"Gilanlar","coordinates":{"lat":"40.1","long":"44.8136111"}},{"country":"am","city":"Gimri","coordinates":{"lat":"40.7894444","long":"43.8475"}},{"country":"am","city":"Ginevet","coordinates":{"lat":"40.15","long":"44.3666667"}},{"country":"am","city":"Girt'","coordinates":{"lat":"39.2155556","long":"46.1055556"}},{"country":"am","city":"Gladzor","coordinates":{"lat":"39.7783333","long":"45.3477778"}},{"country":"am","city":"Glamuzh","coordinates":{"lat":"40.3916667","long":"44.6072222"}},{"country":"am","city":"Gnaberd","coordinates":{"lat":"40.0058333","long":"44.5744444"}},{"country":"am","city":"Gndevaz","coordinates":{"lat":"39.7591667","long":"45.6180556"}},{"country":"am","city":"Gnishik","coordinates":{"lat":"39.6558333","long":"45.3"}},{"country":"am","city":"Gogaran","coordinates":{"lat":"40.8955556","long":"44.1991667"}},{"country":"am","city":"Gogavan","coordinates":{"lat":"41.2","long":"44.3166667"}},{"country":"am","city":"Goght'anik","coordinates":{"lat":"39.8672222","long":"45.4719444"}},{"country":"am","city":"Goght'","coordinates":{"lat":"40.1394444","long":"44.7794444"}},{"country":"am","city":"Gokht","coordinates":{"lat":"40.1394444","long":"44.7794444"}},{"country":"am","city":"Golgat","coordinates":{"lat":"40.6847222","long":"44.0238889"}},{"country":"am","city":"Golovino","coordinates":{"lat":"40.7130556","long":"44.8494444"}},{"country":"am","city":"Gomadzor","coordinates":{"lat":"40.5636111","long":"44.9486111"}},{"country":"am","city":"Gomaran","coordinates":{"lat":"39.1819444","long":"46.4138889"}},{"country":"am","city":"Gomer","coordinates":{"lat":"40.8333333","long":"45.55"}},{"country":"am","city":"Gomk'","coordinates":{"lat":"39.6294444","long":"45.5691667"}},{"country":"am","city":"Gomshavar","coordinates":{"lat":"41.1","long":"44.9166667"}},{"country":"am","city":"Gomur","coordinates":{"lat":"39.6294444","long":"45.5691667"}},{"country":"am","city":"Gora Sangyar-Topa","coordinates":{"lat":"40.6755556","long":"44.2444444"}},{"country":"am","city":"Gorayk'","coordinates":{"lat":"39.6680556","long":"45.8097222"}},{"country":"am","city":"Gorbatakh","coordinates":{"lat":"39.8947222","long":"45.3355556"}},{"country":"am","city":"Gorbatekh","coordinates":{"lat":"39.8947222","long":"45.3355556"}},{"country":"am","city":"Goris","coordinates":{"lat":"39.5077778","long":"46.3386111"}},{"country":"am","city":"Gorovan","coordinates":{"lat":"39.9","long":"44.7333333"}},{"country":"am","city":"Gors","coordinates":{"lat":"39.8625","long":"45.2302778"}},{"country":"am","city":"Gosh","coordinates":{"lat":"40.7225","long":"45.0033333"}},{"country":"am","city":"Grampa","coordinates":{"lat":"40.1869444","long":"44.2666667"}},{"country":"am","city":"Griboyedov","coordinates":{"lat":"40.1130556","long":"44.2716667"}},{"country":"am","city":"Gtashen","coordinates":{"lat":"40.9188889","long":"43.7169444"}},{"country":"am","city":"Gudemnis","coordinates":{"lat":"38.9333333","long":"46.1833333"}},{"country":"am","city":"Gugark'","coordinates":{"lat":"40.8072222","long":"44.5380556"}},{"country":"am","city":"Gukarrich","coordinates":{"lat":"40.3116667","long":"45.68"}},{"country":"am","city":"Gukasavan","coordinates":{"lat":"40.1261111","long":"44.4177778"}},{"country":"am","city":"Gukasyan","coordinates":{"lat":"40.9466667","long":"43.7813889"}},{"country":"am","city":"Gulistan","coordinates":{"lat":"39.5441667","long":"45.4166667"}},{"country":"am","city":"Gumri","coordinates":{"lat":"40.7894444","long":"43.8475"}},{"country":"am","city":"Gumry","coordinates":{"lat":"40.7894444","long":"43.8475"}},{"country":"am","city":"Güney","coordinates":{"lat":"40.3416667","long":"45.6083333"}},{"country":"am","city":"Gusanagyugh","coordinates":{"lat":"40.6691667","long":"43.7883333"}},{"country":"am","city":"Gusanagyukh","coordinates":{"lat":"40.6691667","long":"43.7883333"}},{"country":"am","city":"Guseyn Kuli","coordinates":{"lat":"40.1830556","long":"45.8255556"}},{"country":"am","city":"Gushch'i","coordinates":{"lat":"39.45","long":"45.9666667"}},{"country":"am","city":"Gutnikishlag","coordinates":{"lat":"40.6666667","long":"43.9"}},{"country":"am","city":"Gyabur","coordinates":{"lat":"39.6244444","long":"45.5925"}},{"country":"am","city":"Gyabut","coordinates":{"lat":"39.6244444","long":"45.5925"}},{"country":"am","city":"Gyadigvank","coordinates":{"lat":"39.9258333","long":"45.5113889"}},{"country":"am","city":"Gyadikvank","coordinates":{"lat":"39.8986111","long":"45.4836111"}},{"country":"am","city":"Gyadikvank'","coordinates":{"lat":"39.9258333","long":"45.5113889"}},{"country":"am","city":"Gyalto","coordinates":{"lat":"40.3833333","long":"43.7333333"}},{"country":"am","city":"Gyalur","coordinates":{"lat":"39.0613889","long":"46.2758333"}},{"country":"am","city":"Gyamrez","coordinates":{"lat":"40.2333333","long":"44.7"}},{"country":"am","city":"Gyard","coordinates":{"lat":"39.2155556","long":"46.1055556"}},{"country":"am","city":"Gyard Nerk'in","coordinates":{"lat":"39.2155556","long":"46.1055556"}},{"country":"am","city":"Gyart'","coordinates":{"lat":"39.2155556","long":"46.1055556"}},{"country":"am","city":"Gyrad","coordinates":{"lat":"39.2155556","long":"46.1055556"}},{"country":"am","city":"Gyukh","coordinates":{"lat":"40.3305556","long":"45.1838889"}},{"country":"am","city":"Gyulabarrak","coordinates":{"lat":"40.9697222","long":"44.4713889"}},{"country":"am","city":"Gyulablu","coordinates":{"lat":"40.5802778","long":"44.4852778"}},{"country":"am","city":"Gyulagarak","coordinates":{"lat":"40.9697222","long":"44.4713889"}},{"country":"am","city":"Gyulagorak","coordinates":{"lat":"40.9697222","long":"44.4713889"}},{"country":"am","city":"Gyulistan","coordinates":{"lat":"39.5441667","long":"45.4166667"}},{"country":"am","city":"Gyulist","coordinates":{"lat":"39.5441667","long":"45.4166667"}},{"country":"am","city":"Gyullibulag Armyanskiy","coordinates":{"lat":"40.95","long":"43.9166667"}},{"country":"am","city":"Gyullibulag","coordinates":{"lat":"40.8686111","long":"43.7072222"}},{"country":"am","city":"Gyullibulagh","coordinates":{"lat":"40.8686111","long":"43.7072222"}},{"country":"am","city":"Gyulliduz","coordinates":{"lat":"39.8986111","long":"45.4836111"}},{"country":"am","city":"Gyulliduz Otselok","coordinates":{"lat":"39.8986111","long":"45.4836111"}},{"country":"am","city":"Gyullidzha","coordinates":{"lat":"40.5716667","long":"44.4027778"}},{"country":"am","city":"Gyullidzha","coordinates":{"lat":"40.8738889","long":"44.21"}},{"country":"am","city":"Gyullidzha","coordinates":{"lat":"41.0975","long":"43.6163889"}},{"country":"am","city":"Gyullija","coordinates":{"lat":"41.0975","long":"43.6163889"}},{"country":"am","city":"Gyulludara","coordinates":{"lat":"40.7397222","long":"44.4230556"}},{"country":"am","city":"Gyumri","coordinates":{"lat":"40.7894444","long":"43.8475"}},{"country":"am","city":"Gyumush","coordinates":{"lat":"40.3916667","long":"44.6072222"}},{"country":"am","city":"Gyunashli","coordinates":{"lat":"40.2677778","long":"45.8391667"}},{"country":"am","city":"Gyuney","coordinates":{"lat":"40.3416667","long":"45.6083333"}},{"country":"am","city":"Gyutashen","coordinates":{"lat":"40.9188889","long":"43.7169444"}},{"country":"am","city":"Gyutkum","coordinates":{"lat":"39.1688889","long":"46.4169444"}},{"country":"am","city":"Haghardzin","coordinates":{"lat":"40.7780556","long":"44.9625"}},{"country":"am","city":"Haghartsin","coordinates":{"lat":"40.7780556","long":"44.9625"}},{"country":"am","city":"Haghpat","coordinates":{"lat":"41.095","long":"44.7102778"}},{"country":"am","city":"Haght'anak","coordinates":{"lat":"41.2238889","long":"44.9377778"}},{"country":"am","city":"Haght'anak","coordinates":{"lat":"40.1863889","long":"44.4238889"}},{"country":"am","city":"Hajat'in","coordinates":{"lat":"39.2038889","long":"46.1386111"}},{"country":"am","city":"Hajibaj","coordinates":{"lat":"39.25","long":"46.0833333"}},{"country":"am","city":"Hakhpat","coordinates":{"lat":"41.095","long":"44.7102778"}},{"country":"am","city":"Hakko","coordinates":{"lat":"40.3811111","long":"43.6994444"}},{"country":"am","city":"Halaj","coordinates":{"lat":"39.2347222","long":"46.4313889"}},{"country":"am","city":"Halavar","coordinates":{"lat":"40.77","long":"44.3841667"}},{"country":"am","city":"Halidzor","coordinates":{"lat":"39.4102778","long":"46.2952778"}},{"country":"am","city":"Hamgach'iman","coordinates":{"lat":"40.7380556","long":"44.6875"}},{"country":"am","city":"Hank'avan","coordinates":{"lat":"40.6441667","long":"44.4813889"}},{"country":"am","city":"Hardzis","coordinates":{"lat":"39.4333333","long":"46.2216667"}},{"country":"am","city":"Harrich","coordinates":{"lat":"40.5980556","long":"44.0075"}},{"country":"am","city":"Hart'agyugh","coordinates":{"lat":"40.8355556","long":"44.0466667"}},{"country":"am","city":"Hartashen","coordinates":{"lat":"41.0094444","long":"43.9227778"}},{"country":"am","city":"Hart'ashen","coordinates":{"lat":"39.4858333","long":"46.4197222"}},{"country":"am","city":"Hart'avan","coordinates":{"lat":"40.4780556","long":"44.4005556"}},{"country":"am","city":"Harzhis","coordinates":{"lat":"39.4333333","long":"46.2216667"}},{"country":"am","city":"Hasankand","coordinates":{"lat":"39.8333333","long":"45.3016667"}},{"country":"am","city":"Hatis","coordinates":{"lat":"40.3405556","long":"44.7297222"}},{"country":"am","city":"Hats'avan","coordinates":{"lat":"40.1377778","long":"44.6522222"}},{"country":"am","city":"Hats'avan","coordinates":{"lat":"39.4627778","long":"45.9730556"}},{"country":"am","city":"Hats'ik","coordinates":{"lat":"40.1641667","long":"43.9408333"}},{"country":"am","city":"Hats'ik","coordinates":{"lat":"40.8475","long":"43.8741667"}},{"country":"am","city":"Hayanist","coordinates":{"lat":"40.1197222","long":"44.3775"}},{"country":"am","city":"Haykadzor","coordinates":{"lat":"40.5377778","long":"43.6608333"}},{"country":"am","city":"Haykashen","coordinates":{"lat":"40.0727778","long":"44.3069444"}},{"country":"am","city":"Haykavan","coordinates":{"lat":"40.7558333","long":"43.77"}},{"country":"am","city":"Hayravank'","coordinates":{"lat":"40.4344444","long":"45.0969444"}},{"country":"am","city":"Hayrenyats'","coordinates":{"lat":"40.6327778","long":"43.8705556"}},{"country":"am","city":"Hayt'agh","coordinates":{"lat":"40.1808333","long":"44.2297222"}},{"country":"am","city":"Herher","coordinates":{"lat":"40.9569444","long":"44.4427778"}},{"country":"am","city":"Herher","coordinates":{"lat":"39.7733333","long":"45.5386111"}},{"country":"am","city":"Hermon","coordinates":{"lat":"39.8794444","long":"45.4263889"}},{"country":"am","city":"Hesan Kand","coordinates":{"lat":"39.8333333","long":"45.3016667"}},{"country":"am","city":"Hin","coordinates":{"lat":"40.7408333","long":"44.8630556"}},{"country":"am","city":"Hnaberd","coordinates":{"lat":"40.6427778","long":"44.1444444"}},{"country":"am","city":"Hnaberd","coordinates":{"lat":"40.0058333","long":"44.5744444"}},{"country":"am","city":"Hoktember","coordinates":{"lat":"40.1361111","long":"44.0138889"}},{"country":"am","city":"Hoktemberyan","coordinates":{"lat":"40.1522222","long":"44.0308333"}},{"country":"am","city":"Horadis","coordinates":{"lat":"39.5527778","long":"45.4044444"}},{"country":"am","city":"Horbategh","coordinates":{"lat":"39.8947222","long":"45.3355556"}},{"country":"am","city":"Horom","coordinates":{"lat":"40.6541667","long":"43.8822222"}},{"country":"am","city":"Horrom","coordinates":{"lat":"40.6541667","long":"43.8822222"}},{"country":"am","city":"Hors","coordinates":{"lat":"39.8625","long":"45.2302778"}},{"country":"am","city":"Hovk'","coordinates":{"lat":"40.7911111","long":"45.0225"}},{"country":"am","city":"Hovtamej","coordinates":{"lat":"40.1836111","long":"44.2572222"}},{"country":"am","city":"Hovtashat","coordinates":{"lat":"40.1019444","long":"44.3427778"}},{"country":"am","city":"Hovtashen","coordinates":{"lat":"40.0244444","long":"44.45"}},{"country":"am","city":"Hovtun","coordinates":{"lat":"40.9666667","long":"43.8166667"}},{"country":"am","city":"Hrazdan","coordinates":{"lat":"40.0672222","long":"44.4361111"}},{"country":"am","city":"Hrazdan","coordinates":{"lat":"40.5016667","long":"44.7547222"}},{"country":"am","city":"Hunut","coordinates":{"lat":"39.25","long":"46.3833333"}},{"country":"am","city":"Hushakert","coordinates":{"lat":"40.0811111","long":"43.9263889"}},{"country":"am","city":"Ibish","coordinates":{"lat":"40.9833333","long":"43.65"}},{"country":"am","city":"Idzhevan","coordinates":{"lat":"40.8755556","long":"45.1491667"}},{"country":"am","city":"Iejmiatsin","coordinates":{"lat":"40.1727778","long":"44.2925"}},{"country":"am","city":"Igdalu","coordinates":{"lat":"40.0405556","long":"44.0675"}},{"country":"am","city":"Ijevan","coordinates":{"lat":"40.8755556","long":"45.1491667"}},{"country":"am","city":"Ilanchalan","coordinates":{"lat":"40.3936111","long":"44.3813889"}},{"country":"am","city":"Ilanli","coordinates":{"lat":"41.0466667","long":"43.7769444"}},{"country":"am","city":"Ilanly","coordinates":{"lat":"41.0466667","long":"43.7769444"}},{"country":"am","city":"Ilkhiabi","coordinates":{"lat":"40.7","long":"43.9"}},{"country":"am","city":"Illi","coordinates":{"lat":"40.9166667","long":"43.8166667"}},{"country":"am","city":"Illi Karakilisa","coordinates":{"lat":"40.9166667","long":"43.8166667"}},{"country":"am","city":"Illmazlu","coordinates":{"lat":"41.1411111","long":"44.1741667"}},{"country":"am","city":"Ilmazlu","coordinates":{"lat":"41.1411111","long":"44.1741667"}},{"country":"am","city":"Imanshalu","coordinates":{"lat":"40.02","long":"44.4911111"}},{"country":"am","city":"Imeni Beriya","coordinates":{"lat":"40.1616667","long":"44.0883333"}},{"country":"am","city":"Imeni Beriya","coordinates":{"lat":"40.1847222","long":"44.4597222"}},{"country":"am","city":"Imeni Dzerzhinskogo","coordinates":{"lat":"40.0833333","long":"44.0"}},{"country":"am","city":"Imeni Kalinina","coordinates":{"lat":"40.0236111","long":"44.4244444"}},{"country":"am","city":"Imeni Kirova","coordinates":{"lat":"39.9158333","long":"44.6002778"}},{"country":"am","city":"Imeni Mikoyana","coordinates":{"lat":"40.1758333","long":"44.0186111"}},{"country":"am","city":"Imeni Shaumyana","coordinates":{"lat":"40.7883333","long":"44.5316667"}},{"country":"am","city":"Imeni Shaumyana","coordinates":{"lat":"40.1847222","long":"44.4597222"}},{"country":"am","city":"Imeni Stalina","coordinates":{"lat":"40.05","long":"43.9666667"}},{"country":"am","city":"Imeni Tairova","coordinates":{"lat":"40.1833333","long":"44.4833333"}},{"country":"am","city":"Imeni Voroshilova","coordinates":{"lat":"40.1641667","long":"43.9408333"}},{"country":"am","city":"Imeni Zhdanova","coordinates":{"lat":"40.1616667","long":"44.0883333"}},