[{"country":"yt","city":"Accua","coordinates":{"lat":"-12.7225","long":"45.0563889"}},{"country":"yt","city":"Acoua","coordinates":{"lat":"-12.7225","long":"45.0563889"}},{"country":"yt","city":"Andréma","coordinates":{"lat":"-12.6786111","long":"45.0977778"}},{"country":"yt","city":"Apandzo","coordinates":{"lat":"-12.8305556","long":"45.1302778"}},{"country":"yt","city":"Bambo Est","coordinates":{"lat":"-12.9261111","long":"45.1738889"}},{"country":"yt","city":"Bambo Ouest","coordinates":{"lat":"-12.9219444","long":"45.0872222"}},{"country":"yt","city":"Bandraboua","coordinates":{"lat":"-12.7016667","long":"45.1205556"}},{"country":"yt","city":"Bandrajou","coordinates":{"lat":"-12.7452778","long":"45.2186111"}},{"country":"yt","city":"Bandrani","coordinates":{"lat":"-12.845","long":"45.1019444"}},{"country":"yt","city":"Bandrélé","coordinates":{"lat":"-12.9066667","long":"45.1913889"}},{"country":"yt","city":"Barakani","coordinates":{"lat":"-12.835","long":"45.1280556"}},{"country":"yt","city":"Bouéni","coordinates":{"lat":"-12.9025","long":"45.0761111"}},{"country":"yt","city":"Bouilloni","coordinates":{"lat":"-12.7355556","long":"45.1383333"}},{"country":"yt","city":"Bouyouni","coordinates":{"lat":"-12.7355556","long":"45.1383333"}},{"country":"yt","city":"Chembénioumba","coordinates":{"lat":"-12.7622222","long":"45.0752778"}},{"country":"yt","city":"Chembényoumba","coordinates":{"lat":"-12.7622222","long":"45.0752778"}},{"country":"yt","city":"Chiconi","coordinates":{"lat":"-12.8333333","long":"45.1105556"}},{"country":"yt","city":"Chirongui","coordinates":{"lat":"-12.9319444","long":"45.1483333"}},{"country":"yt","city":"Choungui","coordinates":{"lat":"-12.9594444","long":"45.1244444"}},{"country":"yt","city":"Choungui Kéli","coordinates":{"lat":"-12.9686111","long":"45.1308333"}},{"country":"yt","city":"Coconi","coordinates":{"lat":"-12.8330556","long":"45.1347222"}},{"country":"yt","city":"Combani","coordinates":{"lat":"-12.7863889","long":"45.1336111"}},{"country":"yt","city":"Dapani","coordinates":{"lat":"-12.9691667","long":"45.1588889"}},{"country":"yt","city":"Djivani","coordinates":{"lat":"-12.8313889","long":"45.12"}},{"country":"yt","city":"Doujani","coordinates":{"lat":"-12.7908333","long":"45.2138889"}},{"country":"yt","city":"Dzaoudzi","coordinates":{"lat":"-12.7794444","long":"45.2536111"}},{"country":"yt","city":"Dzoumogne","coordinates":{"lat":"-12.7172222","long":"45.1127778"}},{"country":"yt","city":"Dzoumonyé","coordinates":{"lat":"-12.7172222","long":"45.1127778"}},{"country":"yt","city":"Florence","coordinates":{"lat":"-12.8597222","long":"45.1916667"}},{"country":"yt","city":"Foungoujou","coordinates":{"lat":"-12.7838889","long":"45.2588889"}},{"country":"yt","city":"Gnambo","coordinates":{"lat":"-12.7069444","long":"45.1205556"}},{"country":"yt","city":"Hachénoua","coordinates":{"lat":"-12.7872222","long":"45.1111111"}},{"country":"yt","city":"Hajangoua","coordinates":{"lat":"-12.8655556","long":"45.1933333"}},{"country":"yt","city":"Hamjago","coordinates":{"lat":"-12.6858333","long":"45.0719444"}},{"country":"yt","city":"Hamouro","coordinates":{"lat":"-12.8786111","long":"45.2133333"}},{"country":"yt","city":"Handréma","coordinates":{"lat":"-12.6786111","long":"45.0977778"}},{"country":"yt","city":"Hanyoundrou","coordinates":{"lat":"-12.9005556","long":"45.0986111"}},{"country":"yt","city":"Iloni","coordinates":{"lat":"-12.8411111","long":"45.1888889"}},{"country":"yt","city":"Ironi Bé","coordinates":{"lat":"-12.8305556","long":"45.1886111"}},{"country":"yt","city":"Kahani","coordinates":{"lat":"-12.8208333","long":"45.1294444"}},{"country":"yt","city":"Kangani","coordinates":{"lat":"-12.7272222","long":"45.185"}},{"country":"yt","city":"Kani Bé","coordinates":{"lat":"-12.9613889","long":"45.1091667"}},{"country":"yt","city":"Kani Kéli","coordinates":{"lat":"-12.9536111","long":"45.1033333"}},{"country":"yt","city":"Kaouéni","coordinates":{"lat":"-12.7702778","long":"45.2180556"}},{"country":"yt","city":"Karoni","coordinates":{"lat":"-12.9288889","long":"45.1172222"}},{"country":"yt","city":"Kavani","coordinates":{"lat":"-12.7788889","long":"45.2188889"}},{"country":"yt","city":"Kongo","coordinates":{"lat":"-12.7336111","long":"45.2041667"}},{"country":"yt","city":"Koualé","coordinates":{"lat":"-12.7952778","long":"45.1641667"}},{"country":"yt","city":"Koualé-Légion","coordinates":{"lat":"-12.795","long":"45.1861111"}},{"country":"yt","city":"Koungou","coordinates":{"lat":"-12.7336111","long":"45.2041667"}},{"country":"yt","city":"Labattoir","coordinates":{"lat":"-12.785","long":"45.2702778"}},{"country":"yt","city":"La Ferme","coordinates":{"lat":"-12.7844444","long":"45.2775"}},{"country":"yt","city":"Longoni","coordinates":{"lat":"-12.7316667","long":"45.1611111"}},{"country":"yt","city":"Maboungani","coordinates":{"lat":"-12.8705556","long":"45.1975"}},{"country":"yt","city":"Majikavo 1","coordinates":{"lat":"-12.7497222","long":"45.2286111"}},{"country":"yt","city":"Majikavo 2","coordinates":{"lat":"-12.7413889","long":"45.2169444"}},{"country":"yt","city":"Majikavo Koropa","coordinates":{"lat":"-12.7413889","long":"45.2169444"}},{"country":"yt","city":"Majikavo Lamir","coordinates":{"lat":"-12.7497222","long":"45.2286111"}},{"country":"yt","city":"Majiméouni","coordinates":{"lat":"-12.9222222","long":"45.1058333"}},{"country":"yt","city":"Malamani","coordinates":{"lat":"-12.9169444","long":"45.1563889"}},{"country":"yt","city":"Mambutzou","coordinates":{"lat":"-12.7794444","long":"45.2272222"}},{"country":"yt","city":"Mamoudzou","coordinates":{"lat":"-12.7794444","long":"45.2272222"}},{"country":"yt","city":"Mamoutzou","coordinates":{"lat":"-12.7794444","long":"45.2272222"}},{"country":"yt","city":"Mamutzu","coordinates":{"lat":"-12.7794444","long":"45.2272222"}},{"country":"yt","city":"Mangajou","coordinates":{"lat":"-12.8416667","long":"45.1138889"}},{"country":"yt","city":"Manyassini","coordinates":{"lat":"-12.8888889","long":"45.1411111"}},{"country":"yt","city":"Mbouéanatsa","coordinates":{"lat":"-12.9416667","long":"45.0997222"}},{"country":"yt","city":"Mbouini","coordinates":{"lat":"-12.9875","long":"45.1347222"}},{"country":"yt","city":"Mbouyouni","coordinates":{"lat":"-12.9027778","long":"45.1486111"}},{"country":"yt","city":"M'Gombani","coordinates":{"lat":"-12.7016667","long":"45.1205556"}},{"country":"yt","city":"Miréréni","coordinates":{"lat":"-12.7863889","long":"45.1386111"}},{"country":"yt","city":"Mitséni","coordinates":{"lat":"-12.7358333","long":"45.1438889"}},{"country":"yt","city":"M'Jago","coordinates":{"lat":"-12.7069444","long":"45.1205556"}},{"country":"yt","city":"Mliha","coordinates":{"lat":"-12.7483333","long":"45.0530556"}},{"country":"yt","city":"Mouanatrindi","coordinates":{"lat":"-12.8969444","long":"45.0952778"}},{"country":"yt","city":"Mounadzini","coordinates":{"lat":"-12.8930556","long":"45.14"}},{"country":"yt","city":"Moutsamoudou","coordinates":{"lat":"-12.9605556","long":"45.1733333"}},{"country":"yt","city":"Moutsatoundou","coordinates":{"lat":"-12.9152778","long":"45.1827778"}},{"country":"yt","city":"Moutsoumbatsou","coordinates":{"lat":"-12.7408333","long":"45.0505556"}},{"country":"yt","city":"Mramadoudou","coordinates":{"lat":"-12.9252778","long":"45.1511111"}},{"country":"yt","city":"Mréréni Bé","coordinates":{"lat":"-12.9030556","long":"45.1527778"}},{"country":"yt","city":"Mréréni","coordinates":{"lat":"-12.9022222","long":"45.1491667"}},{"country":"yt","city":"Mronaléia","coordinates":{"lat":"-12.9769444","long":"45.1216667"}},{"country":"yt","city":"Mronyombéni","coordinates":{"lat":"-12.7847222","long":"45.2622222"}},{"country":"yt","city":"Mrowalé","coordinates":{"lat":"-12.7866667","long":"45.1252778"}},{"country":"yt","city":"Mtsahara","coordinates":{"lat":"-12.6791667","long":"45.0797222"}},{"country":"yt","city":"Mtsamboro","coordinates":{"lat":"-12.6966667","long":"45.0666667"}},{"country":"yt","city":"Mtsamgamouji","coordinates":{"lat":"-12.7594444","long":"45.0836111"}},{"country":"yt","city":"Mtsangachéhi","coordinates":{"lat":"-12.8833333","long":"45.1294444"}},{"country":"yt","city":"M'Tsangadoi","coordinates":{"lat":"-12.7080556","long":"45.0477778"}},{"country":"yt","city":"Mtsangadoua","coordinates":{"lat":"-12.7080556","long":"45.0477778"}},{"country":"yt","city":"M'Tsangamboi","coordinates":{"lat":"-12.6883333","long":"45.1075"}},{"country":"yt","city":"Mtsangamboua","coordinates":{"lat":"-12.6883333","long":"45.1075"}},{"country":"yt","city":"M'Tsangamouji","coordinates":{"lat":"-12.7594444","long":"45.0836111"}},{"country":"yt","city":"Mtsapéré","coordinates":{"lat":"-12.7877778","long":"45.2183333"}},{"country":"yt","city":"Musicale Plage","coordinates":{"lat":"-12.9152778","long":"45.1827778"}},{"country":"yt","city":"M'Zamboro","coordinates":{"lat":"-12.6966667","long":"45.0666667"}},{"country":"yt","city":"Mzouazia","coordinates":{"lat":"-12.9255556","long":"45.1011111"}},{"country":"yt","city":"Ngouja","coordinates":{"lat":"-12.9591667","long":"45.0836111"}},{"country":"yt","city":"Nyambadao","coordinates":{"lat":"-12.8905556","long":"45.2008333"}},{"country":"yt","city":"Nyambo","coordinates":{"lat":"-12.7069444","long":"45.1205556"}},{"country":"yt","city":"Ongojou","coordinates":{"lat":"-12.8347222","long":"45.1563889"}},{"country":"yt","city":"Ouangani","coordinates":{"lat":"-12.8463889","long":"45.1361111"}},{"country":"yt","city":"Pamandzi","coordinates":{"lat":"-12.7963889","long":"45.2736111"}},{"country":"yt","city":"Passamaïnti","coordinates":{"lat":"-12.7988889","long":"45.2102778"}},{"country":"yt","city":"Passi Kéli","coordinates":{"lat":"-12.9833333","long":"45.1244444"}},{"country":"yt","city":"Poroani","coordinates":{"lat":"-12.8894444","long":"45.1383333"}},{"country":"yt","city":"Rampe Cannelle","coordinates":{"lat":"-12.9363889","long":"45.14"}},{"country":"yt","city":"Sada","coordinates":{"lat":"-12.8480556","long":"45.0975"}},{"country":"yt","city":"Sazilé","coordinates":{"lat":"-12.9819444","long":"45.1788889"}},{"country":"yt","city":"Sohoa Kavani","coordinates":{"lat":"-12.8186111","long":"45.1061111"}},{"country":"yt","city":"Sohoa Kéli","coordinates":{"lat":"-12.8211111","long":"45.1033333"}},{"country":"yt","city":"Sohoa","coordinates":{"lat":"-12.8197222","long":"45.1036111"}},{"country":"yt","city":"Tanaraki","coordinates":{"lat":"-12.7561111","long":"45.0666667"}},{"country":"yt","city":"Trévani","coordinates":{"lat":"-12.7308333","long":"45.1961111"}},{"country":"yt","city":"Trotrondjéou","coordinates":{"lat":"-12.8041667","long":"45.2036111"}},{"country":"yt","city":"Tsararano","coordinates":{"lat":"-12.8338889","long":"45.1725"}},{"country":"yt","city":"Tsimkoura","coordinates":{"lat":"-12.9372222","long":"45.1352778"}},{"country":"yt","city":"Tsingoni","coordinates":{"lat":"-12.7872222","long":"45.1027778"}},{"country":"yt","city":"Tsoundzou 1","coordinates":{"lat":"-12.8041667","long":"45.2036111"}},{"country":"yt","city":"Tsoundzou 2","coordinates":{"lat":"-12.8133333","long":"45.1966667"}},{"country":"yt","city":"Vahibéni","coordinates":{"lat":"-12.7819444","long":"45.1705556"}}]