[{"country":"kz","city":"12 Dekabrya","coordinates":{"lat":"43.415556","long":"76.898333"}},{"country":"kz","city":"15 Kazakhstana","coordinates":{"lat":"41.412778","long":"68.917778"}},{"country":"kz","city":"15-letiye Kazakhstana","coordinates":{"lat":"41.412778","long":"68.917778"}},{"country":"kz","city":"15 Let Kazakhstana","coordinates":{"lat":"53.209722","long":"67.348056"}},{"country":"kz","city":"18 Parts''yezd","coordinates":{"lat":"53.210278","long":"75.608333"}},{"country":"kz","city":"1-e Maya","coordinates":{"lat":"49.483333","long":"73.741667"}},{"country":"kz","city":"1 May","coordinates":{"lat":"43.834722","long":"67.176944"}},{"country":"kz","city":"1 Maya","coordinates":{"lat":"49.483333","long":"73.741667"}},{"country":"kz","city":"3-ya Pyatiletka","coordinates":{"lat":"51.735","long":"79.061667"}},{"country":"kz","city":"60-letiya Oktyabrya","coordinates":{"lat":"41.173611","long":"68.791667"}},{"country":"kz","city":"60 Let Oktyabrya","coordinates":{"lat":"41.406389","long":"68.784167"}},{"country":"kz","city":"60 Oktyabrya","coordinates":{"lat":"41.173611","long":"68.791667"}},{"country":"kz","city":"Abakumovka","coordinates":{"lat":"45.388611","long":"79.502222"}},{"country":"kz","city":"Abakumovskaya","coordinates":{"lat":"45.388611","long":"79.502222"}},{"country":"kz","city":"Abakumovskoye","coordinates":{"lat":"45.388611","long":"79.502222"}},{"country":"kz","city":"Abalsha","coordinates":{"lat":"51.066667","long":"78.533333"}},{"country":"kz","city":"Abay","coordinates":{"lat":"43.209167","long":"76.760278"}},{"country":"kz","city":"Abay","coordinates":{"lat":"50.721111","long":"69.527778"}},{"country":"kz","city":"Abay","coordinates":{"lat":"50.774722","long":"61.796944"}},{"country":"kz","city":"Abay","coordinates":{"lat":"40.899167","long":"68.543333"}},{"country":"kz","city":"Abay","coordinates":{"lat":"53.719722","long":"75.460556"}},{"country":"kz","city":"Abay","coordinates":{"lat":"49.631111","long":"72.853889"}},{"country":"kz","city":"Abay","coordinates":{"lat":"53.906111","long":"64.859722"}},{"country":"kz","city":"Abay","coordinates":{"lat":"44.951111","long":"65.545833"}},{"country":"kz","city":"Abay","coordinates":{"lat":"48.946389","long":"79.258889"}},{"country":"kz","city":"Abay-Bazar","coordinates":{"lat":"41.351389","long":"68.944444"}},{"country":"kz","city":"Abdem","coordinates":{"lat":"50.8","long":"73.766667"}},{"country":"kz","city":"Abdem Omar","coordinates":{"lat":"50.8","long":"73.766667"}},{"country":"kz","city":"Abdrakhman-Mechet'","coordinates":{"lat":"50.1","long":"53.183333"}},{"country":"kz","city":"Abdybulak","coordinates":{"lat":"49.765278","long":"55.603333"}},{"country":"kz","city":"Abdyem","coordinates":{"lat":"50.8","long":"73.766667"}},{"country":"kz","city":"Abeken'","coordinates":{"lat":"54.563333","long":"70.216111"}},{"country":"kz","city":"Abel'-Mula","coordinates":{"lat":"50.266667","long":"53.05"}},{"country":"kz","city":"Abinsk","coordinates":{"lat":"49.5","long":"49.8"}},{"country":"kz","city":"Abinski","coordinates":{"lat":"49.4","long":"49.233333"}},{"country":"kz","city":"Abinskiy","coordinates":{"lat":"49.4","long":"49.233333"}},{"country":"kz","city":"Abish","coordinates":{"lat":"49.480278","long":"49.128611"}},{"country":"kz","city":"Ablaketka","coordinates":{"lat":"49.9","long":"82.716667"}},{"country":"kz","city":"Abraly","coordinates":{"lat":"49.257222","long":"77.621944"}},{"country":"kz","city":"Abram","coordinates":{"lat":"50.368056","long":"49.038889"}},{"country":"kz","city":"Abramkuduk","coordinates":{"lat":"50.368056","long":"49.038889"}},{"country":"kz","city":"Abramushkin","coordinates":{"lat":"50.8","long":"50.966667"}},{"country":"kz","city":"Abray","coordinates":{"lat":"48.266667","long":"81.716667"}},{"country":"kz","city":"Abrosimovka","coordinates":{"lat":"52.726389","long":"75.9725"}},{"country":"kz","city":"Abrosimovskoye","coordinates":{"lat":"52.726389","long":"75.9725"}},{"country":"kz","city":"Aby","coordinates":{"lat":"49.466667","long":"76.483333"}},{"country":"kz","city":"Abylay","coordinates":{"lat":"50.471667","long":"69.382778"}},{"country":"kz","city":"Abyraly","coordinates":{"lat":"49.257222","long":"77.621944"}},{"country":"kz","city":"Abyz","coordinates":{"lat":"49.466667","long":"76.483333"}},{"country":"kz","city":"Abyz-Tyube","coordinates":{"lat":"43.4","long":"67.55"}},{"country":"kz","city":"Abzhan","coordinates":{"lat":"52.943333","long":"76.139722"}},{"country":"kz","city":"Achi-Bulak","coordinates":{"lat":"41.733333","long":"69.5475"}},{"country":"kz","city":"Achinokho","coordinates":{"lat":"43.5","long":"80.466667"}},{"country":"kz","city":"Achi-Sai","coordinates":{"lat":"43.554167","long":"68.888889"}},{"country":"kz","city":"Achisay","coordinates":{"lat":"43.554167","long":"68.888889"}},{"country":"kz","city":"Achisayskiy","coordinates":{"lat":"43.554167","long":"68.888889"}},{"country":"kz","city":"Adaevski","coordinates":{"lat":"51.804167","long":"62.033333"}},{"country":"kz","city":"Aday","coordinates":{"lat":"51.804167","long":"62.033333"}},{"country":"kz","city":"Aday-Aul","coordinates":{"lat":"48.851389","long":"47.191667"}},{"country":"kz","city":"Adayevka","coordinates":{"lat":"51.804167","long":"62.033333"}},{"country":"kz","city":"Adayevskaya","coordinates":{"lat":"47.066667","long":"53.8"}},{"country":"kz","city":"Adayevskiy","coordinates":{"lat":"51.804167","long":"62.033333"}},{"country":"kz","city":"Adaytobe","coordinates":{"lat":"50.366667","long":"51.183333"}},{"country":"kz","city":"Adebiyet","coordinates":{"lat":"44.9","long":"64.466667"}},{"country":"kz","city":"Adel'bek","coordinates":{"lat":"48.05","long":"49.783333"}},{"country":"kz","city":"Adykbay","coordinates":{"lat":"52.770833","long":"69.684722"}},{"country":"kz","city":"Adyr","coordinates":{"lat":"51.796667","long":"68.959722"}},{"country":"kz","city":"Adyr","coordinates":{"lat":"50.466667","long":"58.283333"}},{"country":"kz","city":"Ad'zhan-adyrskiy","coordinates":{"lat":"48.833333","long":"80.333333"}},{"country":"kz","city":"Afanas'evka","coordinates":{"lat":"53.503056","long":"67.244722"}},{"country":"kz","city":"Afanas'yevka","coordinates":{"lat":"47.266667","long":"81.5"}},{"country":"kz","city":"Afanas'yevka","coordinates":{"lat":"53.503056","long":"67.244722"}},{"country":"kz","city":"Afon'kino","coordinates":{"lat":"54.905","long":"68.263889"}},{"country":"kz","city":"Agadyr'","coordinates":{"lat":"48.255278","long":"72.848333"}},{"country":"kz","city":"Aganas","coordinates":{"lat":"50.916667","long":"71.25"}},{"country":"kz","city":"Aganay","coordinates":{"lat":"41.633611","long":"69.371111"}},{"country":"kz","city":"Aganay-Kemir-Basta","coordinates":{"lat":"41.683333","long":"69.533333"}},{"country":"kz","city":"Aganay-Kemir-Bastau","coordinates":{"lat":"41.683333","long":"69.533333"}},{"country":"kz","city":"Agaral","coordinates":{"lat":"47.766667","long":"84.766667"}},{"country":"kz","city":"Agartu","coordinates":{"lat":"45.666667","long":"80.166667"}},{"country":"kz","city":"Agartu","coordinates":{"lat":"49.816667","long":"47.1"}},{"country":"kz","city":"Agash-Aryk","coordinates":{"lat":"53.453333","long":"74.235278"}},{"country":"kz","city":"Agashoryn","coordinates":{"lat":"53.453333","long":"74.235278"}},{"country":"kz","city":"Agashtykol'","coordinates":{"lat":"50.166667","long":"72.020833"}},{"country":"kz","city":"Agashtykol'","coordinates":{"lat":"50.1075","long":"65.356111"}},{"country":"kz","city":"Agashty-Kul'","coordinates":{"lat":"50.166667","long":"72.020833"}},{"country":"kz","city":"Agatan","coordinates":{"lat":"50.75","long":"54.083333"}},{"country":"kz","city":"Agaydar","coordinates":{"lat":"50.242222","long":"65.284444"}},{"country":"kz","city":"Agaydarovskiy","coordinates":{"lat":"51.266667","long":"71.1"}},{"country":"kz","city":"Agbayev Pervyy","coordinates":{"lat":"48.833333","long":"46.9"}},{"country":"kz","city":"Agbayev Vtoroy","coordinates":{"lat":"48.777222","long":"46.931111"}},{"country":"kz","city":"Agispe","coordinates":{"lat":"46.783333","long":"60.506667"}},{"country":"kz","city":"Agronom","coordinates":{"lat":"54.19","long":"70.534444"}},{"country":"kz","city":"Aguba","coordinates":{"lat":"49.4","long":"47.4"}},{"country":"kz","city":"Agyrek","coordinates":{"lat":"50.916667","long":"74.3"}},{"country":"kz","city":"Agys","coordinates":{"lat":"46.666667","long":"49.483333"}},{"country":"kz","city":"Aida","coordinates":{"lat":"48.216667","long":"50.4"}},{"country":"kz","city":"Aidmukhamedovskiy","coordinates":{"lat":"50.65","long":"52.116667"}},{"country":"kz","city":"Aimakan","coordinates":{"lat":"50.033333","long":"79.9"}},{"country":"kz","city":"Aimeken","coordinates":{"lat":"48.628056","long":"47.655556"}},{"country":"kz","city":"Aina-bulak","coordinates":{"lat":"45.166667","long":"78.583333"}},{"country":"kz","city":"Aina-Bulan","coordinates":{"lat":"44.233333","long":"79.033333"}},{"country":"kz","city":"Ainbek","coordinates":{"lat":"48.766667","long":"72.533333"}},{"country":"kz","city":"Ain-Kuduk-Kazbek","coordinates":{"lat":"51.9","long":"76.916667"}},{"country":"kz","city":"Ain-Kuduk-Kazbyek","coordinates":{"lat":"51.9","long":"76.916667"}},{"country":"kz","city":"Airkol'","coordinates":{"lat":"51.6","long":"61.983333"}},{"country":"kz","city":"Airkul'skiy","coordinates":{"lat":"51.6","long":"61.983333"}},{"country":"kz","city":"Airkum","coordinates":{"lat":"49.382778","long":"64.688333"}},{"country":"kz","city":"Airtas","coordinates":{"lat":"48.183333","long":"76.666667"}},{"country":"kz","city":"Airtau","coordinates":{"lat":"48.533333","long":"67.166667"}},{"country":"kz","city":"Ait-Aranchi","coordinates":{"lat":"41.3","long":"68.883333"}},{"country":"kz","city":"Akaltyn","coordinates":{"lat":"42.015556","long":"68.028056"}},{"country":"kz","city":"Akan","coordinates":{"lat":"53.314444","long":"68.644167"}},{"country":"kz","city":"Akanbarak","coordinates":{"lat":"53.914722","long":"67.376667"}},{"country":"kz","city":"Akaral","coordinates":{"lat":"44.066667","long":"79.916667"}},{"country":"kz","city":"Akaral","coordinates":{"lat":"52.166667","long":"72"}},{"country":"kz","city":"Akaral","coordinates":{"lat":"47.766667","long":"84.766667"}},{"country":"kz","city":"Akaryk","coordinates":{"lat":"43.6325","long":"67.919722"}},{"country":"kz","city":"Akaryk","coordinates":{"lat":"44.483333","long":"65.733333"}},{"country":"kz","city":"Akata","coordinates":{"lat":"41.4475","long":"69.034444"}},{"country":"kz","city":"Akay Vtoroy","coordinates":{"lat":"50.5","long":"57.966667"}},{"country":"kz","city":"Akbakay","coordinates":{"lat":"45","long":"72.783333"}},{"country":"kz","city":"Akbalyk","coordinates":{"lat":"46.566111","long":"79.209444"}},{"country":"kz","city":"Akbalyk","coordinates":{"lat":"54.331389","long":"66.295278"}},{"country":"kz","city":"Akbas","coordinates":{"lat":"54.266667","long":"70.433333"}},{"country":"kz","city":"Akbastau","coordinates":{"lat":"42.903611","long":"69.669444"}},{"country":"kz","city":"Akbastau","coordinates":{"lat":"49.414722","long":"73.592778"}},{"country":"kz","city":"Akbastau","coordinates":{"lat":"43.931389","long":"67.574167"}},{"country":"kz","city":"Akbastau","coordinates":{"lat":"42.883333","long":"70.116667"}},{"country":"kz","city":"Akbasty","coordinates":{"lat":"46.265278","long":"60.087778"}},{"country":"kz","city":"Akbaur","coordinates":{"lat":"49.046944","long":"74.168056"}},{"country":"kz","city":"Akbauyr","coordinates":{"lat":"49.046944","long":"74.168056"}},{"country":"kz","city":"Akbeim","coordinates":{"lat":"42.9","long":"79.533333"}},{"country":"kz","city":"Akbeit","coordinates":{"lat":"42.9","long":"79.533333"}},{"country":"kz","city":"Akbeit","coordinates":{"lat":"51.646111","long":"70.043056"}},{"country":"kz","city":"Akbel'","coordinates":{"lat":"45.1","long":"64.083333"}},{"country":"kz","city":"Akbent","coordinates":{"lat":"42.916667","long":"79.9"}},{"country":"kz","city":"Akbidaik","coordinates":{"lat":"51.25","long":"63.166667"}},{"country":"kz","city":"Akblak","coordinates":{"lat":"50.183333","long":"55.033333"}},{"country":"kz","city":"Ak-Blak","coordinates":{"lat":"49.95","long":"48.1"}},{"country":"kz","city":"Ak-Bota","coordinates":{"lat":"50.233333","long":"78.433333"}},{"country":"kz","city":"Akbulak","coordinates":{"lat":"43.245556","long":"76.827778"}},{"country":"kz","city":"Akbulak","coordinates":{"lat":"47.95","long":"56.366667"}},{"country":"kz","city":"Ak-Bulak","coordinates":{"lat":"49.833333","long":"54.883333"}},{"country":"kz","city":"Akbulak","coordinates":{"lat":"50.183333","long":"55.033333"}},{"country":"kz","city":"Akbulak","coordinates":{"lat":"50.5","long":"54.083333"}},{"country":"kz","city":"Akbulak","coordinates":{"lat":"47.55","long":"73.25"}},{"country":"kz","city":"Akbulak","coordinates":{"lat":"49.094444","long":"77.855833"}},{"country":"kz","city":"Akbulak","coordinates":{"lat":"52.857222","long":"68.586667"}},{"country":"kz","city":"Akbuzau","coordinates":{"lat":"49.383333","long":"81.366667"}},{"country":"kz","city":"Ak-Chaganak","coordinates":{"lat":"45.183333","long":"80.05"}},{"country":"kz","city":"Akchaganskiy","coordinates":{"lat":"50.783333","long":"53.333333"}},{"country":"kz","city":"Akchakol'","coordinates":{"lat":"53.917222","long":"65.943889"}},{"country":"kz","city":"Akchatan","coordinates":{"lat":"47.989167","long":"74.0575"}},{"country":"kz","city":"Akchatau","coordinates":{"lat":"47.989167","long":"74.0575"}},{"country":"kz","city":"Akchataul","coordinates":{"lat":"47.989167","long":"74.0575"}},{"country":"kz","city":"Ak Chechen'","coordinates":{"lat":"50.216667","long":"47.533333"}},{"country":"kz","city":"Akchi","coordinates":{"lat":"43.99","long":"76.323611"}},{"country":"kz","city":"Akchi","coordinates":{"lat":"50.266667","long":"53.833333"}},{"country":"kz","city":"Ak-Chilik","coordinates":{"lat":"47.95","long":"54.866667"}},{"country":"kz","city":"Akchiy","coordinates":{"lat":"48.683333","long":"61.116667"}},{"country":"kz","city":"Akchiy","coordinates":{"lat":"50.75","long":"74.2"}},{"country":"kz","city":"Ak-Chiy","coordinates":{"lat":"48.333333","long":"84.4"}},{"country":"kz","city":"Akchiy-Aytuar","coordinates":{"lat":"43.366667","long":"76.6"}},{"country":"kz","city":"Akchok","coordinates":{"lat":"52.685","long":"67.880556"}},{"country":"kz","city":"Akchokka","coordinates":{"lat":"46.95","long":"82.866667"}},{"country":"kz","city":"Ak-Chulak","coordinates":{"lat":"43.016667","long":"71.783333"}},{"country":"kz","city":"Akdala","coordinates":{"lat":"43.327778","long":"77.200833"}},{"country":"kz","city":"Akdala","coordinates":{"lat":"42.466667","long":"68.9"}},{"country":"kz","city":"Ak-Dun","coordinates":{"lat":"43.928889","long":"67.196667"}},{"country":"kz","city":"Ak-Dzhal","coordinates":{"lat":"42.833333","long":"75.633333"}},{"country":"kz","city":"Akdzhal","coordinates":{"lat":"49.218333","long":"81.421944"}},{"country":"kz","city":"Ak-Dzhana","coordinates":{"lat":"45.85","long":"61.716667"}},{"country":"kz","city":"Ak-Dzhar","coordinates":{"lat":"49.35","long":"57.85"}},{"country":"kz","city":"Ak-Dzhar","coordinates":{"lat":"41.605","long":"69.346389"}},{"country":"kz","city":"Ak-Dzhar","coordinates":{"lat":"49.7","long":"73.383333"}},{"country":"kz","city":"Ak-Dzhar","coordinates":{"lat":"47.579722","long":"83.698056"}},{"country":"kz","city":"Akdzhar","coordinates":{"lat":"43.136944","long":"71.642222"}},{"country":"kz","city":"Akdzhazyk","coordinates":{"lat":"44.15","long":"79.75"}},{"country":"kz","city":"Akdzhor","coordinates":{"lat":"45.733333","long":"80.266667"}},{"country":"kz","city":"Akerme","coordinates":{"lat":"45.333333","long":"73.75"}},{"country":"kz","city":"Akespe","coordinates":{"lat":"47.333333","long":"60.883333"}},{"country":"kz","city":"Akespe","coordinates":{"lat":"46.783333","long":"60.506667"}},{"country":"kz","city":"Aket","coordinates":{"lat":"49.633333","long":"50.733333"}},{"country":"kz","city":"Akhintuma","coordinates":{"lat":"43.5","long":"68.4"}},{"country":"kz","city":"Akhl","coordinates":{"lat":"49.7","long":"73.316667"}},{"country":"kz","city":"Akhmedshkola","coordinates":{"lat":"48.533333","long":"50.866667"}},{"country":"kz","city":"Akhmet","coordinates":{"lat":"50.983333","long":"73.216667"}},{"country":"kz","city":"Akhmet","coordinates":{"lat":"50.75","long":"74.2"}},{"country":"kz","city":"Akhmet","coordinates":{"lat":"50.634167","long":"71.457222"}},{"country":"kz","city":"Akhmet","coordinates":{"lat":"43.466667","long":"67.566667"}},{"country":"kz","city":"Akhmetau","coordinates":{"lat":"50.634167","long":"71.457222"}},{"country":"kz","city":"Akhmetaul","coordinates":{"lat":"50.634167","long":"71.457222"}},{"country":"kz","city":"Akhmetchi","coordinates":{"lat":"54.05","long":"75.483333"}},{"country":"kz","city":"Akhmetshi","coordinates":{"lat":"54.05","long":"75.483333"}},{"country":"kz","city":"Akhmet-Zhana","coordinates":{"lat":"48.666667","long":"82.933333"}},{"country":"kz","city":"Akhmetzhan","coordinates":{"lat":"55.036667","long":"70.701667"}},{"country":"kz","city":"Akhmirovo","coordinates":{"lat":"49.949722","long":"82.533333"}},{"country":"kz","city":"Akhmitcha","coordinates":{"lat":"54.05","long":"75.483333"}},{"country":"kz","city":"Akhtypeylyk","coordinates":{"lat":"44.266667","long":"80.15"}},{"country":"kz","city":"Ak-Ichke","coordinates":{"lat":"45.216667","long":"78.7"}},{"country":"kz","city":"Ak-ichkeyskiy","coordinates":{"lat":"45.216667","long":"78.7"}},{"country":"kz","city":"Akimovka","coordinates":{"lat":"51.951667","long":"70.093056"}},{"country":"kz","city":"Akimovka","coordinates":{"lat":"49.9","long":"82.416667"}},{"country":"kz","city":"Akimovskoye","coordinates":{"lat":"51.85","long":"67.833333"}},{"country":"kz","city":"Akishke","coordinates":{"lat":"45.216667","long":"78.7"}},{"country":"kz","city":"Akiz","coordinates":{"lat":"48.416667","long":"54.7"}},{"country":"kz","city":"Ak-Jar","coordinates":{"lat":"41.605","long":"69.346389"}},{"country":"kz","city":"Ak-Jar","coordinates":{"lat":"47.579722","long":"83.698056"}},{"country":"kz","city":"Akkabak","coordinates":{"lat":"49.566667","long":"62.166667"}},{"country":"kz","city":"Akkabak","coordinates":{"lat":"49.316667","long":"62.433333"}},{"country":"kz","city":"Akkanburluk","coordinates":{"lat":"52.616667","long":"68.05"}},{"country":"kz","city":"Akkanskiy","coordinates":{"lat":"52.733333","long":"68"}},{"country":"kz","city":"Akkarga","coordinates":{"lat":"51.533333","long":"61.183333"}},{"country":"kz","city":"Akkaynar","coordinates":{"lat":"43.166667","long":"76.039444"}},{"country":"kz","city":"Akkaytym","coordinates":{"lat":"47.480556","long":"59.300833"}},{"country":"kz","city":"Akkemer","coordinates":{"lat":"49.6575","long":"57.34"}},{"country":"kz","city":"Akkemir","coordinates":{"lat":"49.6575","long":"57.34"}},{"country":"kz","city":"Akkense","coordinates":{"lat":"46.805","long":"68.322222"}},{"country":"kz","city":"Akkent","coordinates":{"lat":"44.183333","long":"80.183333"}},{"country":"kz","city":"Akkisi","coordinates":{"lat":"50.158056","long":"65.451389"}},{"country":"kz","city":"Akkiztogay","coordinates":{"lat":"47.098611","long":"54.388889"}},{"country":"kz","city":"Akkol'","coordinates":{"lat":"45.023333","long":"75.665556"}},{"country":"kz","city":"Akkol'","coordinates":{"lat":"51.997778","long":"70.934167"}},{"country":"kz","city":"Akkol'","coordinates":{"lat":"49.945556","long":"60.554167"}},{"country":"kz","city":"Akkol'","coordinates":{"lat":"46.649167","long":"49.0275"}},{"country":"kz","city":"Akkol'","coordinates":{"lat":"52.339167","long":"75.063056"}},{"country":"kz","city":"Akkol'","coordinates":{"lat":"51.866667","long":"61.683333"}},{"country":"kz","city":"Akkol'","coordinates":{"lat":"44.666667","long":"65.666667"}},{"country":"kz","city":"Akkol'","coordinates":{"lat":"50.68","long":"79.833889"}},{"country":"kz","city":"Akkol'","coordinates":{"lat":"53.2925","long":"69.601111"}},{"country":"kz","city":"Akkol'","coordinates":{"lat":"43.438333","long":"70.766111"}},{"country":"kz","city":"Akkol'skiy","coordinates":{"lat":"48.9","long":"63.933333"}},{"country":"kz","city":"Akkol'skiy","coordinates":{"lat":"50.68","long":"79.833889"}},{"country":"kz","city":"Akkoltyk","coordinates":{"lat":"43.566111","long":"69.215278"}},{"country":"kz","city":"Akkora","coordinates":{"lat":"48.819722","long":"75.921667"}},{"country":"kz","city":"Akkora","coordinates":{"lat":"49.016667","long":"78.083333"}},{"country":"kz","city":"Akkoshkar","coordinates":{"lat":"49.935","long":"66.5725"}},{"country":"kz","city":"Akkozinskiy","coordinates":{"lat":"49.45","long":"53.498889"}},{"country":"kz","city":"Akkstau","coordinates":{"lat":"47.233333","long":"51"}},{"country":"kz","city":"Akkuatkan","coordinates":{"lat":"53.635833","long":"74.643889"}},{"country":"kz","city":"Akkube","coordinates":{"lat":"48.333333","long":"53.6"}},{"country":"kz","city":"Ak-Kuchuk","coordinates":{"lat":"51.739444","long":"64.9775"}},{"country":"kz","city":"Akkuduk","coordinates":{"lat":"45.7","long":"80.15"}},{"country":"kz","city":"Akkuduk","coordinates":{"lat":"47.133333","long":"56.1"}},{"country":"kz","city":"Ak-Kuduk","coordinates":{"lat":"49.483333","long":"53.65"}},{"country":"kz","city":"Akkuduk","coordinates":{"lat":"50.833333","long":"52.733333"}},{"country":"kz","city":"Akkuduk","coordinates":{"lat":"49.838889","long":"73.383333"}},{"country":"kz","city":"Ak-Kuduk","coordinates":{"lat":"49.866667","long":"73.75"}},{"country":"kz","city":"Akkuduk","coordinates":{"lat":"48.871944","long":"64.598056"}},{"country":"kz","city":"Akkuduk","coordinates":{"lat":"46.666667","long":"60.833333"}},{"country":"kz","city":"Ak-Kuduk","coordinates":{"lat":"50.033333","long":"80.533333"}},{"country":"kz","city":"Akkuduk","coordinates":{"lat":"53.656667","long":"70.813889"}},{"country":"kz","city":"Akkudukskiy","coordinates":{"lat":"50.766667","long":"52.716667"}},{"country":"kz","city":"Ak-Kul'","coordinates":{"lat":"45.023333","long":"75.665556"}},{"country":"kz","city":"Ak-Kul'","coordinates":{"lat":"51.983333","long":"70.95"}},{"country":"kz","city":"Ak-kul'","coordinates":{"lat":"49.616667","long":"49.383333"}},{"country":"kz","city":"Ak-Kul'","coordinates":{"lat":"51.866667","long":"61.683333"}},{"country":"kz","city":"Ak-Kul'","coordinates":{"lat":"44.666667","long":"65.666667"}},{"country":"kz","city":"Akkul'","coordinates":{"lat":"43.438333","long":"70.766111"}},{"country":"kz","city":"Akkulaksayskiy","coordinates":{"lat":"49.916667","long":"53.333333"}},{"country":"kz","city":"Akkul'kystau","coordinates":{"lat":"48.55","long":"48.416667"}},{"country":"kz","city":"Akkul'skiy","coordinates":{"lat":"52.339167","long":"75.063056"}},{"country":"kz","city":"Akkul'skiy","coordinates":{"lat":"50.68","long":"79.833889"}},{"country":"kz","city":"Akkum","coordinates":{"lat":"50.0775","long":"62.117778"}},{"country":"kz","city":"Akkum","coordinates":{"lat":"41.393611","long":"68.004167"}},{"country":"kz","city":"Akkum","coordinates":{"lat":"49.333333","long":"64.280833"}},{"country":"kz","city":"Akkum","coordinates":{"lat":"43.709722","long":"67.418333"}},{"country":"kz","city":"Ak-Kum","coordinates":{"lat":"51.016667","long":"78.666667"}},{"country":"kz","city":"Akkurgan","coordinates":{"lat":"41.356944","long":"68.925"}},{"country":"kz","city":"Akkus","coordinates":{"lat":"49.633333","long":"50.083333"}},{"country":"kz","city":"Akkushuk","coordinates":{"lat":"51.739444","long":"64.9775"}},{"country":"kz","city":"Akkutek","coordinates":{"lat":"53.696944","long":"70.981667"}},{"country":"kz","city":"Akkuter","coordinates":{"lat":"47.383333","long":"51.333333"}},{"country":"kz","city":"Akkutyr","coordinates":{"lat":"47.383333","long":"51.333333"}},{"country":"kz","city":"Akkystau","coordinates":{"lat":"47.233333","long":"51"}},{"country":"kz","city":"Akkyztogay","coordinates":{"lat":"47.116667","long":"54.383333"}},{"country":"kz","city":"Akmadyy","coordinates":{"lat":"53.466667","long":"70.366667"}},{"country":"kz","city":"Akmal","coordinates":{"lat":"48.766667","long":"73.1"}},{"country":"kz","city":"Akmalysh","coordinates":{"lat":"53.199444","long":"67.942222"}},{"country":"kz","city":"Akmamyk","coordinates":{"lat":"49.383333","long":"49.533333"}},{"country":"kz","city":"Akmarka","coordinates":{"lat":"47.183333","long":"59.766667"}},{"country":"kz","city":"Akmaya","coordinates":{"lat":"48.766667","long":"73.1"}},{"country":"kz","city":"Akmaya","coordinates":{"lat":"44.166667","long":"66.8"}},{"country":"kz","city":"Ak-Mechet'","coordinates":{"lat":"47.166667","long":"52.266667"}},{"country":"kz","city":"Ak-Mechet'","coordinates":{"lat":"44.852778","long":"65.509167"}},{"country":"kz","city":"Akmeshit","coordinates":{"lat":"48.966667","long":"51.933333"}},{"country":"kz","city":"Akmola","coordinates":{"lat":"51.181111","long":"71.427778"}},{"country":"kz","city":"Akmola","coordinates":{"lat":"51.366667","long":"52.783333"}},{"country":"kz","city":"Akmola","coordinates":{"lat":"41.247778","long":"68.645278"}},{"country":"kz","city":"Akmola","coordinates":{"lat":"48.133333","long":"83.95"}},{"country":"kz","city":"Akmola","coordinates":{"lat":"42.666667","long":"70.966667"}},{"country":"kz","city":"Akmoldy","coordinates":{"lat":"53.106389","long":"67.449444"}},{"country":"kz","city":"Akmolinsk","coordinates":{"lat":"51.181111","long":"71.427778"}},{"country":"kz","city":"Akmolinskiy","coordinates":{"lat":"51.07","long":"70.979167"}},{"country":"kz","city":"Akmukan","coordinates":{"lat":"49.683333","long":"51.666667"}},{"country":"kz","city":"Ak-Mula","coordinates":{"lat":"46.65","long":"65.666667"}},{"country":"kz","city":"Akmulinskiy","coordinates":{"lat":"50.68","long":"79.833889"}},{"country":"kz","city":"Ak-Mulla","coordinates":{"lat":"46.65","long":"65.666667"}},{"country":"kz","city":"Akmurza","coordinates":{"lat":"51.583333","long":"72.45"}},{"country":"kz","city":"Akmurza","coordinates":{"lat":"48.933333","long":"52.933333"}},{"country":"kz","city":"Akoba","coordinates":{"lat":"49.4","long":"47.4"}},{"country":"kz","city":"Akoba","coordinates":{"lat":"47.883333","long":"82.8"}},{"country":"kz","city":"Ak-Otkel'","coordinates":{"lat":"50.15","long":"65.583333"}},{"country":"kz","city":"Akozek","coordinates":{"lat":"43.941111","long":"77.514444"}},{"country":"kz","city":"Ak-Ozek","coordinates":{"lat":"49.1","long":"62.75"}},{"country":"kz","city":"Akparak","coordinates":{"lat":"41.735833","long":"69.644722"}},{"country":"kz","city":"Akpar","coordinates":{"lat":"49.783333","long":"77.35"}},{"country":"kz","city":"Akpas","coordinates":{"lat":"54.666667","long":"69.25"}},{"country":"kz","city":"Akpayer","coordinates":{"lat":"49.766667","long":"76.283333"}},{"country":"kz","city":"Akplot","coordinates":{"lat":"46.783333","long":"50.2"}},{"country":"kz","city":"Akpuka","coordinates":{"lat":"47.865833","long":"47.865833"}},{"country":"kz","city":"Akrab","coordinates":{"lat":"50.562778","long":"55.181111"}},{"country":"kz","city":"Akrabskii","coordinates":{"lat":"50.562778","long":"55.181111"}},{"country":"kz","city":"Akrabskii Plemsovkhoz","coordinates":{"lat":"50.562778","long":"55.181111"}},{"country":"kz","city":"Aksaat","coordinates":{"lat":"50.816667","long":"52.45"}},{"country":"kz","city":"Aksakovka","coordinates":{"lat":"47.133333","long":"81.933333"}},{"country":"kz","city":"Aksakovskoye","coordinates":{"lat":"47.133333","long":"81.933333"}},{"country":"kz","city":"Aksan","coordinates":{"lat":"50.7","long":"75.716667"}},{"country":"kz","city":"Aksaryak","coordinates":{"lat":"49.966667","long":"48.133333"}},{"country":"kz","city":"Aksary","coordinates":{"lat":"50.25","long":"64.3"}},{"country":"kz","city":"Aksary","coordinates":{"lat":"54.3","long":"72.216667"}},{"country":"kz","city":"Aksay","coordinates":{"lat":"43.216667","long":"79.133333"}},{"country":"kz","city":"Ak-Say","coordinates":{"lat":"48.233333","long":"61.266667"}},{"country":"kz","city":"Aksay","coordinates":{"lat":"50.65","long":"55.2"}},{"country":"kz","city":"Aksay","coordinates":{"lat":"51.167778","long":"52.995"}},{"country":"kz","city":"Ak-Say","coordinates":{"lat":"50.247778","long":"65.414444"}},{"country":"kz","city":"Aksay","coordinates":{"lat":"50.375278","long":"66.653056"}},{"country":"kz","city":"Aksay","coordinates":{"lat":"43.366667","long":"70.216667"}},{"country":"kz","city":"Aksayev","coordinates":{"lat":"48.793333","long":"46.885278"}},{"country":"kz","city":"Aksay Pervyy","coordinates":{"lat":"43.564722","long":"76.915278"}},{"country":"kz","city":"Aksengir","coordinates":{"lat":"43.353333","long":"76.826111"}},{"country":"kz","city":"Aksenovka","coordinates":{"lat":"53.208889","long":"67.435833"}},{"country":"kz","city":"Akserke","coordinates":{"lat":"48.333333","long":"51.633333"}},{"country":"kz","city":"Aksha","coordinates":{"lat":"48.516667","long":"50.55"}},{"country":"kz","city":"Akshaganak","coordinates":{"lat":"45.183333","long":"80.05"}},{"country":"kz","city":"Akshakol'","coordinates":{"lat":"53.917222","long":"65.943889"}},{"country":"kz","city":"Akshala","coordinates":{"lat":"47.333333","long":"65.383333"}},{"country":"kz","city":"Ak-Shal","coordinates":{"lat":"48.15","long":"67.8"}},{"country":"kz","city":"Akshal","coordinates":{"lat":"49.5","long":"62.6"}},{"country":"kz","city":"Akshatau","coordinates":{"lat":"49.338056","long":"54.556667"}},{"country":"kz","city":"Akshatau","coordinates":{"lat":"46.016667","long":"61.6"}},{"country":"kz","city":"Akshatau","coordinates":{"lat":"48.144722","long":"80.054722"}},{"country":"kz","city":"Akshatauasty","coordinates":{"lat":"49.338056","long":"54.556667"}},{"country":"kz","city":"Akshatautsy","coordinates":{"lat":"49.338056","long":"54.556667"}},{"country":"kz","city":"Akshi","coordinates":{"lat":"43.99","long":"76.323611"}},{"country":"kz","city":"Akshiganak","coordinates":{"lat":"42.796944","long":"69.195278"}},{"country":"kz","city":"Akshiganak","coordinates":{"lat":"49.208889","long":"62.655556"}},{"country":"kz","city":"Akshikur","coordinates":{"lat":"43.2","long":"70.583333"}},{"country":"kz","city":"Akshilik","coordinates":{"lat":"47.95","long":"54.866667"}},{"country":"kz","city":"Akshimanskiy","coordinates":{"lat":"50.793056","long":"76.735"}},{"country":"kz","city":"Akshimrau","coordinates":{"lat":"44.8","long":"52.833333"}},{"country":"kz","city":"Akshiy","coordinates":{"lat":"43.515","long":"77.6325"}},{"country":"kz","city":"Ak-Shiy","coordinates":{"lat":"51.3","long":"73.683333"}},{"country":"kz","city":"Akshiy","coordinates":{"lat":"49.333333","long":"62.933333"}},{"country":"kz","city":"Akshiy","coordinates":{"lat":"47.934722","long":"80.926944"}},{"country":"kz","city":"Akshkol","coordinates":{"lat":"49.233333","long":"47.15"}},{"country":"kz","city":"Akshoky","coordinates":{"lat":"49.15","long":"75.2"}},{"country":"kz","city":"Akshoky","coordinates":{"lat":"49.066667","long":"77.75"}},{"country":"kz","city":"Akshuak","coordinates":{"lat":"43.2","long":"70.8"}},{"country":"kz","city":"Akshukur","coordinates":{"lat":"43.773333","long":"51.065278"}},{"country":"kz","city":"Akshukyr","coordinates":{"lat":"43.773333","long":"51.065278"}},{"country":"kz","city":"Akshyganak","coordinates":{"lat":"49.286944","long":"62.715556"}},{"country":"kz","city":"Akshynyrau","coordinates":{"lat":"44.8","long":"52.833333"}},{"country":"kz","city":"Aksor","coordinates":{"lat":"51.4","long":"77.9"}},{"country":"kz","city":"Aksoran","coordinates":{"lat":"52.7225","long":"68.546111"}},{"country":"kz","city":"Aksorke","coordinates":{"lat":"48.333333","long":"51.633333"}},{"country":"kz","city":"Aksu","coordinates":{"lat":"45.608611","long":"79.461944"}},{"country":"kz","city":"Aksu","coordinates":{"lat":"52.458611","long":"71.985833"}},{"country":"kz","city":"Aksu","coordinates":{"lat":"50.948889","long":"53.079722"}},{"country":"kz","city":"Aksu","coordinates":{"lat":"42.5","long":"52.666667"}},{"country":"kz","city":"Aksu","coordinates":{"lat":"42.416667","long":"69.833333"}},{"country":"kz","city":"Aksu","coordinates":{"lat":"52.033333","long":"76.916667"}},{"country":"kz","city":"Aksu","coordinates":{"lat":"50.544444","long":"68.547222"}},{"country":"kz","city":"Aksu","coordinates":{"lat":"52.135","long":"62.148611"}},{"country":"kz","city":"Aksu","coordinates":{"lat":"53.471111","long":"66.764722"}},{"country":"kz","city":"Aksu","coordinates":{"lat":"43.248333","long":"74.036944"}},{"country":"kz","city":"Aksuat","coordinates":{"lat":"50.3","long":"61.65"}},{"country":"kz","city":"Aksuat","coordinates":{"lat":"49.605833","long":"48.942778"}},{"country":"kz","city":"Aksuat","coordinates":{"lat":"50.283333","long":"64.033333"}},{"country":"kz","city":"Aksuat","coordinates":{"lat":"45.738056","long":"62.861944"}},{"country":"kz","city":"Aksuat","coordinates":{"lat":"47.762778","long":"82.806389"}},{"country":"kz","city":"Aksuat","coordinates":{"lat":"53.616111","long":"66.562222"}},{"country":"kz","city":"Aksuatskiy","coordinates":{"lat":"53.613889","long":"66.436111"}},{"country":"kz","city":"Aksuat-Tyubinskiy","coordinates":{"lat":"51.216667","long":"51.616667"}},{"country":"kz","city":"Aksu-Ayuly","coordinates":{"lat":"48.766389","long":"73.672222"}},{"country":"kz","city":"Ak-Su-Kenez","coordinates":{"lat":"42.65","long":"68.266667"}},{"country":"kz","city":"Aksumbe","coordinates":{"lat":"44.433333","long":"67.55"}},{"country":"kz","city":"Aksu Novyy","coordinates":{"lat":"50.566667","long":"68.577778"}},{"country":"kz","city":"Aksuskiy","coordinates":{"lat":"52.135","long":"62.148611"}},{"country":"kz","city":"Aksuyek","coordinates":{"lat":"44.627222","long":"74.512778"}},{"country":"kz","city":"Aksuyskaya","coordinates":{"lat":"45.608611","long":"79.461944"}},{"country":"kz","city":"Aksyrak","coordinates":{"lat":"53.916667","long":"64.333333"}},{"country":"kz","city":"Aksyumbe","coordinates":{"lat":"44.433333","long":"67.55"}},{"country":"kz","city":"Ak-Tai-Dzhanysh","coordinates":{"lat":"41.8","long":"69.733333"}},{"country":"kz","city":"Aktam","coordinates":{"lat":"43.443056","long":"79.819167"}},{"country":"kz","city":"Aktan","coordinates":{"lat":"48.233333","long":"53.866667"}},{"country":"kz","city":"Aktas","coordinates":{"lat":"43.385278","long":"77.2325"}},{"country":"kz","city":"Aktas","coordinates":{"lat":"42.2","long":"69.533333"}},{"country":"kz","city":"Aktas","coordinates":{"lat":"49.778889","long":"72.960833"}},{"country":"kz","city":"Aktas","coordinates":{"lat":"52.741944","long":"68.905"}},{"country":"kz","city":"Akta-Say","coordinates":{"lat":"49.661111","long":"53.971944"}},{"country":"kz","city":"Aktasbulak","coordinates":{"lat":"44.05","long":"67.733333"}},{"country":"kz","city":"Ak-Tasty","coordinates":{"lat":"45.166667","long":"78.816667"}},{"country":"kz","city":"Aktasty","coordinates":{"lat":"50.747778","long":"72.205833"}},{"country":"kz","city":"Aktasty","coordinates":{"lat":"50.2","long":"59.816667"}},{"country":"kz","city":"Aktasty","coordinates":{"lat":"50.153889","long":"76.657222"}},{"country":"kz","city":"Aktas Vtoroy","coordinates":{"lat":"48.054167","long":"66.381944"}},{"country":"kz","city":"Aktau","coordinates":{"lat":"48.9","long":"52.916667"}},{"country":"kz","city":"Aktau","coordinates":{"lat":"50.9","long":"53.483333"}},{"country":"kz","city":"Aktau","coordinates":{"lat":"43.65","long":"51.2"}},{"country":"kz","city":"Aktau","coordinates":{"lat":"50.236667","long":"73.062778"}},{"country":"kz","city":"Aktauskiy","coordinates":{"lat":"43.65","long":"51.2"}},{"country":"kz","city":"Ak-Tay-Dzhanysh","coordinates":{"lat":"41.8","long":"69.733333"}},{"country":"kz","city":"Aktaylak","coordinates":{"lat":"51.033333","long":"78.2"}},{"country":"kz","city":"Aktaysay","coordinates":{"lat":"49.661111","long":"53.971944"}},{"country":"kz","city":"Akterek","coordinates":{"lat":"43.271389","long":"75.488889"}},{"country":"kz","city":"Akterek","coordinates":{"lat":"43.366667","long":"75.3"}},{"country":"kz","city":"Aktiubinsk","coordinates":{"lat":"50.298056","long":"57.181389"}},{"country":"kz","city":"Aktiv","coordinates":{"lat":"45.233333","long":"64.366667"}},{"country":"kz","city":"Aktobe","coordinates":{"lat":"43.983333","long":"78.8"}},{"country":"kz","city":"Aktobe","coordinates":{"lat":"50.7","long":"71.45"}},{"country":"kz","city":"Aktobe","coordinates":{"lat":"50.298056","long":"57.181389"}},{"country":"kz","city":"Aktobe","coordinates":{"lat":"43.833333","long":"52.816667"}},{"country":"kz","city":"Aktobe","coordinates":{"lat":"42.8","long":"68.716667"}},{"country":"kz","city":"Aktobe","coordinates":{"lat":"49.899444","long":"72.423056"}},{"country":"kz","city":"Aktobe","coordinates":{"lat":"52.916667","long":"62.366667"}},{"country":"kz","city":"Aktobe","coordinates":{"lat":"43.793611","long":"67.64"}},{"country":"kz","city":"Aktobe","coordinates":{"lat":"43.466667","long":"70.4"}},{"country":"kz","city":"Aktogan","coordinates":{"lat":"44.233333","long":"66.666667"}},{"country":"kz","city":"Aktogay","coordinates":{"lat":"44.416667","long":"76.733333"}},{"country":"kz","city":"Aktogay","coordinates":{"lat":"48.5","long":"59.066667"}},{"country":"kz","city":"Aktogay","coordinates":{"lat":"48.166667","long":"75.3"}},{"country":"kz","city":"Aktogay","coordinates":{"lat":"46.95","long":"79.666667"}},{"country":"kz","city":"Ak-Tostö","coordinates":{"lat":"45.166667","long":"78.816667"}},{"country":"kz","city":"Aktubek","coordinates":{"lat":"48.576389","long":"71.125"}},{"country":"kz","city":"Aktubinsk","coordinates":{"lat":"50.298056","long":"57.181389"}},{"country":"kz","city":"Aktuma","coordinates":{"lat":"45.083333","long":"78.666667"}},{"country":"kz","city":"Aktuma","coordinates":{"lat":"48.183333","long":"67.266667"}},{"country":"kz","city":"Ak-Tumsuk","coordinates":{"lat":"51.366667","long":"78.966667"}},{"country":"kz","city":"Aktumsyk","coordinates":{"lat":"46.659444","long":"57.33"}},{"country":"kz","city":"Aktussay","coordinates":{"lat":"53.928333","long":"72.649722"}},{"country":"kz","city":"Aktuyesay","coordinates":{"lat":"53.928333","long":"72.649722"}},{"country":"kz","city":"Aktyma","coordinates":{"lat":"43.833333","long":"68.9"}},{"country":"kz","city":"Aktyma","coordinates":{"lat":"48.183333","long":"67.266667"}},{"country":"kz","city":"Aktyme","coordinates":{"lat":"43.833333","long":"68.9"}},{"country":"kz","city":"Aktysay","coordinates":{"lat":"53.928333","long":"72.649722"}},{"country":"kz","city":"Aktyuba","coordinates":{"lat":"46.65","long":"49.333333"}},{"country":"kz","city":"Aktyube","coordinates":{"lat":"45.233333","long":"79.666667"}},{"country":"kz","city":"Ak-Tyube","coordinates":{"lat":"50.7","long":"71.45"}},{"country":"kz","city":"Aktyube","coordinates":{"lat":"46.65","long":"49.333333"}},{"country":"kz","city":"Aktyube","coordinates":{"lat":"43.833333","long":"52.816667"}},{"country":"kz","city":"Ak-Tyube","coordinates":{"lat":"42.8","long":"68.716667"}},{"country":"kz","city":"Ak-Tyube","coordinates":{"lat":"51.9","long":"78.666667"}},{"country":"kz","city":"Aktyube","coordinates":{"lat":"48.576389","long":"71.125"}},{"country":"kz","city":"Ak-Tyube","coordinates":{"lat":"49.899444","long":"72.423056"}},{"country":"kz","city":"Aktyube","coordinates":{"lat":"52.916667","long":"62.366667"}},{"country":"kz","city":"Ak-Tyube","coordinates":{"lat":"44.116667","long":"66.833333"}},{"country":"kz","city":"Aktyubek","coordinates":{"lat":"50.221389","long":"69.476944"}},{"country":"kz","city":"Aktyubek","coordinates":{"lat":"48.576389","long":"71.125"}},{"country":"kz","city":"Ak-Tyubek","coordinates":{"lat":"50.3","long":"71.483333"}},{"country":"kz","city":"Aktyubek","coordinates":{"lat":"49.383333","long":"63.383333"}},{"country":"kz","city":"Aktyubinsk","coordinates":{"lat":"50.298056","long":"57.181389"}},{"country":"kz","city":"Akul'kstav","coordinates":{"lat":"48.55","long":"48.416667"}},{"country":"kz","city":"Akulovka","coordinates":{"lat":"49.369444","long":"85.070833"}},{"country":"kz","city":"Ak-Utkel'","coordinates":{"lat":"50.033333","long":"62.9"}},{"country":"kz","city":"Ak-Uzyak","coordinates":{"lat":"49.1","long":"62.75"}},{"country":"kz","city":"Akyrap","coordinates":{"lat":"50.562778","long":"55.181111"}},{"country":"kz","city":"Akyrtobe","coordinates":{"lat":"42.986667","long":"72.114444"}},{"country":"kz","city":"Akyr-Tyube","coordinates":{"lat":"42.986667","long":"72.114444"}},{"country":"kz","city":"Akzhaik","coordinates":{"lat":"50.666667","long":"51.583333"}},{"country":"kz","city":"Akzhal","coordinates":{"lat":"47.764444","long":"74.034722"}},{"country":"kz","city":"Akzhal","coordinates":{"lat":"49.218333","long":"81.421944"}},{"country":"kz","city":"Akzhana","coordinates":{"lat":"45.85","long":"61.716667"}},{"country":"kz","city":"Akzhan","coordinates":{"lat":"53.801111","long":"66.699722"}},{"country":"kz","city":"Akzhanovka","coordinates":{"lat":"53.004444","long":"66.971667"}},{"country":"kz","city":"Akzhar","coordinates":{"lat":"45.733333","long":"80.266667"}},{"country":"kz","city":"Akzhar","coordinates":{"lat":"51.339167","long":"72.283611"}},{"country":"kz","city":"Akzhar","coordinates":{"lat":"49.183333","long":"56.866667"}},{"country":"kz","city":"Akzhar","coordinates":{"lat":"50.383333","long":"53.983333"}},{"country":"kz","city":"Akzhar","coordinates":{"lat":"41.605","long":"69.346389"}},{"country":"kz","city":"Akzhar","coordinates":{"lat":"51.916667","long":"74.8"}},{"country":"kz","city":"Akzhar","coordinates":{"lat":"49.7","long":"73.383333"}},{"country":"kz","city":"Akzhar","coordinates":{"lat":"50.615","long":"63.021667"}},{"country":"kz","city":"Akzhar","coordinates":{"lat":"45.086111","long":"64.075556"}},{"country":"kz","city":"Akzhar","coordinates":{"lat":"47.579722","long":"83.698056"}},{"country":"kz","city":"Akzhar","coordinates":{"lat":"43.136944","long":"71.642222"}},{"country":"kz","city":"Akzharma","coordinates":{"lat":"44.783333","long":"64.75"}},{"country":"kz","city":"Akzharskiy","coordinates":{"lat":"51.339167","long":"72.283611"}},{"country":"kz","city":"Akzharyk","coordinates":{"lat":"48.568611","long":"75.481111"}},{"country":"kz","city":"Akzhaylau","coordinates":{"lat":"47.466667","long":"82"}},{"country":"kz","city":"Ak-Zhaylyau","coordinates":{"lat":"47.883333","long":"81.45"}},{"country":"kz","city":"Akzhigit","coordinates":{"lat":"45.083333","long":"55.616667"}},{"country":"kz","city":"Ak-Zhol","coordinates":{"lat":"50","long":"57.1"}},{"country":"kz","city":"Akzhol","coordinates":{"lat":"49.691389","long":"75.581111"}},{"country":"kz","city":"Ala-Aguly","coordinates":{"lat":"54.2","long":"76.1"}},{"country":"kz","city":"Alabas","coordinates":{"lat":"49.7","long":"72.916667"}},{"country":"kz","city":"Alabaytal","coordinates":{"lat":"50.166667","long":"60.666667"}},{"country":"kz","city":"Alabaytal","coordinates":{"lat":"50.633333","long":"50.45"}},{"country":"kz","city":"Alabidaik","coordinates":{"lat":"49.156667","long":"65.100556"}},{"country":"kz","city":"Alabiye","coordinates":{"lat":"47.916667","long":"53.45"}},{"country":"kz","city":"Alabiye","coordinates":{"lat":"54.109444","long":"68.235833"}},{"country":"kz","city":"Alabota","coordinates":{"lat":"53.798889","long":"70.972778"}},{"country":"kz","city":"Alakol'","coordinates":{"lat":"46.35","long":"81.3"}},{"country":"kz","city":"Alakol'","coordinates":{"lat":"49.645","long":"53.770556"}},{"country":"kz","city":"Alakol'","coordinates":{"lat":"41.438056","long":"68.129444"}},{"country":"kz","city":"Alaköl","coordinates":{"lat":"54.019167","long":"75.927778"}},{"country":"kz","city":"Alakol'","coordinates":{"lat":"54.2","long":"76.1"}},{"country":"kz","city":"Alakol'","coordinates":{"lat":"49.316667","long":"62.933333"}},{"country":"kz","city":"Alakol'","coordinates":{"lat":"53.606667","long":"70.553056"}},{"country":"kz","city":"Ala-Kul'","coordinates":{"lat":"49.316667","long":"62.933333"}},{"country":"kz","city":"Alam","coordinates":{"lat":"51.9","long":"78.133333"}},{"country":"kz","city":"Alaman","coordinates":{"lat":"49.133333","long":"51.133333"}},{"country":"kz","city":"Alaman","coordinates":{"lat":"41.924722","long":"69.730556"}},{"country":"kz","city":"Alamesek","coordinates":{"lat":"44.833333","long":"64.666667"}},{"country":"kz","city":"Alasha-Kazgan","coordinates":{"lat":"47.533333","long":"55.316667"}},{"country":"kz","city":"Alasor","coordinates":{"lat":"51.25","long":"62.85"}},{"country":"kz","city":"Alatau","coordinates":{"lat":"43.3575","long":"77.144444"}},{"country":"kz","city":"Alatay","coordinates":{"lat":"48","long":"48.1"}},{"country":"kz","city":"Alatay","coordinates":{"lat":"53.966667","long":"67.55"}},{"country":"kz","city":"Alatinskaya","coordinates":{"lat":"48.75","long":"48.433333"}},{"country":"kz","city":"Alautar","coordinates":{"lat":"49.383333","long":"48.033333"}},{"country":"kz","city":"Albar-Bugut","coordinates":{"lat":"49.783333","long":"64.166667"}},{"country":"kz","city":"Al'by","coordinates":{"lat":"47.916667","long":"53.45"}},{"country":"kz","city":"Al'dzhan-adyrovskaya","coordinates":{"lat":"48.833333","long":"80.333333"}},{"country":"kz","city":"Alebastr","coordinates":{"lat":"49.883333","long":"82.35"}},{"country":"kz","city":"Alebastrovyy","coordinates":{"lat":"51.390278","long":"52.348611"}},{"country":"kz","city":"Alekb","coordinates":{"lat":"48.1","long":"50"}},{"country":"kz","city":"Aleksandrovka","coordinates":{"lat":"43.447222","long":"77.330556"}},{"country":"kz","city":"Aleksandrovka","coordinates":{"lat":"51.078333","long":"71.761944"}},{"country":"kz","city":"Aleksandrovka","coordinates":{"lat":"50.806389","long":"52.969167"}},{"country":"kz","city":"Aleksandrovka","coordinates":{"lat":"42.166667","long":"69.866667"}},{"country":"kz","city":"Aleksandrovka","coordinates":{"lat":"50.965556","long":"75.637222"}},{"country":"kz","city":"Aleksandrovka","coordinates":{"lat":"53.548056","long":"63.8675"}},{"country":"kz","city":"Aleksandrovka","coordinates":{"lat":"48.45","long":"86.05"}},{"country":"kz","city":"Aleksandrovka","coordinates":{"lat":"53.103056","long":"69.853333"}},{"country":"kz","city":"Aleksandrovo-Nevskiy","coordinates":{"lat":"49.433333","long":"81.7"}},{"country":"kz","city":"Aleksandrovsk","coordinates":{"lat":"50.965556","long":"75.637222"}},{"country":"kz","city":"Aleksandrovski","coordinates":{"lat":"44.920556","long":"65.373889"}},{"country":"kz","city":"Aleksandrovskiy","coordinates":{"lat":"51.078333","long":"71.761944"}},{"country":"kz","city":"Aleksandrovskiy","coordinates":{"lat":"50.583333","long":"57.55"}},{"country":"kz","city":"Aleksandrovskiy","coordinates":{"lat":"52.316667","long":"78.7"}},{"country":"kz","city":"Aleksandrovskiy","coordinates":{"lat":"53.548056","long":"63.8675"}},{"country":"kz","city":"Aleksandrovskiy","coordinates":{"lat":"44.920556","long":"65.373889"}},{"country":"kz","city":"Aleksandrovskiy","coordinates":{"lat":"49.733333","long":"83.333333"}},{"country":"kz","city":"Aleksandrovskiy Zavod","coordinates":{"lat":"50.983333","long":"75.6"}},{"country":"kz","city":"Aleksandrovskoye","coordinates":{"lat":"42.933333","long":"75.5"}},{"country":"kz","city":"Aleksandrovskoye","coordinates":{"lat":"51.078333","long":"71.761944"}},{"country":"kz","city":"Aleksandrovskoye","coordinates":{"lat":"53.548056","long":"63.8675"}},{"country":"kz","city":"Aleksandrovskoye","coordinates":{"lat":"53.103056","long":"69.853333"}},{"country":"kz","city":"Alekseev","coordinates":{"lat":"51.997778","long":"70.934167"}},{"country":"kz","city":"Alekseevka","coordinates":{"lat":"51.997778","long":"70.934167"}},{"country":"kz","city":"Alekseevka","coordinates":{"lat":"50.725278","long":"75.090556"}},{"country":"kz","city":"Alekseevka","coordinates":{"lat":"47.250833","long":"81.557222"}},{"country":"kz","city":"Alekseevka","coordinates":{"lat":"53.510833","long":"69.515278"}},{"country":"kz","city":"Alekseevka","coordinates":{"lat":"42.716667","long":"70.333333"}},{"country":"kz","city":"Alekseevskoe","coordinates":{"lat":"43.866667","long":"73.633333"}},{"country":"kz","city":"Alekseyevka","coordinates":{"lat":"43.402778","long":"77.225"}},{"country":"kz","city":"Alekseyevka","coordinates":{"lat":"51.997778","long":"70.934167"}},{"country":"kz","city":"Alekseyevka","coordinates":{"lat":"50.371389","long":"55.65"}},{"country":"kz","city":"Alekseyevka","coordinates":{"lat":"50.966667","long":"52.416667"}},{"country":"kz","city":"Alekseyevka","coordinates":{"lat":"50.725278","long":"75.090556"}},{"country":"kz","city":"Alekseyevka","coordinates":{"lat":"52.958611","long":"63.093333"}},{"country":"kz","city":"Alekseyevka","coordinates":{"lat":"47.250833","long":"81.557222"}},{"country":"kz","city":"Alekseyevka","coordinates":{"lat":"53.510833","long":"69.515278"}},{"country":"kz","city":"Alekseyevka","coordinates":{"lat":"42.716667","long":"70.333333"}},{"country":"kz","city":"Alekseyevskiy","coordinates":{"lat":"50.725278","long":"75.090556"}},{"country":"kz","city":"Alekseyevskiy","coordinates":{"lat":"52.958611","long":"63.093333"}},{"country":"kz","city":"Alekseyevskiy","coordinates":{"lat":"49.683333","long":"81.5"}},{"country":"kz","city":"Alekseyevskoye","coordinates":{"lat":"51.997778","long":"70.934167"}},{"country":"kz","city":"Alekseyevskoye","coordinates":{"lat":"53.510833","long":"69.515278"}},{"country":"kz","city":"Alekseyevskoye","coordinates":{"lat":"43.866667","long":"73.633333"}},{"country":"kz","city":"Alep","coordinates":{"lat":"49.8","long":"72.2"}},{"country":"kz","city":"Alepaul","coordinates":{"lat":"49.8","long":"72.2"}},{"country":"kz","city":"Alëshinka","coordinates":{"lat":"53.866667","long":"63.75"}},{"country":"kz","city":"Aleshinskiy","coordinates":{"lat":"53.866667","long":"63.75"}},{"country":"kz","city":"Aletinskiy","coordinates":{"lat":"52.46","long":"67.185833"}},{"country":"kz","city":"Alga","coordinates":{"lat":"43.445","long":"77.173056"}},{"country":"kz","city":"Alga","coordinates":{"lat":"49.3","long":"56.8"}},{"country":"kz","city":"Alga","coordinates":{"lat":"52.383333","long":"77.75"}},{"country":"kz","city":"Algabas","coordinates":{"lat":"42.833333","long":"79.916667"}},{"country":"kz","city":"Algabas","coordinates":{"lat":"51.360556","long":"73.183611"}},{"country":"kz","city":"Algabas","coordinates":{"lat":"47.95","long":"48.033333"}},{"country":"kz","city":"Algabas","coordinates":{"lat":"49.833333","long":"46.9"}},{"country":"kz","city":"Algabas","coordinates":{"lat":"40.804167","long":"68.35"}},{"country":"kz","city":"Algabas","coordinates":{"lat":"48.683333","long":"71.566667"}},{"country":"kz","city":"Alga-Bas","coordinates":{"lat":"49.5","long":"69.433333"}},{"country":"kz","city":"Algabas","coordinates":{"lat":"49.85","long":"76.916667"}},{"country":"kz","city":"Algabas","coordinates":{"lat":"49.666667","long":"63.85"}},{"country":"kz","city":"Algabas","coordinates":{"lat":"44.283333","long":"66.716667"}},{"country":"kz","city":"Algabas","coordinates":{"lat":"48.35","long":"81.65"}},{"country":"kz","city":"Algabas","coordinates":{"lat":"53.252222","long":"66.953056"}},{"country":"kz","city":"Algabas","coordinates":{"lat":"43.679167","long":"71.149444"}},{"country":"kz","city":"Algatart","coordinates":{"lat":"43.75","long":"73.566667"}},{"country":"kz","city":"Algazy","coordinates":{"lat":"46.55","long":"76.866667"}},{"country":"kz","city":"Algha","coordinates":{"lat":"49.902778","long":"57.335"}},{"country":"kz","city":"Alghabas","coordinates":{"lat":"43.254722","long":"76.801389"}},{"country":"kz","city":"Alghabas","coordinates":{"lat":"50.663889","long":"52.104722"}},{"country":"kz","city":"Alginskiy","coordinates":{"lat":"49.566667","long":"48.2"}},{"country":"kz","city":"Ali","coordinates":{"lat":"43.564167","long":"77.030278"}},{"country":"kz","city":"Alibay","coordinates":{"lat":"49.265","long":"84.241111"}},{"country":"kz","city":"Alibi","coordinates":{"lat":"49.156667","long":"65.100556"}},{"country":"kz","city":"Alimbek","coordinates":{"lat":"49.687778","long":"49.973056"}},{"country":"kz","city":"Älimbet","coordinates":{"lat":"50.991944","long":"58.427778"}},{"country":"kz","city":"Alimbetovka","coordinates":{"lat":"50.991944","long":"58.427778"}},{"country":"kz","city":"Alimkhan","coordinates":{"lat":"51.083333","long":"78.85"}},{"country":"kz","city":"Alimsere","coordinates":{"lat":"53.1","long":"73.516667"}},{"country":"kz","city":"Alimtau","coordinates":{"lat":"41.700278","long":"68.412778"}},{"country":"kz","city":"Alimzhanov","coordinates":{"lat":"43.402778","long":"77.061111"}},{"country":"kz","city":"Aliy","coordinates":{"lat":"43.564167","long":"77.030278"}},{"country":"kz","city":"Alkaagash","coordinates":{"lat":"53.810556","long":"67.592778"}},{"country":"kz","city":"Alka","coordinates":{"lat":"54.263889","long":"68.813056"}},{"country":"kz","city":"Alkaly","coordinates":{"lat":"45.433333","long":"79.266667"}},{"country":"kz","city":"Alkan-Togay","coordinates":{"lat":"48.366667","long":"57.866667"}},{"country":"kz","city":"Alkaterek","coordinates":{"lat":"53.451111","long":"71.245833"}},{"country":"kz","city":"Alkym","coordinates":{"lat":"50.486667","long":"69.486944"}},{"country":"kz","city":"Almaarasan","coordinates":{"lat":"43.066667","long":"76.916667"}},{"country":"kz","city":"Alma-Ata","coordinates":{"lat":"43.25","long":"76.95"}},{"country":"kz","city":"Alma-Atinskiy","coordinates":{"lat":"51.531111","long":"65.79"}},{"country":"kz","city":"Almaly","coordinates":{"lat":"44.266667","long":"80.333333"}},{"country":"kz","city":"Al'manbyuruk","coordinates":{"lat":"46.583333","long":"48.716667"}},{"country":"kz","city":"Almas","coordinates":{"lat":"50.363889","long":"69.799167"}},{"country":"kz","city":"Almasay","coordinates":{"lat":"49.788889","long":"82.45"}},{"country":"kz","city":"Almaty","coordinates":{"lat":"43.25","long":"76.95"}},{"country":"kz","city":"Almaznoe","coordinates":{"lat":"50.248333","long":"54.280278"}},{"country":"kz","city":"Almaznoye","coordinates":{"lat":"50.248333","long":"54.280278"}},{"country":"kz","city":"Almazny","coordinates":{"lat":"50.248333","long":"54.280278"}},{"country":"kz","city":"Almaznyy","coordinates":{"lat":"50.248333","long":"54.280278"}},{"country":"kz","city":"Al'mene","coordinates":{"lat":"51.216667","long":"71.8"}},{"country":"kz","city":"Al'paysay","coordinates":{"lat":"50.233333","long":"56.209722"}},{"country":"kz","city":"Alpsatar","coordinates":{"lat":"48.016667","long":"80.333333"}},{"country":"kz","city":"Alpyspay","coordinates":{"lat":"50.233333","long":"56.209722"}},{"country":"kz","city":"Alqaterek","coordinates":{"lat":"53.451111","long":"71.245833"}},{"country":"kz","city":"Alseid","coordinates":{"lat":"41.466667","long":"69.116667"}},{"country":"kz","city":"Al'shanka","coordinates":{"lat":"53.190556","long":"65.656944"}},{"country":"kz","city":"Alshimbay","coordinates":{"lat":"49.95","long":"59.016667"}},{"country":"kz","city":"Alshimbay","coordinates":{"lat":"40.816667","long":"68.15"}},{"country":"kz","city":"Al'shin","coordinates":{"lat":"51.183333","long":"78.633333"}},{"country":"kz","city":"Al'-Syt","coordinates":{"lat":"46.616667","long":"49.1"}},{"country":"kz","city":"Alta-Apan","coordinates":{"lat":"50.25","long":"53.1"}},{"country":"kz","city":"Altandy","coordinates":{"lat":"49.283333","long":"75.616667"}},{"country":"kz","city":"Altayak","coordinates":{"lat":"50.883333","long":"51.333333"}},{"country":"kz","city":"Altay","coordinates":{"lat":"48.830833","long":"84.609167"}},{"country":"kz","city":"Altayka","coordinates":{"lat":"49.516667","long":"83.816667"}},{"country":"kz","city":"Altayskaya","coordinates":{"lat":"49.179444","long":"85.602222"}},{"country":"kz","city":"Altayskiy","coordinates":{"lat":"50.249167","long":"82.353333"}},{"country":"kz","city":"Altayskoye","coordinates":{"lat":"51.6225","long":"70.775833"}},{"country":"kz","city":"Altayskoye","coordinates":{"lat":"49.183333","long":"85.6"}},{"country":"kz","city":"Alteke","coordinates":{"lat":"49.85","long":"47.933333"}},{"country":"kz","city":"Altin-Emel","coordinates":{"lat":"44.335833","long":"78.440556"}},{"country":"kz","city":"Alton-Emel'","coordinates":{"lat":"44.335833","long":"78.440556"}},{"country":"kz","city":"Altyapan","coordinates":{"lat":"50.25","long":"53.1"}},{"country":"kz","city":"Altybay","coordinates":{"lat":"49.144444","long":"64.276389"}},{"country":"kz","city":"Altybay","coordinates":{"lat":"50.916667","long":"78.55"}},{"country":"kz","city":"Altybay","coordinates":{"lat":"53.406944","long":"69.306111"}},{"country":"kz","city":"Altyguz","coordinates":{"lat":"49.75","long":"57.383333"}},{"country":"kz","city":"Altykarasu","coordinates":{"lat":"49.2","long":"55.871111"}},{"country":"kz","city":"Altykiben","coordinates":{"lat":"50.183333","long":"61.866667"}},{"country":"kz","city":"Altykol'","coordinates":{"lat":"47.083333","long":"53.733333"}},{"country":"kz","city":"Altyn-Aryk","coordinates":{"lat":"41.9","long":"69.533333"}},{"country":"kz","city":"Altynbay","coordinates":{"lat":"49.144444","long":"64.276389"}},{"country":"kz","city":"Altynbulak","coordinates":{"lat":"52.735278","long":"68.342222"}},{"country":"kz","city":"Altyndy","coordinates":{"lat":"48.945278","long":"58.686111"}},{"country":"kz","city":"Altynemel","coordinates":{"lat":"44.335833","long":"78.440556"}},{"country":"kz","city":"Altyn-Emel'skaya","coordinates":{"lat":"44.335833","long":"78.440556"}},{"country":"kz","city":"Altynsarin","coordinates":{"lat":"50.764722","long":"64.223056"}},{"country":"kz","city":"Altynsarino","coordinates":{"lat":"50.764722","long":"64.223056"}},{"country":"kz","city":"Altynsay","coordinates":{"lat":"49.685556","long":"84.151944"}},{"country":"kz","city":"Altyntau","coordinates":{"lat":"44.133333","long":"68.05"}},{"country":"kz","city":"Altyntobe","coordinates":{"lat":"41.8625","long":"69.685556"}},{"country":"kz","city":"Altyqarasu","coordinates":{"lat":"49.2","long":"55.871111"}},{"country":"kz","city":"Alua","coordinates":{"lat":"50.966667","long":"71.116667"}},{"country":"kz","city":"Alua","coordinates":{"lat":"49.3","long":"56.8"}},{"country":"kz","city":"Alua","coordinates":{"lat":"50.018333","long":"66.208889"}},{"country":"kz","city":"Al'va","coordinates":{"lat":"54.361389","long":"71.1875"}},{"country":"kz","city":"Alyp","coordinates":{"lat":"51.186111","long":"66.840556"}},{"country":"kz","city":"Alyskol'","coordinates":{"lat":"53.1","long":"63.883333"}},{"country":"kz","city":"Al'zhan","coordinates":{"lat":"48.833333","long":"80.333333"}},{"country":"kz","city":"Al'zhanka","coordinates":{"lat":"53.063889","long":"68.643333"}},{"country":"kz","city":"Alzhibay","coordinates":{"lat":"49.691667","long":"48.685"}},{"country":"kz","city":"Amakkol'","coordinates":{"lat":"48.55","long":"61.4"}},{"country":"kz","city":"Amancha-Shalach","coordinates":{"lat":"48.35","long":"46.85"}},{"country":"kz","city":"Amancha Shalash","coordinates":{"lat":"48.35","long":"46.85"}},{"country":"kz","city":"Amandy","coordinates":{"lat":"53.466389","long":"70.403889"}},{"country":"kz","city":"Amandyk","coordinates":{"lat":"53.466389","long":"70.403889"}},{"country":"kz","city":"Amandyq","coordinates":{"lat":"53.466389","long":"70.403889"}},{"country":"kz","city":"Amangeldi","coordinates":{"lat":"50.534444","long":"62.286389"}},{"country":"kz","city":"Amangeldi","coordinates":{"lat":"51.168333","long":"53.513333"}},{"country":"kz","city":"Amangeldi","coordinates":{"lat":"53.561389","long":"73.845556"}},{"country":"kz","city":"Amangeldi","coordinates":{"lat":"50.18","long":"65.190556"}},{"country":"kz","city":"Amangeldi","coordinates":{"lat":"43.708611","long":"71.101389"}},{"country":"kz","city":"Amangeldin","coordinates":{"lat":"50.18","long":"65.190556"}},{"country":"kz","city":"Amangel'dinskiy","coordinates":{"lat":"52.355833","long":"65.044167"}},{"country":"kz","city":"Amangel'dinskiy","coordinates":{"lat":"54.354444","long":"68.3425"}},{"country":"kz","city":"Amangel'dinskoye","coordinates":{"lat":"54.354444","long":"68.3425"}},{"country":"kz","city":"Amangel'dy","coordinates":{"lat":"43.102778","long":"76.005833"}},{"country":"kz","city":"Amangel'dy","coordinates":{"lat":"51.5025","long":"67.659167"}},{"country":"kz","city":"Amangeldy","coordinates":{"lat":"47.216667","long":"55.883333"}},{"country":"kz","city":"Amangel'dy","coordinates":{"lat":"49.897222","long":"59.033611"}},{"country":"kz","city":"Amangel'dy","coordinates":{"lat":"47.05","long":"54.233333"}},{"country":"kz","city":"Amangel'dy","coordinates":{"lat":"50.975833","long":"49.933333"}},{"country":"kz","city":"Amangel'dy","coordinates":{"lat":"41.378889","long":"68.9225"}},{"country":"kz","city":"Amangel'dy","coordinates":{"lat":"53.319167","long":"75.765556"}},{"country":"kz","city":"Amangel'dy","coordinates":{"lat":"50.18","long":"65.190556"}},{"country":"kz","city":"Amangel'dy","coordinates":{"lat":"48.083333","long":"82.666667"}},{"country":"kz","city":"Amangel'dy","coordinates":{"lat":"53.826111","long":"73.328056"}},{"country":"kz","city":"Amangel'dy","coordinates":{"lat":"43.708611","long":"71.101389"}},{"country":"kz","city":"Amankaragay","coordinates":{"lat":"52.402778","long":"64.091944"}},{"country":"kz","city":"Amankeldi","coordinates":{"lat":"53.826111","long":"73.328056"}},{"country":"kz","city":"Amankeldy","coordinates":{"lat":"50.18","long":"65.190556"}},{"country":"kz","city":"Amankol'","coordinates":{"lat":"48.55","long":"61.416667"}},{"country":"kz","city":"Amankul'","coordinates":{"lat":"48.55","long":"61.416667"}},{"country":"kz","city":"Amanotkel'","coordinates":{"lat":"46.118333","long":"61.544167"}},{"country":"kz","city":"Amanötkel","coordinates":{"lat":"46.118333","long":"61.544167"}},{"country":"kz","city":"Amanqaraghay","coordinates":{"lat":"52.402778","long":"64.091944"}},{"country":"kz","city":"Amantau","coordinates":{"lat":"49.501667","long":"70.858611"}},{"country":"kz","city":"Amantayskaya","coordinates":{"lat":"51.788333","long":"69.153056"}},{"country":"kz","city":"Amantobe","coordinates":{"lat":"43.1","long":"70.733333"}},{"country":"kz","city":"Amantogay","coordinates":{"lat":"50.432222","long":"65.6375"}},{"country":"kz","city":"Amantoghay","coordinates":{"lat":"50.432222","long":"65.6375"}},{"country":"kz","city":"Amantokel'","coordinates":{"lat":"46.118333","long":"61.544167"}},{"country":"kz","city":"Aman-Tyube","coordinates":{"lat":"43.1","long":"70.733333"}},{"country":"kz","city":"Amanutkol'","coordinates":{"lat":"46.118333","long":"61.544167"}},{"country":"kz","city":"Aman-Utkul'","coordinates":{"lat":"46.118333","long":"61.544167"}},{"country":"kz","city":"Amanzhol","coordinates":{"lat":"49.466667","long":"80.383333"}},{"country":"kz","city":"Amarkan","coordinates":{"lat":"51.233333","long":"78.533333"}},{"country":"kz","city":"Amba","coordinates":{"lat":"48.826389","long":"58.144167"}},{"country":"kz","city":"Ambay","coordinates":{"lat":"49.716667","long":"48.7"}},{"country":"kz","city":"Ambray","coordinates":{"lat":"48.266667","long":"81.716667"}},{"country":"kz","city":"Amurzak","coordinates":{"lat":"49.616667","long":"72.25"}},{"country":"kz","city":"Anaas","coordinates":{"lat":"41.714167","long":"69.325556"}},{"country":"kz","city":"Ananovka","coordinates":{"lat":"52.536389","long":"63.200278"}},{"country":"kz","city":"Anan'yevka","coordinates":{"lat":"53.444444","long":"65.992222"}},{"country":"kz","city":"Anan'yevka","coordinates":{"lat":"53.918611","long":"66.219167"}},{"country":"kz","city":"Anan'yevskiy","coordinates":{"lat":"50.216667","long":"58.5"}},{"country":"kz","city":"Anar","coordinates":{"lat":"50.665278","long":"72.390278"}},{"country":"kz","city":"Anastas'evka","coordinates":{"lat":"50.880833","long":"58.508611"}},{"country":"kz","city":"Anastas'yevka","coordinates":{"lat":"50.880833","long":"58.508611"}},{"country":"kz","city":"Anastas'yevka","coordinates":{"lat":"52.934444","long":"64.563889"}},{"country":"kz","city":"Anastas'yevskiy","coordinates":{"lat":"52.934444","long":"64.563889"}},{"country":"kz","city":"Anatoliyevka","coordinates":{"lat":"53.033333","long":"64.633333"}},{"country":"kz","city":"Anatol'yevka","coordinates":{"lat":"43.5","long":"77.8"}},{"country":"kz","city":"Anatol'yevskoye","coordinates":{"lat":"43.5","long":"77.8"}},{"country":"kz","city":"Andagay","coordinates":{"lat":"53.125","long":"67.301389"}},{"country":"kz","city":"Andagul","coordinates":{"lat":"53.125","long":"67.301389"}},{"country":"kz","city":"Andaral","coordinates":{"lat":"46.55","long":"48.8"}},{"country":"kz","city":"Andreevka","coordinates":{"lat":"52.998889","long":"67.383889"}},{"country":"kz","city":"Andreyev","coordinates":{"lat":"49.85","long":"51.2"}},{"country":"kz","city":"Andreyevka","coordinates":{"lat":"44.95","long":"80.316667"}},{"country":"kz","city":"Andreyevka","coordinates":{"lat":"51.670833","long":"70.410833"}},{"country":"kz","city":"Andreyevka","coordinates":{"lat":"50.9","long":"57.101111"}},{"country":"kz","city":"Andreyevka","coordinates":{"lat":"53.455278","long":"62.861944"}},{"country":"kz","city":"Andreyevka","coordinates":{"lat":"49.524167","long":"84.471111"}},{"country":"kz","city":"Andreyevka","coordinates":{"lat":"52.998889","long":"67.383889"}},{"country":"kz","city":"Andreyevka","coordinates":{"lat":"42.516667","long":"70.95"}},{"country":"kz","city":"Andreyevskiy","coordinates":{"lat":"50.9","long":"57.133333"}},{"country":"kz","city":"Andreyevskiy","coordinates":{"lat":"40.966667","long":"68.283333"}},{"country":"kz","city":"Andreyevskiy","coordinates":{"lat":"53.455278","long":"62.861944"}},{"country":"kz","city":"Andreyevskiy","coordinates":{"lat":"54.656389","long":"68.355"}},{"country":"kz","city":"Andreyevskoye","coordinates":{"lat":"52.998889","long":"67.383889"}},{"country":"kz","city":"Andrianovka","coordinates":{"lat":"52.808889","long":"75.137222"}},{"country":"kz","city":"Andrianovskiy","coordinates":{"lat":"52.808889","long":"75.137222"}},{"country":"kz","city":"Androkovskiy","coordinates":{"lat":"51.733333","long":"64.916667"}},{"country":"kz","city":"Andronnikovka","coordinates":{"lat":"50.15","long":"72.75"}},{"country":"kz","city":"Andronnikovskoye","coordinates":{"lat":"50.15","long":"72.75"}},{"country":"kz","city":"Andronovka","coordinates":{"lat":"50.81","long":"81.264722"}},{"country":"kz","city":"Andryushevka","coordinates":{"lat":"52.775833","long":"66.726944"}},{"country":"kz","city":"Angarskiy","coordinates":{"lat":"50.217778","long":"66.684167"}},{"country":"kz","city":"Angqaty","coordinates":{"lat":"50.736111","long":"51.547222"}},{"country":"kz","city":"Anikino","coordinates":{"lat":"52.666667","long":"78.25"}},{"country":"kz","city":"Anikinskiy","coordinates":{"lat":"52.666667","long":"78.25"}},{"country":"kz","city":"Ani-Muratbay","coordinates":{"lat":"41.033333","long":"68.616667"}},{"country":"kz","city":"Ankata","coordinates":{"lat":"50.616667","long":"51.8"}},{"country":"kz","city":"Ankati","coordinates":{"lat":"50.736111","long":"51.547222"}},{"country":"kz","city":"Ankatinskiy","coordinates":{"lat":"50.736111","long":"51.547222"}},{"country":"kz","city":"Ankaty","coordinates":{"lat":"50.616667","long":"51.8"}},{"country":"kz","city":"An-Mola","coordinates":{"lat":"51.016667","long":"71.3"}},{"country":"kz","city":"Annensk","coordinates":{"lat":"53","long":"64.833333"}},{"country":"kz","city":"Annenskiy","coordinates":{"lat":"53","long":"64.833333"}},{"country":"kz","city":"Annovka","coordinates":{"lat":"53.006111","long":"64.804167"}},{"country":"kz","city":"Annul'skiy","coordinates":{"lat":"50.68","long":"79.833889"}},{"country":"kz","city":"Antel'yetmola","coordinates":{"lat":"50.05","long":"51.8"}},{"country":"kz","city":"Antonov","coordinates":{"lat":"49.378056","long":"51.765833"}},{"country":"kz","city":"Antonovka","coordinates":{"lat":"45.648889","long":"80.236944"}},{"country":"kz","city":"Antonovka","coordinates":{"lat":"51.577778","long":"71.710556"}},{"country":"kz","city":"Antonovka","coordinates":{"lat":"49.378056","long":"51.765833"}},{"country":"kz","city":"Antonovka","coordinates":{"lat":"42.5","long":"69.966667"}},{"country":"kz","city":"Antonovka","coordinates":{"lat":"53.874167","long":"75.796667"}},{"country":"kz","city":"Antonovka","coordinates":{"lat":"52.45","long":"61.75"}},{"country":"kz","city":"Antonovka","coordinates":{"lat":"53.3125","long":"68.432778"}},{"country":"kz","city":"Antonovo","coordinates":{"lat":"49.378056","long":"51.765833"}},{"country":"kz","city":"Antonovski","coordinates":{"lat":"49.378056","long":"51.765833"}},{"country":"kz","city":"Antonovskiy","coordinates":{"lat":"49.378056","long":"51.765833"}},{"country":"kz","city":"Antonovskiy","coordinates":{"lat":"53.3125","long":"68.432778"}},{"country":"kz","city":"Antonovskoye","coordinates":{"lat":"45.648889","long":"80.236944"}},{"country":"kz","city":"Antonovskoye","coordinates":{"lat":"51.577778","long":"71.710556"}},{"country":"kz","city":"Antovskiy","coordinates":{"lat":"50.516667","long":"52.7"}},{"country":"kz","city":"Antropov","coordinates":{"lat":"50.266667","long":"51.016667"}},{"country":"kz","city":"Apakul'","coordinates":{"lat":"54.2","long":"76.1"}},{"country":"kz","city":"Apanovka","coordinates":{"lat":"52.536389","long":"63.200278"}},{"country":"kz","city":"Apollonovka","coordinates":{"lat":"51.422222","long":"71.605"}},{"country":"kz","city":"Apollonovskoye","coordinates":{"lat":"51.422222","long":"71.605"}},{"country":"kz","city":"Apolonovskoye","coordinates":{"lat":"51.422222","long":"71.605"}},{"country":"kz","city":"Apteka","coordinates":{"lat":"48.85","long":"72.433333"}},{"country":"kz","city":"Aqadyr","coordinates":{"lat":"48.255278","long":"72.848333"}},{"country":"kz","city":"Aqaral","coordinates":{"lat":"47.766667","long":"84.766667"}},{"country":"kz","city":"Aqbalyq","coordinates":{"lat":"46.566111","long":"79.209444"}},{"country":"kz","city":"Aqbaqay","coordinates":{"lat":"45","long":"72.783333"}},{"country":"kz","city":"Aqbastau","coordinates":{"lat":"42.903611","long":"69.669444"}},{"country":"kz","city":"Aqbasty","coordinates":{"lat":"46.265278","long":"60.087778"}},{"country":"kz","city":"Aqbauyr","coordinates":{"lat":"49.046944","long":"74.168056"}},{"country":"kz","city":"Aqbeyit","coordinates":{"lat":"51.646111","long":"70.043056"}},{"country":"kz","city":"Aqdala","coordinates":{"lat":"45.033056","long":"74.528889"}},{"country":"kz","city":"Aqespe","coordinates":{"lat":"46.783333","long":"60.506667"}},{"country":"kz","city":"Aqkemer","coordinates":{"lat":"49.6575","long":"57.34"}},{"country":"kz","city":"Aqkengse","coordinates":{"lat":"46.805","long":"68.322222"}},{"country":"kz","city":"Aqköl","coordinates":{"lat":"45.023333","long":"75.665556"}},{"country":"kz","city":"Aqköl","coordinates":{"lat":"51.997778","long":"70.934167"}},{"country":"kz","city":"Aqköl","coordinates":{"lat":"49.945556","long":"60.554167"}},{"country":"kz","city":"Aqköl","coordinates":{"lat":"46.649167","long":"49.0275"}},{"country":"kz","city":"Aqköl","coordinates":{"lat":"52.339167","long":"75.063056"}},{"country":"kz","city":"Aqköl","coordinates":{"lat":"43.438333","long":"70.766111"}},{"country":"kz","city":"Aqmektep","coordinates":{"lat":"47.845","long":"83.4325"}},{"country":"kz","city":"Aqmola","coordinates":{"lat":"51.181111","long":"71.427778"}},{"country":"kz","city":"Aqoba","coordinates":{"lat":"49.4","long":"47.4"}},{"country":"kz","city":"Aqpater","coordinates":{"lat":"49.828333","long":"49.233056"}},{"country":"kz","city":"Aqqaytym","coordinates":{"lat":"47.480556","long":"59.300833"}},{"country":"kz","city":"Aqqoltyq","coordinates":{"lat":"43.566111","long":"69.215278"}},{"country":"kz","city":"Aqqora","coordinates":{"lat":"48.819722","long":"75.921667"}},{"country":"kz","city":"Aqqudyq","coordinates":{"lat":"53.656667","long":"70.813889"}},{"country":"kz","city":"Aqqum","coordinates":{"lat":"50.0775","long":"62.117778"}},{"country":"kz","city":"Aqqum","coordinates":{"lat":"42.384444","long":"68.207778"}},{"country":"kz","city":"Aqqum","coordinates":{"lat":"49.333333","long":"64.280833"}},{"country":"kz","city":"Aqqystau","coordinates":{"lat":"47.233333","long":"51"}},{"country":"kz","city":"Aqqyztoghay","coordinates":{"lat":"47.098611","long":"54.388889"}},{"country":"kz","city":"Aqsay","coordinates":{"lat":"51.167778","long":"52.995"}},{"country":"kz","city":"Aqsay","coordinates":{"lat":"51.1","long":"65.299722"}},{"country":"kz","city":"Aqshatau","coordinates":{"lat":"49.338056","long":"54.556667"}},{"country":"kz","city":"Aqshatau","coordinates":{"lat":"47.989167","long":"74.0575"}},{"country":"kz","city":"Aqshi","coordinates":{"lat":"43.99","long":"76.323611"}},{"country":"kz","city":"Aqshi","coordinates":{"lat":"47.934722","long":"80.926944"}},{"country":"kz","city":"Aqshuqyr","coordinates":{"lat":"43.773333","long":"51.065278"}},{"country":"kz","city":"Aqshyghanaq","coordinates":{"lat":"42.796944","long":"69.195278"}},{"country":"kz","city":"Aqshyghanaq","coordinates":{"lat":"49.286944","long":"62.715556"}},{"country":"kz","city":"Aqsu","coordinates":{"lat":"52.458611","long":"71.985833"}},{"country":"kz","city":"Aqsu","coordinates":{"lat":"50.948889","long":"53.079722"}},{"country":"kz","city":"Aqsu","coordinates":{"lat":"52.033333","long":"76.916667"}},{"country":"kz","city":"Aqsuat","coordinates":{"lat":"53.903056","long":"64.682778"}},{"country":"kz","city":"Aqsuat","coordinates":{"lat":"45.738056","long":"62.861944"}},{"country":"kz","city":"Aqsuat","coordinates":{"lat":"47.762778","long":"82.806389"}},{"country":"kz","city":"Aqsuat","coordinates":{"lat":"53.616111","long":"66.562222"}},{"country":"kz","city":"Aqsu-Ayuly","coordinates":{"lat":"48.766389","long":"73.672222"}},{"country":"kz","city":"Aqsüyek","coordinates":{"lat":"44.627222","long":"74.512778"}},{"country":"kz","city":"Aqtam","coordinates":{"lat":"43.443056","long":"79.819167"}},{"country":"kz","city":"Aqtas","coordinates":{"lat":"48.054167","long":"66.381944"}},{"country":"kz","city":"Aqtasty","coordinates":{"lat":"50.747778","long":"72.205833"}},{"country":"kz","city":"Aqtasty","coordinates":{"lat":"50.153889","long":"76.657222"}},{"country":"kz","city":"Aqtau","coordinates":{"lat":"50.993056","long":"50.175"}},{"country":"kz","city":"Aqtau","coordinates":{"lat":"43.65","long":"51.2"}},{"country":"kz","city":"Aqtau","coordinates":{"lat":"47.739722","long":"71.440556"}},{"country":"kz","city":"Aqtaysay","coordinates":{"lat":"49.661111","long":"53.971944"}},{"country":"kz","city":"Aqtöbe","coordinates":{"lat":"50.298056","long":"57.181389"}},{"country":"kz","city":"Aqtöbe","coordinates":{"lat":"49.899444","long":"72.423056"}},{"country":"kz","city":"Aqtoghay","coordinates":{"lat":"53.008056","long":"75.983611"}},{"country":"kz","city":"Aqtoghay","coordinates":{"lat":"48.314444","long":"74.976944"}},{"country":"kz","city":"Aqtoghay","coordinates":{"lat":"46.95","long":"79.666667"}},{"country":"kz","city":"Aqtübek","coordinates":{"lat":"48.576389","long":"71.125"}},{"country":"kz","city":"Aqtuyesay","coordinates":{"lat":"53.928333","long":"72.649722"}},{"country":"kz","city":"Aqyrap","coordinates":{"lat":"50.562778","long":"55.181111"}},{"country":"kz","city":"Aqyrtöbe","coordinates":{"lat":"42.986667","long":"72.114444"}},{"country":"kz","city":"Aqzhal","coordinates":{"lat":"47.764444","long":"74.034722"}},{"country":"kz","city":"Aqzhal","coordinates":{"lat":"49.218333","long":"81.421944"}},{"country":"kz","city":"Aqzhar","coordinates":{"lat":"46","long":"77.183333"}},{"country":"kz","city":"Aqzhar","coordinates":{"lat":"50.615","long":"63.021667"}},{"country":"kz","city":"Aqzhar","coordinates":{"lat":"45.086111","long":"64.075556"}},{"country":"kz","city":"Aqzhar","coordinates":{"lat":"47.579722","long":"83.698056"}},{"country":"kz","city":"Aqzharyq","coordinates":{"lat":"48.568611","long":"75.481111"}},{"country":"kz","city":"Aqzhayyq","coordinates":{"lat":"50.666667","long":"51.583333"}},{"country":"kz","city":"Aqzhigit","coordinates":{"lat":"45.083333","long":"55.616667"}},{"country":"kz","city":"Arak","coordinates":{"lat":"48.533333","long":"52.85"}},{"country":"kz","city":"Aralagash","coordinates":{"lat":"54.344444","long":"69.176111"}},{"country":"kz","city":"Aral","coordinates":{"lat":"48.383333","long":"61.433333"}},{"country":"kz","city":"Aral","coordinates":{"lat":"50.216667","long":"63.966667"}},{"country":"kz","city":"Aral","coordinates":{"lat":"46.8","long":"61.666667"}},{"country":"kz","city":"Aralbay","coordinates":{"lat":"49.266667","long":"52.666667"}},{"country":"kz","city":"Aralbay","coordinates":{"lat":"49.633333","long":"63.783333"}},{"country":"kz","city":"Aralcha","coordinates":{"lat":"50.565","long":"59.461111"}},{"country":"kz","city":"Aralda","coordinates":{"lat":"44.35","long":"50.416667"}},{"country":"kz","city":"Aralkol'","coordinates":{"lat":"45.9","long":"74.75"}},{"country":"kz","city":"Aralkol'","coordinates":{"lat":"51.080833","long":"62.684722"}},{"country":"kz","city":"Aralköl","coordinates":{"lat":"51.080833","long":"62.684722"}},{"country":"kz","city":"Aralkol'","coordinates":{"lat":"53.362222","long":"66.775833"}},{"country":"kz","city":"Aralkum","coordinates":{"lat":"49.956944","long":"64.234722"}},{"country":"kz","city":"Aralkum","coordinates":{"lat":"46.5","long":"61.9"}},{"country":"kz","city":"Aral Sea","coordinates":{"lat":"46.8","long":"61.666667"}},{"country":"kz","city":"Aralshiy","coordinates":{"lat":"47.8","long":"59.766667"}},{"country":"kz","city":"Aral'sk","coordinates":{"lat":"46.8","long":"61.666667"}},{"country":"kz","city":"Aral'skiy","coordinates":{"lat":"53.890556","long":"63.328889"}},{"country":"kz","city":"Aral'skoye","coordinates":{"lat":"53.890556","long":"63.328889"}},{"country":"kz","city":"Aral'skoye More","coordinates":{"lat":"46.8","long":"61.666667"}},{"country":"kz","city":"Aralsol'","coordinates":{"lat":"46.833333","long":"61.883333"}},{"country":"kz","city":"Aralsor","coordinates":{"lat":"49.133333","long":"48.233333"}},{"country":"kz","city":"Aralsul'fat","coordinates":{"lat":"46.825556","long":"61.94"}},{"country":"kz","city":"Araltal","coordinates":{"lat":"51.186389","long":"52.921667"}},{"country":"kz","city":"Araltobe","coordinates":{"lat":"44.016667","long":"78.75"}},{"country":"kz","city":"Araltobe","coordinates":{"lat":"50.170556","long":"60.182778"}},{"country":"kz","city":"Araltobe","coordinates":{"lat":"47.183333","long":"54.5"}},{"country":"kz","city":"Araltobe","coordinates":{"lat":"50.533333","long":"52.033333"}},{"country":"kz","city":"Araltobe","coordinates":{"lat":"48.333333","long":"66.883333"}},{"country":"kz","city":"Araltogay","coordinates":{"lat":"49.826111","long":"60.099167"}},{"country":"kz","city":"Araltoghay","coordinates":{"lat":"49.826111","long":"60.099167"}},{"country":"kz","city":"Araltugay","coordinates":{"lat":"49.826111","long":"60.099167"}},{"country":"kz","city":"Aral-Tyube","coordinates":{"lat":"44.016667","long":"78.75"}},{"country":"kz","city":"Aral-Tyube","coordinates":{"lat":"50.7","long":"59.083333"}},{"country":"kz","city":"Aral-Tyube","coordinates":{"lat":"50.516667","long":"52.616667"}},{"country":"kz","city":"Araltyube","coordinates":{"lat":"50.5","long":"52.616667"}},{"country":"kz","city":"Aral-Tyube","coordinates":{"lat":"50.866667","long":"51.233333"}},{"country":"kz","city":"Araltyube","coordinates":{"lat":"49.316667","long":"63.283333"}},{"country":"kz","city":"Aral-Tyube","coordinates":{"lat":"43","long":"70.666667"}},{"country":"kz","city":"Aral Tyubya","coordinates":{"lat":"50.7","long":"59.083333"}},{"country":"kz","city":"Aram-Kuardak","coordinates":{"lat":"50.583333","long":"50.3"}},{"country":"kz","city":"Aram-Kurbak","coordinates":{"lat":"50.583333","long":"50.3"}},{"country":"kz","city":"Aram-Kurdak","coordinates":{"lat":"50.583333","long":"50.3"}},{"country":"kz","city":"Aranchi","coordinates":{"lat":"41.35","long":"68.933333"}},{"country":"kz","city":"Aranchi-Besh-Sary","coordinates":{"lat":"41.6625","long":"69.378056"}},{"country":"kz","city":"Aranchi Nomer Tretiy","coordinates":{"lat":"41.316667","long":"68.916667"}},{"country":"kz","city":"Aranchi Tret'i","coordinates":{"lat":"41.316667","long":"68.916667"}},{"country":"kz","city":"Aran-Ketau","coordinates":{"lat":"49.533333","long":"46.983333"}},{"country":"kz","city":"Aranshi","coordinates":{"lat":"41.35","long":"68.933333"}},{"country":"kz","city":"Arasan","coordinates":{"lat":"45.278056","long":"79.355"}},{"country":"kz","city":"Arasanskiy","coordinates":{"lat":"45.278056","long":"79.355"}},{"country":"kz","city":"Arbakoldy","coordinates":{"lat":"41.166667","long":"68.05"}},{"country":"kz","city":"Arbigen'","coordinates":{"lat":"52.066667","long":"78.533333"}},{"country":"kz","city":"Arbuzovskaya Baza","coordinates":{"lat":"50.594444","long":"80.383333"}},{"country":"kz","city":"Archaty","coordinates":{"lat":"49.2925","long":"86.564444"}},{"country":"kz","city":"Ardembey","coordinates":{"lat":"48.383333","long":"50.033333"}},{"country":"kz","city":"Arengozyn","coordinates":{"lat":"50.866667","long":"78.833333"}},{"country":"kz","city":"Arepek-Turspek","coordinates":{"lat":"43.75","long":"68.25"}},{"country":"kz","city":"Argambay-Bulak","coordinates":{"lat":"48.933333","long":"81.6"}},{"country":"kz","city":"Arganatinskiy","coordinates":{"lat":"46.65","long":"79.666667"}},{"country":"kz","city":"Arganatinskiy","coordinates":{"lat":"49.266667","long":"67.133333"}},{"country":"kz","city":"Arganatö","coordinates":{"lat":"46.65","long":"79.666667"}},{"country":"kz","city":"Arganaty","coordinates":{"lat":"46.65","long":"79.666667"}},{"country":"kz","city":"Argimbay","coordinates":{"lat":"48.933333","long":"81.6"}},{"country":"kz","city":"Argimbay-Bulak","coordinates":{"lat":"48.933333","long":"81.6"}},{"country":"kz","city":"Arik","coordinates":{"lat":"51.55","long":"78.35"}},{"country":"kz","city":"Arkabay","coordinates":{"lat":"43.4175","long":"77.091944"}},{"country":"kz","city":"Arkalyk","coordinates":{"lat":"50.248611","long":"66.911389"}},{"country":"kz","city":"Arkalyk","coordinates":{"lat":"49.883333","long":"80.333333"}},{"country":"kz","city":"Arkalyskiy","coordinates":{"lat":"49.983333","long":"80.3"}},{"country":"kz","city":"Arkarly","coordinates":{"lat":"46.248889","long":"80.097778"}},{"country":"kz","city":"Arkarly","coordinates":{"lat":"48","long":"77.566667"}},{"country":"kz","city":"Arkat","coordinates":{"lat":"49.033333","long":"80.333333"}},{"country":"kz","city":"Arkatskaya","coordinates":{"lat":"49.033333","long":"80.333333"}},{"country":"kz","city":"Arkatski","coordinates":{"lat":"49.033333","long":"80.333333"}},{"country":"kz","city":"Arkatskiy","coordinates":{"lat":"49.033333","long":"80.333333"}},{"country":"kz","city":"Arkhangelka","coordinates":{"lat":"54.383611","long":"67.383333"}},{"country":"kz","city":"Arkhangel'skiy","coordinates":{"lat":"49.416667","long":"57.033333"}},{"country":"kz","city":"Arkhangel'skiy","coordinates":{"lat":"52.866667","long":"61.866667"}},{"country":"kz","city":"Arkhangel'skiy","coordinates":{"lat":"54.779167","long":"68.947778"}},{"country":"kz","city":"Arkhangel'skiy","coordinates":{"lat":"43.16","long":"75.256667"}},{"country":"kz","city":"Arkhangel'skoe","coordinates":{"lat":"54.779167","long":"68.947778"}},{"country":"kz","city":"Arkhangel'skoye","coordinates":{"lat":"54.383611","long":"67.383333"}},{"country":"kz","city":"Arkharly","coordinates":{"lat":"46.248889","long":"80.097778"}},{"country":"kz","city":"Arkhipovka","coordinates":{"lat":"53.5","long":"64.2"}},{"country":"kz","city":"Arkhipovka","coordinates":{"lat":"48.433333","long":"85.466667"}},{"country":"kz","city":"Arkhipovskiy","coordinates":{"lat":"48.433333","long":"85.466667"}},{"country":"kz","city":"Arlbayev","coordinates":{"lat":"49.4","long":"46.833333"}},{"country":"kz","city":"Armavirskiy","coordinates":{"lat":"50.966111","long":"69.443889"}},{"country":"kz","city":"Armbiryuk","coordinates":{"lat":"46.6","long":"48.666667"}},{"country":"kz","city":"Arqalyk","coordinates":{"lat":"50.248611","long":"66.911389"}},{"country":"kz","city":"Arqalyq","coordinates":{"lat":"50.248611","long":"66.911389"}},{"country":"kz","city":"Arqalyq","coordinates":{"lat":"49.883333","long":"80.333333"}},{"country":"kz","city":"Arqarly","coordinates":{"lat":"46.248889","long":"80.097778"}},{"country":"kz","city":"Arqaty","coordinates":{"lat":"49.034722","long":"80.077778"}},{"country":"kz","city":"Arseyevka","coordinates":{"lat":"51.9","long":"69.95"}},{"country":"kz","city":"Arshalinskiy","coordinates":{"lat":"52.727778","long":"61.135278"}},{"country":"kz","city":"Arshaly 1","coordinates":{"lat":"49.931944","long":"82.286111"}},{"country":"kz","city":"Arshaly 1-ye","coordinates":{"lat":"49.931944","long":"82.286111"}},{"country":"kz","city":"Arshaly","coordinates":{"lat":"50.983333","long":"64.233333"}},{"country":"kz","city":"Arshaly","coordinates":{"lat":"48.679167","long":"80.813889"}},{"country":"kz","city":"Arshaly Pervoye","coordinates":{"lat":"49.931944","long":"82.286111"}},{"country":"kz","city":"Arshaty","coordinates":{"lat":"49.2925","long":"86.564444"}},{"country":"kz","city":"Arshinov","coordinates":{"lat":"46.583333","long":"48.866667"}},{"country":"kz","city":"Arspek-Turspek","coordinates":{"lat":"43.75","long":"68.25"}},{"country":"kz","city":"Artel' Vostok","coordinates":{"lat":"45.2","long":"79.05"}},{"country":"kz","city":"Artemovka","coordinates":{"lat":"53.393333","long":"74.368333"}},{"country":"kz","city":"Artemovskoye","coordinates":{"lat":"53.393333","long":"74.368333"}},{"country":"kz","city":"Artykpay","coordinates":{"lat":"51.092222","long":"67.782222"}},{"country":"kz","city":"Arustan","coordinates":{"lat":"44.166667","long":"80.15"}},{"country":"kz","city":"Arykbalyk","coordinates":{"lat":"52.954167","long":"68.198611"}},{"country":"kz","city":"Arykty","coordinates":{"lat":"50.635833","long":"70.560278"}},{"country":"kz","city":"Arykty","coordinates":{"lat":"50.133333","long":"70.933333"}},{"country":"kz","city":"Arykty Tretiy","coordinates":{"lat":"50.466667","long":"70.483333"}},{"country":"kz","city":"Aryn","coordinates":{"lat":"51.55","long":"78.35"}},{"country":"kz","city":"Arynbay","coordinates":{"lat":"50.866667","long":"78.833333"}},{"country":"kz","city":"Arynbyurek","coordinates":{"lat":"46.5925","long":"48.736944"}},{"country":"kz","city":"Aryngay","coordinates":{"lat":"50.166667","long":"47.3"}},{"country":"kz","city":"Aryqbalyq","coordinates":{"lat":"52.954167","long":"68.198611"}},{"country":"kz","city":"Aryqty","coordinates":{"lat":"50.635833","long":"70.560278"}},{"country":"kz","city":"Arys","coordinates":{"lat":"42.433333","long":"68.8"}},{"country":"kz","city":"Arys'","coordinates":{"lat":"42.433333","long":"68.8"}},{"country":"kz","city":"Arys","coordinates":{"lat":"42.766667","long":"68.4"}},{"country":"kz","city":"Arystankol'","coordinates":{"lat":"53.066667","long":"64.083333"}},{"country":"kz","city":"Arzhan","coordinates":{"lat":"50.85","long":"79.25"}},{"country":"kz","city":"Asa","coordinates":{"lat":"43.033333","long":"71.166667"}},{"country":"kz","city":"Asan","coordinates":{"lat":"50.399722","long":"48.874722"}},{"country":"kz","city":"Asan","coordinates":{"lat":"44.05","long":"68.25"}},{"country":"kz","city":"Asankozha","coordinates":{"lat":"51.383333","long":"68.45"}},{"country":"kz","city":"Asankuduk","coordinates":{"lat":"50.399722","long":"48.874722"}},{"country":"kz","city":"Asanovo","coordinates":{"lat":"54.855278","long":"69.448056"}},{"country":"kz","city":"As-Arsyk","coordinates":{"lat":"43.934167","long":"67.439722"}},{"country":"kz","city":"Asel'bek","coordinates":{"lat":"43.4","long":"67.55"}},{"country":"kz","city":"Asenkritovka","coordinates":{"lat":"52.911111","long":"62.296944"}},{"country":"kz","city":"Asenkritovskiy","coordinates":{"lat":"52.911111","long":"62.296944"}},{"country":"kz","city":"Aserchevo","coordinates":{"lat":"51.166667","long":"50.533333"}},{"country":"kz","city":"Asha","coordinates":{"lat":"48.668889","long":"56.141111"}},{"country":"kz","city":"Asha","coordinates":{"lat":"43.333333","long":"68"}},{"country":"kz","city":"Asha","coordinates":{"lat":"49.9","long":"71.2"}},{"country":"kz","city":"Asha","coordinates":{"lat":"49.116667","long":"83.833333"}},{"country":"kz","city":"Ashak","coordinates":{"lat":"50.05","long":"71.266667"}},{"country":"kz","city":"Ashalo","coordinates":{"lat":"46.733333","long":"82.366667"}},{"country":"kz","city":"Ashaly","coordinates":{"lat":"46.733333","long":"82.366667"}},{"country":"kz","city":"Ashanino","coordinates":{"lat":"53.204167","long":"66.820833"}},{"country":"kz","city":"Ashche-Butak","coordinates":{"lat":"50.9","long":"52.133333"}},{"country":"kz","city":"Ashchekol'","coordinates":{"lat":"49.733333","long":"80.3"}},{"country":"kz","city":"Ashche-Kuduk","coordinates":{"lat":"49.216667","long":"57.983333"}},{"country":"kz","city":"Ashche-Kuduk","coordinates":{"lat":"50.633333","long":"52.8"}},{"country":"kz","city":"Ashche-Kuduk","coordinates":{"lat":"41.533333","long":"69.216667"}},{"country":"kz","city":"Ashche-Kum-Kul'","coordinates":{"lat":"50.566667","long":"70.816667"}},{"country":"kz","city":"Ashchelisay","coordinates":{"lat":"50.533333","long":"59.216667"}},{"country":"kz","city":"Ashche-Sai","coordinates":{"lat":"47.383333","long":"55.366667"}},{"country":"kz","city":"Ashche-Say","coordinates":{"lat":"47.383333","long":"55.366667"}},{"country":"kz","city":"Ashche-say","coordinates":{"lat":"50.333333","long":"51.7"}},{"country":"kz","city":"Ashchi","coordinates":{"lat":"48.133333","long":"55.966667"}},{"country":"kz","city":"Ashchi","coordinates":{"lat":"41.833333","long":"69.65"}},{"country":"kz","city":"Ashchibulak","coordinates":{"lat":"43.41","long":"76.913056"}},{"country":"kz","city":"Ashchi-Bulak","coordinates":{"lat":"46.383333","long":"79.633333"}},{"country":"kz","city":"Ashchi-Bulak","coordinates":{"lat":"41.733333","long":"69.5475"}},{"country":"kz","city":"Ashchibulakskiy","coordinates":{"lat":"46.383333","long":"79.633333"}},{"country":"kz","city":"Ashchikarabau","coordinates":{"lat":"41.840278","long":"69.539444"}},{"country":"kz","city":"Ashchi-Kara-Su","coordinates":{"lat":"50.933333","long":"61.666667"}},{"country":"kz","city":"Ashchikesen","coordinates":{"lat":"48.7","long":"53.116667"}},{"country":"kz","city":"Ashchikol'","coordinates":{"lat":"50.735278","long":"69.990556"}},{"country":"kz","city":"Ashchikol'","coordinates":{"lat":"53.917222","long":"65.943889"}},{"country":"kz","city":"Ashchikol'","coordinates":{"lat":"49.733333","long":"80.3"}},{"country":"kz","city":"Ashchikuduk","coordinates":{"lat":"49.216667","long":"57.983333"}},{"country":"kz","city":"Ashchikuduk","coordinates":{"lat":"47.75","long":"53.416667"}},{"country":"kz","city":"Ashchikuduk","coordinates":{"lat":"50.633333","long":"52.8"}},{"country":"kz","city":"Ashchi-Kuduk","coordinates":{"lat":"41.533333","long":"69.216667"}},{"country":"kz","city":"Ashchi Kuduk","coordinates":{"lat":"44.35","long":"66.433333"}},{"country":"kz","city":"Ashchikuduk","coordinates":{"lat":"44.6875","long":"66.2025"}},{"country":"kz","city":"Ashchi-Kuduk","coordinates":{"lat":"50.483333","long":"79.333333"}},{"country":"kz","city":"Ashchi-Kul'","coordinates":{"lat":"49.733333","long":"80.3"}},{"country":"kz","city":"Ashchikul'skiy","coordinates":{"lat":"49.733333","long":"80.3"}},{"country":"kz","city":"Ashchilysay","coordinates":{"lat":"50.533333","long":"59.216667"}},{"country":"kz","city":"Ashchimuryn","coordinates":{"lat":"44.5","long":"51.083333"}},{"country":"kz","city":"Ashchi-Say","coordinates":{"lat":"47.383333","long":"55.366667"}},{"country":"kz","city":"Ashchisay","coordinates":{"lat":"49.35","long":"55.75"}},{"country":"kz","city":"Ashchisay","coordinates":{"lat":"49.339722","long":"49.762222"}},{"country":"kz","city":"Ashchisayskiy","coordinates":{"lat":"51.163056","long":"53.765556"}},{"country":"kz","city":"Ashchisu","coordinates":{"lat":"46.383333","long":"77.116667"}},{"country":"kz","city":"Ashchisu","coordinates":{"lat":"49.2","long":"77.516667"}},{"country":"kz","city":"Ashchiy","coordinates":{"lat":"47.4","long":"55.55"}},{"country":"kz","city":"Ashchybulak","coordinates":{"lat":"43.41","long":"76.913056"}},{"country":"kz","city":"Ashchykol'","coordinates":{"lat":"51.673056","long":"68.284444"}},{"country":"kz","city":"Ashchykol'","coordinates":{"lat":"41.416667","long":"68.1"}},{"country":"kz","city":"Ashchyköl","coordinates":{"lat":"41.422778","long":"68.153333"}},{"country":"kz","city":"Ashchykol'","coordinates":{"lat":"53.594722","long":"71.133889"}},{"country":"kz","city":"Ashchysay","coordinates":{"lat":"49.339722","long":"49.762222"}},{"country":"kz","city":"Ashchysay","coordinates":{"lat":"43.554167","long":"68.888889"}},{"country":"kz","city":"Ashi-Bulak","coordinates":{"lat":"46.383333","long":"79.633333"}},{"country":"kz","city":"Ashikesen","coordinates":{"lat":"48.7","long":"53.116667"}},{"country":"kz","city":"Ashil-Togay","coordinates":{"lat":"43.066667","long":"78.333333"}},{"country":"kz","city":"Ashim Kstav","coordinates":{"lat":"50.466667","long":"49.25"}},{"country":"kz","city":"Ashitasty","coordinates":{"lat":"50.216667","long":"66.266667"}},{"country":"kz","city":"Ashudasty","coordinates":{"lat":"50.117778","long":"66.573889"}},{"country":"kz","city":"Ashutasty","coordinates":{"lat":"50.117778","long":"66.573889"}},{"country":"kz","city":"Asinkritovskiy","coordinates":{"lat":"52.911111","long":"62.296944"}},{"country":"kz","city":"Asiy-Stan","coordinates":{"lat":"48.416667","long":"46.916667"}},{"country":"kz","city":"Askar","coordinates":{"lat":"51.733333","long":"77.35"}},{"country":"kz","city":"Askchi-Kul'","coordinates":{"lat":"49.733333","long":"80.3"}},{"country":"kz","city":"Aspara","coordinates":{"lat":"43.033333","long":"73.483333"}},{"country":"kz","city":"Assa","coordinates":{"lat":"43.033333","long":"71.166667"}},{"country":"kz","city":"Assan-Kuduk","coordinates":{"lat":"50.399722","long":"48.874722"}},{"country":"kz","city":"Assan-Mula","coordinates":{"lat":"46.716667","long":"49.533333"}},{"country":"kz","city":"Assan-Mulla","coordinates":{"lat":"46.716667","long":"49.533333"}},{"country":"kz","city":"Assay","coordinates":{"lat":"50.366667","long":"51.2"}},{"country":"kz","city":"Astaf'yev","coordinates":{"lat":"51.583333","long":"51.25"}},{"country":"kz","city":"Astakhovka","coordinates":{"lat":"50.216667","long":"73.083333"}},{"country":"kz","city":"Astakhovskoye","coordinates":{"lat":"50.216667","long":"73.083333"}},{"country":"kz","city":"Astana","coordinates":{"lat":"51.181111","long":"71.427778"}},{"country":"kz","city":"Astrakhan","coordinates":{"lat":"51.528333","long":"69.797222"}},{"country":"kz","city":"Astrakhanka","coordinates":{"lat":"51.528333","long":"69.797222"}},{"country":"kz","city":"Astrakhanka","coordinates":{"lat":"51.8","long":"77.483333"}},{"country":"kz","city":"Astrakhanka","coordinates":{"lat":"54.509722","long":"69.233333"}},{"country":"kz","city":"Astrakhankin","coordinates":{"lat":"51.066667","long":"50.666667"}},{"country":"kz","city":"Astrakhanovka","coordinates":{"lat":"50.355","long":"55.830278"}},{"country":"kz","city":"Astrakhanovskiy","coordinates":{"lat":"50.355","long":"55.830278"}},{"country":"kz","city":"Astrakhanskiy","coordinates":{"lat":"51.500833","long":"69.393056"}},{"country":"kz","city":"Astrakhanskiy","coordinates":{"lat":"50.355","long":"55.830278"}},{"country":"kz","city":"Astrakhanskoye","coordinates":{"lat":"51.528333","long":"69.797222"}},{"country":"kz","city":"Astrankhanskoye","coordinates":{"lat":"54.509722","long":"69.233333"}},{"country":"kz","city":"Asubulak","coordinates":{"lat":"49.558333","long":"83.055833"}},{"country":"kz","city":"Asubulaq","coordinates":{"lat":"49.558333","long":"83.055833"}},{"country":"kz","city":"Asy","coordinates":{"lat":"43.516667","long":"78.35"}},{"country":"kz","city":"Asykata","coordinates":{"lat":"40.899444","long":"68.361111"}},{"country":"kz","city":"Asyl","coordinates":{"lat":"43.168056","long":"76.56"}},{"country":"kz","city":"Asysaga","coordinates":{"lat":"43.516667","long":"78.35"}},{"country":"kz","city":"Atabay","coordinates":{"lat":"43.510556","long":"68.344722"}},{"country":"kz","city":"Ataganskiy","coordinates":{"lat":"46.733333","long":"82.366667"}},{"country":"kz","city":"Atagay","coordinates":{"lat":"46.733333","long":"82.366667"}},{"country":"kz","city":"Atakan","coordinates":{"lat":"51.05","long":"78.616667"}},{"country":"kz","city":"Atamanskiy","coordinates":{"lat":"47.1","long":"51.6"}},{"country":"kz","city":"Atambek","coordinates":{"lat":"50.583333","long":"49.566667"}},{"country":"kz","city":"Atambek","coordinates":{"lat":"50.666667","long":"80.616667"}},{"country":"kz","city":"Atambek-Kul'","coordinates":{"lat":"49.433333","long":"48.983333"}},{"country":"kz","city":"Atambekovskiy","coordinates":{"lat":"50.666667","long":"80.616667"}},{"country":"kz","city":"Atam-Kul'mak","coordinates":{"lat":"49.533333","long":"48.25"}},{"country":"kz","city":"Atash","coordinates":{"lat":"44.55","long":"50.3"}},{"country":"kz","city":"Atash","coordinates":{"lat":"43.873889","long":"67.259722"}},{"country":"kz","city":"Atasu","coordinates":{"lat":"48.681389","long":"71.643333"}},{"country":"kz","city":"Atasuskiy","coordinates":{"lat":"48.681389","long":"71.643333"}},{"country":"kz","city":"Atbasa","coordinates":{"lat":"51.8","long":"68.333333"}},{"country":"kz","city":"Atbasar","coordinates":{"lat":"51.8","long":"68.333333"}},{"country":"kz","city":"Atbasarskiy","coordinates":{"lat":"51.166667","long":"68.35"}},{"country":"kz","city":"Atbasarskiy Chetvërtyy","coordinates":{"lat":"51.183333","long":"68.033333"}},{"country":"kz","city":"Atbasarskiy Tretiy","coordinates":{"lat":"51.25","long":"68.233333"}},{"country":"kz","city":"Atbasarskiy Vtoroy","coordinates":{"lat":"51.35","long":"68.233333"}},{"country":"kz","city":"Atbulak","coordinates":{"lat":"50.6","long":"54.166667"}},{"country":"kz","city":"Atbulak","coordinates":{"lat":"42.083333","long":"69.566667"}},{"country":"kz","city":"Atchunkay","coordinates":{"lat":"50.333333","long":"52.466667"}},{"country":"kz","city":"Atekb","coordinates":{"lat":"48.1","long":"50"}},{"country":"kz","city":"Aterau","coordinates":{"lat":"47.116667","long":"51.883333"}},{"country":"kz","city":"Atey","coordinates":{"lat":"49.266667","long":"78.683333"}},{"country":"kz","city":"Atinbay","coordinates":{"lat":"48.983333","long":"53.366667"}},{"country":"kz","city":"Atkan","coordinates":{"lat":"48.233333","long":"51.633333"}},{"country":"kz","city":"Atrau","coordinates":{"lat":"46.983333","long":"52.7"}},{"country":"kz","city":"Atschissa","coordinates":{"lat":"43.554167","long":"68.888889"}},{"country":"kz","city":"Atshapkan","coordinates":{"lat":"51.266667","long":"79.15"}},{"country":"kz","city":"Attykuduk","coordinates":{"lat":"46.766667","long":"61.733333"}},{"country":"kz","city":"Atygay","coordinates":{"lat":"50.033333","long":"70.516667"}},{"country":"kz","city":"Atyrau","coordinates":{"lat":"47.116667","long":"51.883333"}},{"country":"kz","city":"Auezov","coordinates":{"lat":"49.716111","long":"81.583611"}},{"country":"kz","city":"Aul Arykty","coordinates":{"lat":"50.635833","long":"70.560278"}},{"country":"kz","city":"Aul Ashak","coordinates":{"lat":"50.05","long":"71.266667"}},{"country":"kz","city":"Aul Atygay","coordinates":{"lat":"50.033333","long":"70.516667"}},{"country":"kz","city":"Aul","coordinates":{"lat":"51.059167","long":"81.041111"}},{"country":"kz","city":"Aul Ayt-Kozha","coordinates":{"lat":"43.283333","long":"74.133333"}},{"country":"kz","city":"Aul Batyr' Bek","coordinates":{"lat":"48.233333","long":"47.85"}},{"country":"kz","city":"Aul Baubek","coordinates":{"lat":"43.4","long":"77.85"}},{"country":"kz","city":"Aul Baydukov","coordinates":{"lat":"50.116667","long":"47.416667"}},{"country":"kz","city":"Aul Begembet","coordinates":{"lat":"48.3","long":"67.383333"}},{"country":"kz","city":"Aul-Bek","coordinates":{"lat":"49.833333","long":"72.7"}},{"country":"kz","city":"Aul Bertamar","coordinates":{"lat":"43.216667","long":"74.4"}},{"country":"kz","city":"Aul Buranbek","coordinates":{"lat":"50.65","long":"71.166667"}},{"country":"kz","city":"Aul Burash","coordinates":{"lat":"50.816667","long":"70.433333"}},