[{"country":"sl","city":"Aberdeen","coordinates":{"lat":"8.4925","long":"-13.2844444"}},{"country":"sl","city":"Adonkia","coordinates":{"lat":"8.4166667","long":"-13.2686111"}},{"country":"sl","city":"Aku Town","coordinates":{"lat":"8.6638889","long":"-13.1880556"}},{"country":"sl","city":"Alikalia","coordinates":{"lat":"9.1666667","long":"-11.4"}},{"country":"sl","city":"Allen Town","coordinates":{"lat":"8.4136111","long":"-13.1602778"}},{"country":"sl","city":"Amaria","coordinates":{"lat":"8.7302778","long":"-13.1905556"}},{"country":"sl","city":"Angola","coordinates":{"lat":"8.4119444","long":"-13.265"}},{"country":"sl","city":"Angola Town","coordinates":{"lat":"8.4119444","long":"-13.265"}},{"country":"sl","city":"Baama","coordinates":{"lat":"8.1880556","long":"-10.3461111"}},{"country":"sl","city":"Baama","coordinates":{"lat":"8.1","long":"-11.45"}},{"country":"sl","city":"Baba","coordinates":{"lat":"7.3069444","long":"-12.2219444"}},{"country":"sl","city":"Babahun","coordinates":{"lat":"8.05","long":"-10.9333333"}},{"country":"sl","city":"Babakalia","coordinates":{"lat":"9.35","long":"-11.95"}},{"country":"sl","city":"Babalahun","coordinates":{"lat":"7.9883333","long":"-11.3275"}},{"country":"sl","city":"Babawahun","coordinates":{"lat":"7.9883333","long":"-11.3275"}},{"country":"sl","city":"Babu","coordinates":{"lat":"7.4455556","long":"-12.46"}},{"country":"sl","city":"Babura","coordinates":{"lat":"8.9833333","long":"-11.5833333"}},{"country":"sl","city":"Baburo","coordinates":{"lat":"9.0333333","long":"-10.9166667"}},{"country":"sl","city":"Bachalo","coordinates":{"lat":"7.5947222","long":"-12.8588889"}},{"country":"sl","city":"Bada","coordinates":{"lat":"8.4666667","long":"-10.7"}},{"country":"sl","city":"Badi","coordinates":{"lat":"9.1666667","long":"-12.4333333"}},{"country":"sl","city":"Badja","coordinates":{"lat":"8.3666667","long":"-11.5333333"}},{"country":"sl","city":"Bado","coordinates":{"lat":"8.0","long":"-11.2833333"}},{"country":"sl","city":"Badugula","coordinates":{"lat":"9.9","long":"-12.2166667"}},{"country":"sl","city":"Bafawahun","coordinates":{"lat":"7.7166667","long":"-11.3"}},{"country":"sl","city":"Bafehun","coordinates":{"lat":"7.8833333","long":"-10.9166667"}},{"country":"sl","city":"Bafodia","coordinates":{"lat":"9.6833333","long":"-11.7333333"}},{"country":"sl","city":"Bafodu","coordinates":{"lat":"8.7166667","long":"-10.6166667"}},{"country":"sl","city":"Baga","coordinates":{"lat":"8.7166667","long":"-11.5666667"}},{"country":"sl","city":"Bagahun","coordinates":{"lat":"9.35","long":"-11.9833333"}},{"country":"sl","city":"Bagayima","coordinates":{"lat":"8.65","long":"-10.7166667"}},{"country":"sl","city":"Bagbamma","coordinates":{"lat":"8.3322222","long":"-13.0180556"}},{"country":"sl","city":"Bagbe","coordinates":{"lat":"7.3833333","long":"-11.2"}},{"country":"sl","city":"Bagbema","coordinates":{"lat":"8.7","long":"-11.25"}},{"country":"sl","city":"Bagbwema","coordinates":{"lat":"8.15","long":"-12.15"}},{"country":"sl","city":"Bagemba","coordinates":{"lat":"8.7","long":"-11.25"}},{"country":"sl","city":"Baha","coordinates":{"lat":"7.5091667","long":"-12.3183333"}},{"country":"sl","city":"Bahal","coordinates":{"lat":"7.5319444","long":"-12.0169444"}},{"country":"sl","city":"Bahama","coordinates":{"lat":"7.5888889","long":"-11.0663889"}},{"country":"sl","city":"Bahama","coordinates":{"lat":"7.2977778","long":"-11.3486111"}},{"country":"sl","city":"Bahol","coordinates":{"lat":"7.5277778","long":"-12.0308333"}},{"country":"sl","city":"Baia","coordinates":{"lat":"8.6572222","long":"-13.1944444"}},{"country":"sl","city":"Baiama","coordinates":{"lat":"7.6666667","long":"-11.3333333"}},{"country":"sl","city":"Baiama","coordinates":{"lat":"7.3333333","long":"-11.2666667"}},{"country":"sl","city":"Baiame","coordinates":{"lat":"8.5166667","long":"-10.9666667"}},{"country":"sl","city":"Baiawa","coordinates":{"lat":"7.4166667","long":"-11.7166667"}},{"country":"sl","city":"Baiawaindu","coordinates":{"lat":"8.9833333","long":"-11.0333333"}},{"country":"sl","city":"Baibunda","coordinates":{"lat":"8.8833333","long":"-12.3"}},{"country":"sl","city":"Baidu","coordinates":{"lat":"8.5","long":"-11.05"}},{"country":"sl","city":"Baiima","coordinates":{"lat":"7.9002778","long":"-10.9297222"}},{"country":"sl","city":"Baiima","coordinates":{"lat":"7.8333333","long":"-11.6166667"}},{"country":"sl","city":"Bainaru","coordinates":{"lat":"8.1666667","long":"-10.6666667"}},{"country":"sl","city":"Baine","coordinates":{"lat":"8.4991667","long":"-13.0663889"}},{"country":"sl","city":"Baiwala","coordinates":{"lat":"7.9941667","long":"-10.6475"}},{"country":"sl","city":"Bajibo","coordinates":{"lat":"8.1","long":"-10.8"}},{"country":"sl","city":"Baka","coordinates":{"lat":"7.8436111","long":"-11.4661111"}},{"country":"sl","city":"Baka","coordinates":{"lat":"8.4891667","long":"-13.0788889"}},{"country":"sl","city":"Baka","coordinates":{"lat":"7.4305556","long":"-12.2883333"}},{"country":"sl","city":"Bakaia","coordinates":{"lat":"9.3666667","long":"-11.25"}},{"country":"sl","city":"Bakando","coordinates":{"lat":"8.95","long":"-10.7833333"}},{"country":"sl","city":"Bake","coordinates":{"lat":"8.9166667","long":"-11.9166667"}},{"country":"sl","city":"Bakebana","coordinates":{"lat":"8.4030556","long":"-13.0738889"}},{"country":"sl","city":"Bakedu","coordinates":{"lat":"8.6666667","long":"-11.15"}},{"country":"sl","city":"Bakelimri","coordinates":{"lat":"8.85","long":"-13.0847222"}},{"country":"sl","city":"Bake Loko","coordinates":{"lat":"8.4","long":"-12.3"}},{"country":"sl","city":"Bake Mamule","coordinates":{"lat":"8.4666667","long":"-12.9166667"}},{"country":"sl","city":"Bakinia","coordinates":{"lat":"8.7452778","long":"-13.165"}},{"country":"sl","city":"Baknya","coordinates":{"lat":"8.5","long":"-11.15"}},{"country":"sl","city":"Bakodu","coordinates":{"lat":"8.6166667","long":"-10.55"}},{"country":"sl","city":"Bakolo","coordinates":{"lat":"8.72","long":"-13.0641667"}},{"country":"sl","city":"Bakuidu","coordinates":{"lat":"8.85","long":"-10.9"}},{"country":"sl","city":"Bakuya","coordinates":{"lat":"8.5","long":"-11.15"}},{"country":"sl","city":"Balahun","coordinates":{"lat":"8.2533333","long":"-10.4916667"}},{"country":"sl","city":"Balahun","coordinates":{"lat":"7.9255556","long":"-12.0147222"}},{"country":"sl","city":"Balalo","coordinates":{"lat":"7.4833333","long":"-12.5166667"}},{"country":"sl","city":"Balamuya","coordinates":{"lat":"9.1666667","long":"-12.95"}},{"country":"sl","city":"Balandugu","coordinates":{"lat":"9.6666667","long":"-11.5666667"}},{"country":"sl","city":"Balansera","coordinates":{"lat":"8.9158333","long":"-13.1794444"}},{"country":"sl","city":"Balantin","coordinates":{"lat":"8.1","long":"-12.7666667"}},{"country":"sl","city":"Balea","coordinates":{"lat":"8.9","long":"-11.45"}},{"country":"sl","city":"Bale","coordinates":{"lat":"9.2","long":"-10.7666667"}},{"country":"sl","city":"Bale","coordinates":{"lat":"7.3833333","long":"-11.7833333"}},{"country":"sl","city":"Balentakura","coordinates":{"lat":"9.8","long":"-12.3333333"}},{"country":"sl","city":"Balia","coordinates":{"lat":"8.9166667","long":"-11.7333333"}},{"country":"sl","city":"Bali","coordinates":{"lat":"8.85","long":"-13.1"}},{"country":"sl","city":"Balinia","coordinates":{"lat":"8.65","long":"-12.6"}},{"country":"sl","city":"Ballo Wharf","coordinates":{"lat":"8.8341667","long":"-13.2333333"}},{"country":"sl","city":"Balo","coordinates":{"lat":"7.4763889","long":"-12.3419444"}},{"country":"sl","city":"Balu","coordinates":{"lat":"8.3","long":"-10.6166667"}},{"country":"sl","city":"Bamabalia","coordinates":{"lat":"8.9166667","long":"-11.5"}},{"country":"sl","city":"Bama","coordinates":{"lat":"7.1713889","long":"-11.4036111"}},{"country":"sl","city":"Bamaia","coordinates":{"lat":"8.9666667","long":"-11.45"}},{"country":"sl","city":"Bamandu","coordinates":{"lat":"8.65","long":"-10.5833333"}},{"country":"sl","city":"Bamanjama","coordinates":{"lat":"8.3","long":"-11.5"}},{"country":"sl","city":"Bamata","coordinates":{"lat":"7.5166667","long":"-11.6333333"}},{"country":"sl","city":"Bamayama","coordinates":{"lat":"7.6","long":"-11.0833333"}},{"country":"sl","city":"Bamba","coordinates":{"lat":"8.3333333","long":"-10.3333333"}},{"country":"sl","city":"Bamba","coordinates":{"lat":"7.41","long":"-12.5358333"}},{"country":"sl","city":"Bambaia","coordinates":{"lat":"8.9616667","long":"-13.1605556"}},{"country":"sl","city":"Bambakalia","coordinates":{"lat":"9.2666667","long":"-11.3333333"}},{"country":"sl","city":"Bambako","coordinates":{"lat":"7.3525","long":"-11.3641667"}},{"country":"sl","city":"Bambali","coordinates":{"lat":"8.6161111","long":"-13.1477778"}},{"country":"sl","city":"Bambara","coordinates":{"lat":"8.3166667","long":"-11.35"}},{"country":"sl","city":"Bambara","coordinates":{"lat":"8.0166667","long":"-11.6166667"}},{"country":"sl","city":"Bambarakalima","coordinates":{"lat":"8.4666667","long":"-11.3333333"}},{"country":"sl","city":"Bambawo","coordinates":{"lat":"8.0","long":"-11.1166667"}},{"country":"sl","city":"Bambaworo","coordinates":{"lat":"8.3333333","long":"-12.35"}},{"country":"sl","city":"Bambayiraia","coordinates":{"lat":"8.8","long":"-11.4"}},{"country":"sl","city":"Bambe","coordinates":{"lat":"7.5113889","long":"-12.5502778"}},{"country":"sl","city":"Bambisu","coordinates":{"lat":"8.2","long":"-10.35"}},{"country":"sl","city":"Bamboria","coordinates":{"lat":"9.2333333","long":"-10.8666667"}},{"country":"sl","city":"Bambu","coordinates":{"lat":"9.5166667","long":"-11.5833333"}},{"country":"sl","city":"Bambugu","coordinates":{"lat":"9.4833333","long":"-11.5166667"}},{"country":"sl","city":"Bambuibu","coordinates":{"lat":"7.9188889","long":"-12.665"}},{"country":"sl","city":"Bambukoro","coordinates":{"lat":"9.55","long":"-11.4"}},{"country":"sl","city":"Bambuya","coordinates":{"lat":"9.3666667","long":"-11.35"}},{"country":"sl","city":"Bamfira","coordinates":{"lat":"8.7833333","long":"-11.6166667"}},{"country":"sl","city":"Bammbatuk","coordinates":{"lat":"8.3455556","long":"-13.2333333"}},{"country":"sl","city":"Bamoi","coordinates":{"lat":"9.0833333","long":"-12.75"}},{"country":"sl","city":"Bana","coordinates":{"lat":"8.9","long":"-13.0"}},{"country":"sl","city":"Banahu","coordinates":{"lat":"8.1","long":"-11.3"}},{"country":"sl","city":"Banahun","coordinates":{"lat":"8.1","long":"-10.7166667"}},{"country":"sl","city":"Banahun","coordinates":{"lat":"7.1666667","long":"-11.8833333"}},{"country":"sl","city":"Banale","coordinates":{"lat":"7.4833333","long":"-11.85"}},{"country":"sl","city":"Banbut","coordinates":{"lat":"8.3666667","long":"-12.45"}},{"country":"sl","city":"Banda","coordinates":{"lat":"8.0666667","long":"-11.25"}},{"country":"sl","city":"Banda","coordinates":{"lat":"7.9666667","long":"-11.9"}},{"country":"sl","city":"Banda Bulima","coordinates":{"lat":"8.2833333","long":"-11.0333333"}},{"country":"sl","city":"Bandaia","coordinates":{"lat":"8.85","long":"-11.2833333"}},{"country":"sl","city":"Bandaia","coordinates":{"lat":"9.15","long":"-10.7166667"}},{"country":"sl","city":"Bandajama","coordinates":{"lat":"7.5744444","long":"-11.6525"}},{"country":"sl","city":"Bandajuma","coordinates":{"lat":"7.7219444","long":"-10.8575"}},{"country":"sl","city":"Bandajuma","coordinates":{"lat":"7.3719444","long":"-11.4094444"}},{"country":"sl","city":"Bandakarafaia","coordinates":{"lat":"9.2666667","long":"-11.2"}},{"country":"sl","city":"Bandako","coordinates":{"lat":"8.6833333","long":"-10.55"}},{"country":"sl","city":"Bandako","coordinates":{"lat":"7.2827778","long":"-11.8611111"}},{"country":"sl","city":"Bandakoro","coordinates":{"lat":"8.4166667","long":"-10.35"}},{"country":"sl","city":"Bandalahun","coordinates":{"lat":"7.55","long":"-11.0"}},{"country":"sl","city":"Bandalahun","coordinates":{"lat":"7.4366667","long":"-11.7530556"}},{"country":"sl","city":"Bandama","coordinates":{"lat":"8.3483333","long":"-10.3513889"}},{"country":"sl","city":"Bandama","coordinates":{"lat":"7.3830556","long":"-11.6008333"}},{"country":"sl","city":"Bandankoro","coordinates":{"lat":"8.9333333","long":"-11.35"}},{"country":"sl","city":"Bandankunduma","coordinates":{"lat":"9.3833333","long":"-10.8833333"}},{"country":"sl","city":"Bandaru","coordinates":{"lat":"8.4666667","long":"-11.1"}},{"country":"sl","city":"Bandasa","coordinates":{"lat":"7.7088889","long":"-12.0547222"}},{"country":"sl","city":"Bandasuma","coordinates":{"lat":"8.5166667","long":"-10.7166667"}},{"country":"sl","city":"Bandasuma","coordinates":{"lat":"7.3719444","long":"-11.4094444"}},{"country":"sl","city":"Bandawa","coordinates":{"lat":"7.9969444","long":"-11.7963889"}},{"country":"sl","city":"Bandi","coordinates":{"lat":"8.0666667","long":"-10.9833333"}},{"country":"sl","city":"Bandi","coordinates":{"lat":"8.1166667","long":"-11.7833333"}},{"country":"sl","city":"Bandivulahun","coordinates":{"lat":"8.25","long":"-10.5666667"}},{"country":"sl","city":"Bandiworo","coordinates":{"lat":"8.1683333","long":"-10.3805556"}},{"country":"sl","city":"Bandko","coordinates":{"lat":"8.6166667","long":"-10.6833333"}},{"country":"sl","city":"Bandoma","coordinates":{"lat":"8.2333333","long":"-10.4833333"}},{"country":"sl","city":"Bane","coordinates":{"lat":"8.85","long":"-12.6166667"}},{"country":"sl","city":"Banfele","coordinates":{"lat":"9.2833333","long":"-10.9333333"}},{"country":"sl","city":"Bangabu","coordinates":{"lat":"8.2333333","long":"-11.1666667"}},{"country":"sl","city":"Bangabu","coordinates":{"lat":"8.0","long":"-11.5666667"}},{"country":"sl","city":"Bangagolehun","coordinates":{"lat":"8.1177778","long":"-12.7166667"}},{"country":"sl","city":"Banga Ground","coordinates":{"lat":"8.2575","long":"-13.0186111"}},{"country":"sl","city":"Bangahun","coordinates":{"lat":"9.15","long":"-12.1333333"}},{"country":"sl","city":"Bangalo","coordinates":{"lat":"7.825","long":"-12.4022222"}},{"country":"sl","city":"Bangawilli","coordinates":{"lat":"8.2833333","long":"-12.9666667"}},{"country":"sl","city":"Bangba","coordinates":{"lat":"7.9166667","long":"-12.1666667"}},{"country":"sl","city":"Bangbalia","coordinates":{"lat":"7.5666667","long":"-11.9"}},{"country":"sl","city":"Bangbama","coordinates":{"lat":"8.2486111","long":"-12.3336111"}},{"country":"sl","city":"Bangbema","coordinates":{"lat":"8.25","long":"-12.5833333"}},{"country":"sl","city":"Bangema","coordinates":{"lat":"7.6666667","long":"-11.2833333"}},{"country":"sl","city":"Bangema","coordinates":{"lat":"7.7666667","long":"-11.6"}},{"country":"sl","city":"Bango","coordinates":{"lat":"7.4866667","long":"-12.5811111"}},{"country":"sl","city":"Bangoma","coordinates":{"lat":"7.2241667","long":"-11.8405556"}},{"country":"sl","city":"Banguema","coordinates":{"lat":"8.9833333","long":"-12.1333333"}},{"country":"sl","city":"Bangulihun","coordinates":{"lat":"7.3166667","long":"-11.2333333"}},{"country":"sl","city":"Banguru","coordinates":{"lat":"8.8666667","long":"-12.5666667"}},{"country":"sl","city":"Bangwama","coordinates":{"lat":"8.4833333","long":"-11.3833333"}},{"country":"sl","city":"Bani","coordinates":{"lat":"9.1333333","long":"-12.4833333"}},{"country":"sl","city":"Banjala","coordinates":{"lat":"7.9925","long":"-11.3422222"}},{"country":"sl","city":"Banjema","coordinates":{"lat":"8.45","long":"-11.5333333"}},{"country":"sl","city":"Banjuguya","coordinates":{"lat":"9.9166667","long":"-11.2166667"}},{"country":"sl","city":"Banka","coordinates":{"lat":"8.5333333","long":"-12.4833333"}},{"country":"sl","city":"Bankafu","coordinates":{"lat":"8.3166667","long":"-12.4"}},{"country":"sl","city":"Bankanbaia","coordinates":{"lat":"8.8166667","long":"-11.1666667"}},{"country":"sl","city":"Bankoro","coordinates":{"lat":"9.6166667","long":"-11.5166667"}},{"country":"sl","city":"Banoajuma","coordinates":{"lat":"8.0333333","long":"-11.0166667"}},{"country":"sl","city":"Bantania","coordinates":{"lat":"9.8666667","long":"-11.4833333"}},{"country":"sl","city":"Bantantia","coordinates":{"lat":"9.8666667","long":"-11.4833333"}},{"country":"sl","city":"Bantele","coordinates":{"lat":"9.2833333","long":"-10.9333333"}},{"country":"sl","city":"Bantoro","coordinates":{"lat":"8.8833333","long":"-12.8"}},{"country":"sl","city":"Banyamahun","coordinates":{"lat":"8.2333333","long":"-11.4333333"}},{"country":"sl","city":"Baoma","coordinates":{"lat":"7.7058333","long":"-11.2033333"}},{"country":"sl","city":"Baoma","coordinates":{"lat":"8.1","long":"-11.35"}},{"country":"sl","city":"Baoma","coordinates":{"lat":"8.4272222","long":"-13.2644444"}},{"country":"sl","city":"Baomahun","coordinates":{"lat":"8.1833333","long":"-10.7833333"}},{"country":"sl","city":"Baomahun","coordinates":{"lat":"7.7844444","long":"-11.6669444"}},{"country":"sl","city":"Baomo","coordinates":{"lat":"7.9294444","long":"-11.4386111"}},{"country":"sl","city":"Baona","coordinates":{"lat":"8.7666667","long":"-11.2166667"}},{"country":"sl","city":"Bap","coordinates":{"lat":"7.3763889","long":"-12.2616667"}},{"country":"sl","city":"Bapi","coordinates":{"lat":"8.3333333","long":"-11.4166667"}},{"country":"sl","city":"Baponto","coordinates":{"lat":"8.2816667","long":"-13.0669444"}},{"country":"sl","city":"Bapuya","coordinates":{"lat":"9.0","long":"-13.1166667"}},{"country":"sl","city":"Barabara","coordinates":{"lat":"9.1666667","long":"-12.1666667"}},{"country":"sl","city":"Baradu","coordinates":{"lat":"8.3","long":"-10.3"}},{"country":"sl","city":"Baraka","coordinates":{"lat":"7.72","long":"-11.2244444"}},{"country":"sl","city":"Baraka","coordinates":{"lat":"7.0180556","long":"-11.4463889"}},{"country":"sl","city":"Barawakomoia","coordinates":{"lat":"9.3833333","long":"-11.3"}},{"country":"sl","city":"Bar","coordinates":{"lat":"8.9333333","long":"-11.9666667"}},{"country":"sl","city":"Bar","coordinates":{"lat":"7.2333333","long":"-11.55"}},{"country":"sl","city":"Barbara","coordinates":{"lat":"8.8333333","long":"-13.1333333"}},{"country":"sl","city":"Barbo","coordinates":{"lat":"7.3763889","long":"-12.2616667"}},{"country":"sl","city":"Bare","coordinates":{"lat":"8.9333333","long":"-11.8666667"}},{"country":"sl","city":"Barema","coordinates":{"lat":"8.05","long":"-12.0"}},{"country":"sl","city":"Baremakha","coordinates":{"lat":"9.6333333","long":"-12.4833333"}},{"country":"sl","city":"Barengin","coordinates":{"lat":"8.5333333","long":"-12.3333333"}},{"country":"sl","city":"Bareta","coordinates":{"lat":"9.8333333","long":"-12.2833333"}},{"country":"sl","city":"Bari","coordinates":{"lat":"8.3666667","long":"-12.6333333"}},{"country":"sl","city":"Bari","coordinates":{"lat":"8.0166667","long":"-11.5833333"}},{"country":"sl","city":"Barimbe","coordinates":{"lat":"8.5666667","long":"-12.6166667"}},{"country":"sl","city":"Barimbi","coordinates":{"lat":"8.4166667","long":"-11.85"}},{"country":"sl","city":"Barinyin","coordinates":{"lat":"8.5333333","long":"-12.3333333"}},{"country":"sl","city":"Barlo","coordinates":{"lat":"8.8177778","long":"-13.2355556"}},{"country":"sl","city":"Barlo Wharf","coordinates":{"lat":"8.8341667","long":"-13.2333333"}},{"country":"sl","city":"Barma","coordinates":{"lat":"8.35","long":"-11.3333333"}},{"country":"sl","city":"Barmoi","coordinates":{"lat":"8.9833333","long":"-12.6333333"}},{"country":"sl","city":"Barmouth","coordinates":{"lat":"8.2333333","long":"-12.8166667"}},{"country":"sl","city":"Barve","coordinates":{"lat":"8.0333333","long":"-10.9833333"}},{"country":"sl","city":"Basa","coordinates":{"lat":"9.3333333","long":"-12.5666667"}},{"country":"sl","city":"Basa","coordinates":{"lat":"7.9","long":"-12.4666667"}},{"country":"sl","city":"Basaiya","coordinates":{"lat":"8.95","long":"-11.7666667"}},{"country":"sl","city":"Basale","coordinates":{"lat":"7.3166667","long":"-11.8"}},{"country":"sl","city":"Basama","coordinates":{"lat":"8.3833333","long":"-11.7166667"}},{"country":"sl","city":"Basaya","coordinates":{"lat":"8.8666667","long":"-11.65"}},{"country":"sl","city":"Basea","coordinates":{"lat":"8.5333333","long":"-11.2166667"}},{"country":"sl","city":"Basia","coordinates":{"lat":"8.5666667","long":"-11.5"}},{"country":"sl","city":"Bassa","coordinates":{"lat":"8.4388889","long":"-13.1844444"}},{"country":"sl","city":"Bassu Town","coordinates":{"lat":"8.325","long":"-13.0661111"}},{"country":"sl","city":"Batahol","coordinates":{"lat":"7.3455556","long":"-11.8752778"}},{"country":"sl","city":"Batama","coordinates":{"lat":"8.3166667","long":"-12.9666667"}},{"country":"sl","city":"Batawahun","coordinates":{"lat":"7.7166667","long":"-11.3"}},{"country":"sl","city":"Batbai","coordinates":{"lat":"8.1833333","long":"-12.9166667"}},{"country":"sl","city":"Batbai","coordinates":{"lat":"8.2944444","long":"-13.0483333"}},{"country":"sl","city":"Batbal","coordinates":{"lat":"8.1833333","long":"-12.9166667"}},{"country":"sl","city":"Batbana","coordinates":{"lat":"8.3333333","long":"-12.45"}},{"country":"sl","city":"Bate","coordinates":{"lat":"8.6166667","long":"-10.6833333"}},{"country":"sl","city":"Batema","coordinates":{"lat":"8.0","long":"-11.7"}},{"country":"sl","city":"Bathurst","coordinates":{"lat":"8.4305556","long":"-13.1983333"}},{"country":"sl","city":"Batiema","coordinates":{"lat":"8.0833333","long":"-12.0833333"}},{"country":"sl","city":"Batiyema","coordinates":{"lat":"8.2","long":"-10.8166667"}},{"country":"sl","city":"Batiyema","coordinates":{"lat":"7.9833333","long":"-11.7166667"}},{"country":"sl","city":"Batkanu","coordinates":{"lat":"9.0833333","long":"-12.4166667"}},{"country":"sl","city":"Batoma","coordinates":{"lat":"8.15","long":"-11.3"}},{"country":"sl","city":"Batoma","coordinates":{"lat":"7.35","long":"-11.4166667"}},{"country":"sl","city":"Batoru","coordinates":{"lat":"7.85","long":"-11.0333333"}},{"country":"sl","city":"Batpela","coordinates":{"lat":"8.45","long":"-11.7833333"}},{"country":"sl","city":"Batpo","coordinates":{"lat":"8.3","long":"-12.6333333"}},{"country":"sl","city":"Batpulun","coordinates":{"lat":"8.7166667","long":"-12.7"}},{"country":"sl","city":"Batsint","coordinates":{"lat":"8.3833333","long":"-12.45"}},{"country":"sl","city":"Battam Town","coordinates":{"lat":"8.2525","long":"-13.0486111"}},{"country":"sl","city":"Batwoma","coordinates":{"lat":"8.1166667","long":"-10.5333333"}},{"country":"sl","city":"Baudu","coordinates":{"lat":"8.85","long":"-11.1333333"}},{"country":"sl","city":"Baula","coordinates":{"lat":"8.05","long":"-11.5333333"}},{"country":"sl","city":"Bauya","coordinates":{"lat":"7.6177778","long":"-12.0805556"}},{"country":"sl","city":"Bawa","coordinates":{"lat":"8.7333333","long":"-10.7"}},{"country":"sl","city":"Bawadu","coordinates":{"lat":"8.9833333","long":"-10.5833333"}},{"country":"sl","city":"Bawahun","coordinates":{"lat":"8.2333333","long":"-11.3166667"}},{"country":"sl","city":"Bawbaw","coordinates":{"lat":"8.3427778","long":"-13.2197222"}},{"country":"sl","city":"Baw-o-bu","coordinates":{"lat":"8.3333333","long":"-12.9833333"}},{"country":"sl","city":"Bawura","coordinates":{"lat":"7.9166667","long":"-11.7"}},{"country":"sl","city":"Bayama","coordinates":{"lat":"7.4166667","long":"-11.7166667"}},{"country":"sl","city":"Bedu","coordinates":{"lat":"8.3","long":"-10.35"}},{"country":"sl","city":"Bejorma","coordinates":{"lat":"8.2833333","long":"-11.2833333"}},{"country":"sl","city":"Beki","coordinates":{"lat":"8.5166667","long":"-12.5333333"}},{"country":"sl","city":"Beko","coordinates":{"lat":"8.6333333","long":"-10.9166667"}},{"country":"sl","city":"Bekolimri","coordinates":{"lat":"8.85","long":"-13.0847222"}},{"country":"sl","city":"Bekoro","coordinates":{"lat":"8.6333333","long":"-11.0666667"}},{"country":"sl","city":"Belbul","coordinates":{"lat":"7.5511111","long":"-12.8380556"}},{"country":"sl","city":"Bele","coordinates":{"lat":"7.8","long":"-12.6"}},{"country":"sl","city":"Belebu","coordinates":{"lat":"7.6066667","long":"-11.0391667"}},{"country":"sl","city":"Belebu","coordinates":{"lat":"7.2166667","long":"-11.6730556"}},{"country":"sl","city":"Belforia","coordinates":{"lat":"9.6833333","long":"-10.9833333"}},{"country":"sl","city":"Belibap","coordinates":{"lat":"8.5333333","long":"-12.6166667"}},{"country":"sl","city":"Belihu","coordinates":{"lat":"8.1","long":"-11.15"}},{"country":"sl","city":"Belihun","coordinates":{"lat":"8.35","long":"-11.6"}},{"country":"sl","city":"Beliya","coordinates":{"lat":"7.6666667","long":"-11.3166667"}},{"country":"sl","city":"Belor","coordinates":{"lat":"7.95","long":"-11.95"}},{"country":"sl","city":"Belu","coordinates":{"lat":"7.8333333","long":"-11.3833333"}},{"country":"sl","city":"Bembe","coordinates":{"lat":"8.0833333","long":"-12.7166667"}},{"country":"sl","city":"Bembebu","coordinates":{"lat":"7.55","long":"-12.5333333"}},{"country":"sl","city":"Bembelo Giema","coordinates":{"lat":"7.7352778","long":"-12.7061111"}},{"country":"sl","city":"Bembelo Glema","coordinates":{"lat":"7.7352778","long":"-12.7061111"}},{"country":"sl","city":"Bembelo Njala","coordinates":{"lat":"7.7166667","long":"-12.7166667"}},{"country":"sl","city":"Bembeya","coordinates":{"lat":"7.7666667","long":"-12.3333333"}},{"country":"sl","city":"Bembeyema","coordinates":{"lat":"7.8666667","long":"-10.8666667"}},{"country":"sl","city":"Bemebu","coordinates":{"lat":"7.55","long":"-12.5333333"}},{"country":"sl","city":"Bempa","coordinates":{"lat":"7.1833333","long":"-11.7666667"}},{"country":"sl","city":"Bena","coordinates":{"lat":"9.1333333","long":"-12.8166667"}},{"country":"sl","city":"Benalu","coordinates":{"lat":"8.2666667","long":"-10.6166667"}},{"country":"sl","city":"Bendehun","coordinates":{"lat":"8.1833333","long":"-11.5"}},{"country":"sl","city":"Bendia","coordinates":{"lat":"9.5","long":"-12.6166667"}},{"country":"sl","city":"Bendu","coordinates":{"lat":"8.1","long":"-10.9833333"}},{"country":"sl","city":"Bendu","coordinates":{"lat":"8.95","long":"-10.7333333"}},{"country":"sl","city":"Bendu","coordinates":{"lat":"7.4777778","long":"-12.0102778"}},{"country":"sl","city":"Bendugu","coordinates":{"lat":"10.0","long":"-11.7666667"}},{"country":"sl","city":"Benduhun","coordinates":{"lat":"7.5833333","long":"-11.1666667"}},{"country":"sl","city":"Benduma","coordinates":{"lat":"8.0","long":"-10.8166667"}},{"country":"sl","city":"Benduma","coordinates":{"lat":"7.2666667","long":"-11.9666667"}},{"country":"sl","city":"Benekoro","coordinates":{"lat":"9.6166667","long":"-11.4666667"}},{"country":"sl","city":"Benga","coordinates":{"lat":"7.3716667","long":"-11.7547222"}},{"country":"sl","city":"Bengani","coordinates":{"lat":"7.1755556","long":"-11.9033333"}},{"country":"sl","city":"Bengberia","coordinates":{"lat":"8.8666667","long":"-11.3166667"}},{"country":"sl","city":"Benge","coordinates":{"lat":"7.4213889","long":"-11.9672222"}},{"country":"sl","city":"Bengelo","coordinates":{"lat":"7.825","long":"-12.4022222"}},{"country":"sl","city":"Bengi","coordinates":{"lat":"7.4583333","long":"-11.66"}},{"country":"sl","city":"Bengomaia","coordinates":{"lat":"8.8833333","long":"-11.1166667"}},{"country":"sl","city":"Benguema","coordinates":{"lat":"8.3213889","long":"-13.0727778"}},{"country":"sl","city":"Bengwema","coordinates":{"lat":"8.3213889","long":"-13.0727778"}},{"country":"sl","city":"Benia","coordinates":{"lat":"9.6","long":"-11.6"}},{"country":"sl","city":"Benikoro","coordinates":{"lat":"9.2666667","long":"-11.5833333"}},{"country":"sl","city":"Benkai","coordinates":{"lat":"8.65","long":"-12.9"}},{"country":"sl","city":"Benke","coordinates":{"lat":"8.6363889","long":"-13.2213889"}},{"country":"sl","city":"Benkeh","coordinates":{"lat":"7.8302778","long":"-12.5380556"}},{"country":"sl","city":"Benkia","coordinates":{"lat":"8.55","long":"-12.6833333"}},{"country":"sl","city":"Benkisa","coordinates":{"lat":"7.4166667","long":"-11.95"}},{"country":"sl","city":"Benkisi","coordinates":{"lat":"8.3666667","long":"-10.3"}},{"country":"sl","city":"Benoko","coordinates":{"lat":"8.2333333","long":"-10.5"}},{"country":"sl","city":"Benti","coordinates":{"lat":"7.4833333","long":"-12.0666667"}},{"country":"sl","city":"Benyama","coordinates":{"lat":"7.25","long":"-11.2166667"}},{"country":"sl","city":"Beobu","coordinates":{"lat":"7.5558333","long":"-11.1797222"}},{"country":"sl","city":"Bepi","coordinates":{"lat":"7.7","long":"-11.8333333"}},{"country":"sl","city":"Bepon","coordinates":{"lat":"7.25","long":"-11.2833333"}},{"country":"sl","city":"Berebu","coordinates":{"lat":"8.1333333","long":"-11.3166667"}},{"country":"sl","city":"Berekhuri","coordinates":{"lat":"9.4","long":"-12.6"}},{"country":"sl","city":"Berembe","coordinates":{"lat":"8.4","long":"-11.45"}},{"country":"sl","city":"Berimbe","coordinates":{"lat":"8.5666667","long":"-12.6166667"}},{"country":"sl","city":"Besane","coordinates":{"lat":"8.7","long":"-12.5333333"}},{"country":"sl","city":"Besebu","coordinates":{"lat":"7.9","long":"-10.8166667"}},{"country":"sl","city":"Besenia","coordinates":{"lat":"9.2666667","long":"-11.45"}},{"country":"sl","city":"Beshebu","coordinates":{"lat":"8.25","long":"-11.1"}},{"country":"sl","city":"Betesu","coordinates":{"lat":"8.1833333","long":"-10.4333333"}},{"country":"sl","city":"Betesu","coordinates":{"lat":"7.2166667","long":"-11.5833333"}},{"country":"sl","city":"Bevehun","coordinates":{"lat":"7.4527778","long":"-11.4986111"}},{"country":"sl","city":"Bewobu","coordinates":{"lat":"7.7833333","long":"-11.0166667"}},{"country":"sl","city":"Bewobu","coordinates":{"lat":"8.2166667","long":"-11.5166667"}},{"country":"sl","city":"Beyama","coordinates":{"lat":"8.2","long":"-10.7166667"}},{"country":"sl","city":"Beyambu","coordinates":{"lat":"9.9666667","long":"-11.3166667"}},{"country":"sl","city":"Beyima","coordinates":{"lat":"8.5333333","long":"-10.8333333"}},{"country":"sl","city":"Biama","coordinates":{"lat":"7.85","long":"-11.4666667"}},{"country":"sl","city":"Bibodu","coordinates":{"lat":"8.5","long":"-10.8"}},{"country":"sl","city":"Biki","coordinates":{"lat":"8.5166667","long":"-12.5333333"}},{"country":"sl","city":"Bikidu","coordinates":{"lat":"8.6666667","long":"-10.85"}},{"country":"sl","city":"Bilafu","coordinates":{"lat":"8.7005556","long":"-12.2461111"}},{"country":"sl","city":"Bilasilaia","coordinates":{"lat":"8.8833333","long":"-11.4333333"}},{"country":"sl","city":"Bilo","coordinates":{"lat":"7.4","long":"-12.55"}},{"country":"sl","city":"Bimaso","coordinates":{"lat":"7.05","long":"-11.5666667"}},{"country":"sl","city":"Bimbaia","coordinates":{"lat":"8.6586111","long":"-13.2013889"}},{"country":"sl","city":"Bimbaiya","coordinates":{"lat":"9.3833333","long":"-12.7333333"}},{"country":"sl","city":"Bimbaya","coordinates":{"lat":"9.3833333","long":"-12.7333333"}},{"country":"sl","city":"Bimbi","coordinates":{"lat":"7.5113889","long":"-12.5502778"}},{"country":"sl","city":"Bina","coordinates":{"lat":"8.6333333","long":"-12.35"}},{"country":"sl","city":"Bindalahun","coordinates":{"lat":"7.4333333","long":"-11.2333333"}},{"country":"sl","city":"Bindi","coordinates":{"lat":"9.9166667","long":"-11.45"}},{"country":"sl","city":"Bindika","coordinates":{"lat":"8.1666667","long":"-11.05"}},{"country":"sl","city":"Bindohun","coordinates":{"lat":"7.4563889","long":"-12.3216667"}},{"country":"sl","city":"Binkolo","coordinates":{"lat":"8.95","long":"-11.9833333"}},{"country":"sl","city":"Binni","coordinates":{"lat":"8.305","long":"-13.0580556"}},{"country":"sl","city":"Biradu","coordinates":{"lat":"9.5333333","long":"-11.0166667"}},{"country":"sl","city":"Biribaia","coordinates":{"lat":"9.8166667","long":"-11.1666667"}},{"country":"sl","city":"Birimba","coordinates":{"lat":"9.3","long":"-10.7166667"}},{"country":"sl","city":"Birun","coordinates":{"lat":"9.0833333","long":"-13.0166667"}},{"country":"sl","city":"Bisao","coordinates":{"lat":"7.4166667","long":"-11.8833333"}},{"country":"sl","city":"Bisawo","coordinates":{"lat":"7.6405556","long":"-12.1572222"}},{"country":"sl","city":"Bisibu","coordinates":{"lat":"8.1166667","long":"-11.8666667"}},{"country":"sl","city":"Bith","coordinates":{"lat":"7.8533333","long":"-12.7713889"}},{"country":"sl","city":"Bitima","coordinates":{"lat":"8.15","long":"-11.6833333"}},{"country":"sl","city":"Blama","coordinates":{"lat":"7.8736111","long":"-11.3433333"}},{"country":"sl","city":"Blama","coordinates":{"lat":"7.1166667","long":"-11.5833333"}},{"country":"sl","city":"Boaboabu","coordinates":{"lat":"7.8191667","long":"-11.1988889"}},{"country":"sl","city":"Boabu","coordinates":{"lat":"8.3","long":"-11.25"}},{"country":"sl","city":"Boabu","coordinates":{"lat":"8.0666667","long":"-11.3666667"}},{"country":"sl","city":"Boaia","coordinates":{"lat":"8.5","long":"-11.1"}},{"country":"sl","city":"Boajibu","coordinates":{"lat":"8.1833333","long":"-11.3333333"}},{"country":"sl","city":"Boalakarafaia","coordinates":{"lat":"9.6166667","long":"-11.0"}},{"country":"sl","city":"Bobe","coordinates":{"lat":"7.5761111","long":"-12.6541667"}},{"country":"sl","city":"Bo","coordinates":{"lat":"7.9375","long":"-11.3463889"}},{"country":"sl","city":"Bo","coordinates":{"lat":"7.9647222","long":"-11.7383333"}},{"country":"sl","city":"Bobobu","coordinates":{"lat":"7.6208333","long":"-11.1875"}},{"country":"sl","city":"Bobobu","coordinates":{"lat":"7.4019444","long":"-11.6733333"}},{"country":"sl","city":"Bobo Gieya","coordinates":{"lat":"7.8161111","long":"-10.9663889"}},{"country":"sl","city":"Bobowahun","coordinates":{"lat":"7.9883333","long":"-11.3275"}},{"country":"sl","city":"Bodu","coordinates":{"lat":"8.4833333","long":"-10.75"}},{"country":"sl","city":"Bogbema","coordinates":{"lat":"7.9636111","long":"-10.6488889"}},{"country":"sl","city":"Bogboabu","coordinates":{"lat":"7.5922222","long":"-11.3080556"}},{"country":"sl","city":"Bogema","coordinates":{"lat":"7.9636111","long":"-10.6488889"}},{"country":"sl","city":"Bohehun","coordinates":{"lat":"8.3833333","long":"-11.65"}},{"country":"sl","city":"Bohekema","coordinates":{"lat":"7.9891667","long":"-10.6897222"}},{"country":"sl","city":"Bohoi","coordinates":{"lat":"8.1383333","long":"-12.1794444"}},{"country":"sl","city":"Bohol","coordinates":{"lat":"7.3958333","long":"-12.1075"}},{"country":"sl","city":"Bohun","coordinates":{"lat":"7.2833333","long":"-11.9"}},{"country":"sl","city":"Boikandu","coordinates":{"lat":"8.3013889","long":"-13.0330556"}},{"country":"sl","city":"Boisawlaw","coordinates":{"lat":"8.5166667","long":"-12.6"}},{"country":"sl","city":"Bokaria","coordinates":{"lat":"8.9930556","long":"-13.1211111"}},{"country":"sl","city":"Bokarikondea","coordinates":{"lat":"9.5166667","long":"-11.0"}},{"country":"sl","city":"Bokari Town","coordinates":{"lat":"8.2527778","long":"-13.0791667"}},{"country":"sl","city":"Bokeni","coordinates":{"lat":"8.0666667","long":"-11.35"}},{"country":"sl","city":"Boko","coordinates":{"lat":"8.35","long":"-10.4"}},{"country":"sl","city":"Bokolu","coordinates":{"lat":"8.4","long":"-10.6666667"}},{"country":"sl","city":"Bokuma","coordinates":{"lat":"8.3166667","long":"-11.65"}},{"country":"sl","city":"Boleyama","coordinates":{"lat":"8.1","long":"-11.2166667"}},{"country":"sl","city":"Bolia","coordinates":{"lat":"8.6666667","long":"-11.35"}},{"country":"sl","city":"Bolilahun","coordinates":{"lat":"7.8833333","long":"-10.8333333"}},{"country":"sl","city":"Bolilanun","coordinates":{"lat":"7.8833333","long":"-10.8333333"}},{"country":"sl","city":"Bololo","coordinates":{"lat":"8.7166667","long":"-10.5333333"}},{"country":"sl","city":"Boloma","coordinates":{"lat":"7.2347222","long":"-11.3911111"}},{"country":"sl","city":"Bolota","coordinates":{"lat":"9.8333333","long":"-12.1166667"}},{"country":"sl","city":"Boma","coordinates":{"lat":"8.6666667","long":"-10.95"}},{"country":"sl","city":"Boma","coordinates":{"lat":"7.1666667","long":"-11.75"}},{"country":"sl","city":"Boma","coordinates":{"lat":"8.2519444","long":"-13.0758333"}},{"country":"sl","city":"Bomahun","coordinates":{"lat":"8.2","long":"-12.1666667"}},{"country":"sl","city":"Bomaru","coordinates":{"lat":"8.0166667","long":"-10.6166667"}},{"country":"sl","city":"Bomatok","coordinates":{"lat":"7.5469444","long":"-12.6022222"}},{"country":"sl","city":"Bombadu","coordinates":{"lat":"8.6166667","long":"-10.8666667"}},{"country":"sl","city":"Bombalibana","coordinates":{"lat":"8.9666667","long":"-12.0333333"}},{"country":"sl","city":"Bombali","coordinates":{"lat":"8.9827778","long":"-13.1508333"}},{"country":"sl","city":"Bombe","coordinates":{"lat":"7.9","long":"-11.0333333"}},{"country":"sl","city":"Bombe","coordinates":{"lat":"8.8833333","long":"-11.9833333"}},{"country":"sl","city":"Bombe","coordinates":{"lat":"8.3833333","long":"-11.6666667"}},{"country":"sl","city":"Bomboafuidu","coordinates":{"lat":"8.6166667","long":"-11.2833333"}},{"country":"sl","city":"Bombo","coordinates":{"lat":"8.9833333","long":"-12.7833333"}},{"country":"sl","city":"Bombohun","coordinates":{"lat":"7.965","long":"-10.8336111"}},{"country":"sl","city":"Bombohun","coordinates":{"lat":"7.0213889","long":"-11.4652778"}},{"country":"sl","city":"Bomboima","coordinates":{"lat":"7.9166667","long":"-11.1333333"}},{"country":"sl","city":"Bom","coordinates":{"lat":"9.0833333","long":"-12.9"}},{"country":"sl","city":"Bomboma","coordinates":{"lat":"7.9","long":"-10.9666667"}},{"country":"sl","city":"Bomboma","coordinates":{"lat":"7.2155556","long":"-11.3083333"}},{"country":"sl","city":"Bomboru","coordinates":{"lat":"8.2333333","long":"-10.3666667"}},{"country":"sl","city":"Bomdei","coordinates":{"lat":"7.8836111","long":"-12.5386111"}},{"country":"sl","city":"Bomemahun","coordinates":{"lat":"7.4830556","long":"-12.3788889"}},{"country":"sl","city":"Bomia","coordinates":{"lat":"8.8166667","long":"-13.2"}},{"country":"sl","city":"Bomi","coordinates":{"lat":"7.2461111","long":"-11.5258333"}},{"country":"sl","city":"Bomna","coordinates":{"lat":"8.75","long":"-11.85"}},{"country":"sl","city":"Bomodia","coordinates":{"lat":"8.6475","long":"-13.1911111"}},{"country":"sl","city":"Bomotoke","coordinates":{"lat":"7.82","long":"-12.6563889"}},{"country":"sl","city":"Bompetok","coordinates":{"lat":"7.8138889","long":"-12.85"}},{"country":"sl","city":"Bompeworo","coordinates":{"lat":"8.1333333","long":"-11.3833333"}},{"country":"sl","city":"Bomu","coordinates":{"lat":"7.4580556","long":"-11.6188889"}},{"country":"sl","city":"Bomuvulahun","coordinates":{"lat":"7.5","long":"-11.8166667"}},{"country":"sl","city":"Bonaia","coordinates":{"lat":"9.1666667","long":"-11.9833333"}},{"country":"sl","city":"Bondal","coordinates":{"lat":"7.995","long":"-12.7811111"}},{"country":"sl","city":"Bondama","coordinates":{"lat":"8.0333333","long":"-11.7833333"}},{"country":"sl","city":"Bondam","coordinates":{"lat":"7.8413889","long":"-12.6091667"}},{"country":"sl","city":"Bondayilahun","coordinates":{"lat":"8.0358333","long":"-12.1316667"}},{"country":"sl","city":"Bondayirahun","coordinates":{"lat":"8.1333333","long":"-11.9833333"}},{"country":"sl","city":"Bonde","coordinates":{"lat":"8.05","long":"-10.7666667"}},{"country":"sl","city":"Bondebu","coordinates":{"lat":"7.3119444","long":"-12.1480556"}},{"country":"sl","city":"Bondehun","coordinates":{"lat":"7.45","long":"-11.2"}},{"country":"sl","city":"Bondodu","coordinates":{"lat":"8.55","long":"-10.95"}},{"country":"sl","city":"Bondoma","coordinates":{"lat":"8.5166667","long":"-11.4166667"}},{"country":"sl","city":"Bondoma","coordinates":{"lat":"8.0333333","long":"-11.7833333"}},{"country":"sl","city":"Bondua","coordinates":{"lat":"9.4166667","long":"-11.8166667"}},{"country":"sl","city":"Bonekune","coordinates":{"lat":"8.1666667","long":"-10.55"}},{"country":"sl","city":"Bonga","coordinates":{"lat":"8.9333333","long":"-13.2"}},{"country":"sl","city":"Bongama","coordinates":{"lat":"8.0","long":"-11.05"}},{"country":"sl","city":"Bongama","coordinates":{"lat":"8.2833333","long":"-12.1833333"}},{"country":"sl","city":"Bonganema","coordinates":{"lat":"8.1302778","long":"-12.0608333"}},{"country":"sl","city":"Bongboma","coordinates":{"lat":"7.0663889","long":"-11.4830556"}},{"country":"sl","city":"Bongboru","coordinates":{"lat":"8.3666667","long":"-10.8"}},{"country":"sl","city":"Bongbu","coordinates":{"lat":"8.0166667","long":"-11.0833333"}},{"country":"sl","city":"Bonge","coordinates":{"lat":"8.6333333","long":"-11.45"}},{"country":"sl","city":"Bonge","coordinates":{"lat":"7.5572222","long":"-12.7361111"}},{"country":"sl","city":"Bongema","coordinates":{"lat":"8.5166667","long":"-10.75"}},{"country":"sl","city":"Bongere","coordinates":{"lat":"7.5333333","long":"-11.5166667"}},{"country":"sl","city":"Bo Ngieha","coordinates":{"lat":"8.05","long":"-11.0666667"}},{"country":"sl","city":"Bongka","coordinates":{"lat":"9.2666667","long":"-12.2333333"}},{"country":"sl","city":"Bongoadu","coordinates":{"lat":"8.4","long":"-10.8"}},{"country":"sl","city":"Bongo","coordinates":{"lat":"7.5730556","long":"-11.2219444"}},{"country":"sl","city":"Bongoia","coordinates":{"lat":"8.5333333","long":"-11.3333333"}},{"country":"sl","city":"Bongoma","coordinates":{"lat":"7.4411111","long":"-11.2730556"}},{"country":"sl","city":"Bongoya","coordinates":{"lat":"8.0177778","long":"-12.0986111"}},{"country":"sl","city":"Bonguema","coordinates":{"lat":"8.3213889","long":"-13.0727778"}},{"country":"sl","city":"Boni","coordinates":{"lat":"8.95","long":"-10.6"}},{"country":"sl","city":"Bonjema","coordinates":{"lat":"8.2333333","long":"-10.55"}},{"country":"sl","city":"Bonjema","coordinates":{"lat":"7.8416667","long":"-12.7166667"}},{"country":"sl","city":"Bonjeya","coordinates":{"lat":"8.25","long":"-10.8333333"}},{"country":"sl","city":"Bonka","coordinates":{"lat":"8.6666667","long":"-12.6"}},{"country":"sl","city":"Bonkamataka","coordinates":{"lat":"8.6333333","long":"-12.0666667"}},{"country":"sl","city":"Bonkiri","coordinates":{"lat":"8.6666667","long":"-12.8333333"}},{"country":"sl","city":"Bonkofoton","coordinates":{"lat":"9.8166667","long":"-12.45"}},{"country":"sl","city":"Bonkohun","coordinates":{"lat":"9.0666667","long":"-12.2166667"}},{"country":"sl","city":"Bonkomataka","coordinates":{"lat":"8.6333333","long":"-12.0666667"}},{"country":"sl","city":"Bonoyema","coordinates":{"lat":"7.7666667","long":"-10.9166667"}},{"country":"sl","city":"Bonth","coordinates":{"lat":"7.5263889","long":"-12.505"}},{"country":"sl","city":"Bonthe","coordinates":{"lat":"7.5263889","long":"-12.505"}},{"country":"sl","city":"Bontiwo","coordinates":{"lat":"7.6294444","long":"-11.6705556"}},{"country":"sl","city":"Bontiworo","coordinates":{"lat":"7.6816667","long":"-11.8133333"}},{"country":"sl","city":"Bopan","coordinates":{"lat":"7.1833333","long":"-11.6833333"}},{"country":"sl","city":"Bopo","coordinates":{"lat":"7.1705556","long":"-11.5919444"}},{"country":"sl","city":"Bopon","coordinates":{"lat":"7.1833333","long":"-11.4666667"}},{"country":"sl","city":"Borbana","coordinates":{"lat":"8.9833333","long":"-12.0666667"}},{"country":"sl","city":"Boria","coordinates":{"lat":"9.1333333","long":"-10.8"}},{"country":"sl","city":"Borobofu","coordinates":{"lat":"9.5833333","long":"-12.6166667"}},{"country":"sl","city":"Borokonko","coordinates":{"lat":"8.7166667","long":"-10.5166667"}},{"country":"sl","city":"Boronka","coordinates":{"lat":"9.45","long":"-12.2"}},{"country":"sl","city":"Boroso","coordinates":{"lat":"9.7","long":"-11.9"}},{"country":"sl","city":"Borwaila","coordinates":{"lat":"8.2833333","long":"-12.95"}},{"country":"sl","city":"Bosadu","coordinates":{"lat":"8.5833333","long":"-10.8"}},{"country":"sl","city":"Bosaia","coordinates":{"lat":"8.8166667","long":"-11.0333333"}},{"country":"sl","city":"Bosanda","coordinates":{"lat":"8.8","long":"-11.9666667"}},{"country":"sl","city":"Bosodu","coordinates":{"lat":"8.35","long":"-10.3666667"}},{"country":"sl","city":"Bosudu","coordinates":{"lat":"8.5166667","long":"-11.05"}},{"country":"sl","city":"Botima","coordinates":{"lat":"8.2833333","long":"-12.85"}},{"country":"sl","city":"Botiwa","coordinates":{"lat":"8.1666667","long":"-10.7333333"}},{"country":"sl","city":"Boto","coordinates":{"lat":"7.3947222","long":"-12.1561111"}},{"country":"sl","city":"Bouria","coordinates":{"lat":"9.35","long":"-11.9333333"}},{"country":"sl","city":"Bowahun","coordinates":{"lat":"7.75","long":"-11.0166667"}},{"country":"sl","city":"Bowama","coordinates":{"lat":"8.1333333","long":"-12.0"}},{"country":"sl","city":"Bowgere","coordinates":{"lat":"7.5333333","long":"-11.5166667"}},{"country":"sl","city":"Bowo","coordinates":{"lat":"8.3333333","long":"-10.4666667"}},{"country":"sl","city":"Bowobu","coordinates":{"lat":"8.35","long":"-10.85"}},{"country":"sl","city":"Boyago","coordinates":{"lat":"7.7375","long":"-10.9213889"}},{"country":"sl","city":"Boyama","coordinates":{"lat":"7.6833333","long":"-11.1"}},{"country":"sl","city":"Boyama","coordinates":{"lat":"7.525","long":"-11.8186111"}},{"country":"sl","city":"Boyipie","coordinates":{"lat":"7.4166667","long":"-11.9333333"}},{"country":"sl","city":"Bradali","coordinates":{"lat":"8.9333333","long":"-11.7833333"}},{"country":"sl","city":"Bradford","coordinates":{"lat":"8.3","long":"-12.75"}},{"country":"sl","city":"Braia","coordinates":{"lat":"8.5166667","long":"-10.9166667"}},{"country":"sl","city":"Brama","coordinates":{"lat":"8.3666667","long":"-12.9666667"}},{"country":"sl","city":"Buabu","coordinates":{"lat":"8.15","long":"-11.4333333"}},{"country":"sl","city":"Buawola","coordinates":{"lat":"7.7333333","long":"-11.45"}},{"country":"sl","city":"Bubama","coordinates":{"lat":"7.7541667","long":"-11.15"}},{"country":"sl","city":"Bubania","coordinates":{"lat":"9.15","long":"-10.95"}},{"country":"sl","city":"Bubu Town","coordinates":{"lat":"8.3019444","long":"-13.0269444"}},{"country":"sl","city":"Bubuya","coordinates":{"lat":"9.0163889","long":"-13.0583333"}},{"country":"sl","city":"Buedu","coordinates":{"lat":"8.2802778","long":"-10.3719444"}},{"country":"sl","city":"Buelu","coordinates":{"lat":"8.1833333","long":"-10.5333333"}},{"country":"sl","city":"Bugami","coordinates":{"lat":"9.5","long":"-12.6166667"}},{"country":"sl","city":"Buguma","coordinates":{"lat":"7.7833333","long":"-11.1666667"}},{"country":"sl","city":"Buia","coordinates":{"lat":"8.8833333","long":"-12.0166667"}},{"country":"sl","city":"Bukema","coordinates":{"lat":"8.2","long":"-11.0"}},{"country":"sl","city":"Bukuya","coordinates":{"lat":"8.4833333","long":"-11.0333333"}},{"country":"sl","city":"Bulima","coordinates":{"lat":"7.9","long":"-11.0"}},{"country":"sl","city":"Bullom","coordinates":{"lat":"8.6372222","long":"-13.1619444"}},{"country":"sl","city":"Bululaminaia","coordinates":{"lat":"9.0313889","long":"-13.0833333"}},{"country":"sl","city":"Buma","coordinates":{"lat":"7.4986111","long":"-11.1213889"}},{"country":"sl","city":"Buma","coordinates":{"lat":"7.1444444","long":"-11.5463889"}},{"country":"sl","city":"Bumba","coordinates":{"lat":"8.7833333","long":"-12.5"}},{"country":"sl","city":"Bumban","coordinates":{"lat":"9.0166667","long":"-11.8166667"}},{"country":"sl","city":"Bumbande","coordinates":{"lat":"9.0833333","long":"-12.0"}},{"country":"sl","city":"Bumbanjia","coordinates":{"lat":"8.9333333","long":"-11.0333333"}},{"country":"sl","city":"Bumbe","coordinates":{"lat":"7.9","long":"-11.0333333"}},{"country":"sl","city":"Bumbe","coordinates":{"lat":"8.5166667","long":"-12.4666667"}},{"country":"sl","city":"Bumbe","coordinates":{"lat":"7.2844444","long":"-11.5630556"}},{"country":"sl","city":"Bumbeworo","coordinates":{"lat":"8.2833333","long":"-12.45"}},{"country":"sl","city":"Bumbeworo","coordinates":{"lat":"7.9652778","long":"-12.0877778"}},{"country":"sl","city":"Bumbo","coordinates":{"lat":"9.5333333","long":"-12.2166667"}},{"country":"sl","city":"Bumbolo","coordinates":{"lat":"8.7833333","long":"-10.7666667"}},{"country":"sl","city":"Bum","coordinates":{"lat":"7.5044444","long":"-11.8775"}},{"country":"sl","city":"Bumbuna","coordinates":{"lat":"9.05","long":"-11.7333333"}},{"country":"sl","city":"Bumbunkoro","coordinates":{"lat":"9.2833333","long":"-10.9833333"}},{"country":"sl","city":"Bumbunkura","coordinates":{"lat":"9.55","long":"-11.45"}},{"country":"sl","city":"Bumoe","coordinates":{"lat":"7.4897222","long":"-11.5627778"}},{"country":"sl","city":"Bumpa","coordinates":{"lat":"8.9833333","long":"-11.9333333"}},{"country":"sl","city":"Bumpe","coordinates":{"lat":"7.78","long":"-10.8125"}},{"country":"sl","city":"Bumpe","coordinates":{"lat":"7.2844444","long":"-11.5630556"}},{"country":"sl","city":"Bumpetok","coordinates":{"lat":"7.4025","long":"-12.0361111"}},{"country":"sl","city":"Bumpetoke","coordinates":{"lat":"7.8138889","long":"-12.85"}},{"country":"sl","city":"Bumplol","coordinates":{"lat":"8.6666667","long":"-12.8833333"}},{"country":"sl","city":"Bunabu","coordinates":{"lat":"8.1333333","long":"-12.1833333"}},{"country":"sl","city":"Bunbande","coordinates":{"lat":"9.0833333","long":"-12.0"}},{"country":"sl","city":"Bundayirahun","coordinates":{"lat":"8.3833333","long":"-11.3166667"}},{"country":"sl","city":"Bunde","coordinates":{"lat":"7.8094444","long":"-12.5991667"}},{"country":"sl","city":"Bundema","coordinates":{"lat":"8.3166667","long":"-10.7166667"}},{"country":"sl","city":"Bundima","coordinates":{"lat":"8.7","long":"-11.8833333"}},{"country":"sl","city":"Bundobu","coordinates":{"lat":"8.2833333","long":"-10.8166667"}},{"country":"sl","city":"Bundobu","coordinates":{"lat":"7.9166667","long":"-11.5"}},{"country":"sl","city":"Bundoia","coordinates":{"lat":"8.55","long":"-11.4"}},{"country":"sl","city":"Bundukaw","coordinates":{"lat":"7.15","long":"-11.7"}},{"country":"sl","city":"Bundundo","coordinates":{"lat":"8.95","long":"-10.9833333"}},{"country":"sl","city":"Bunga","coordinates":{"lat":"8.8333333","long":"-12.6333333"}},{"country":"sl","city":"Bunge","coordinates":{"lat":"7.5572222","long":"-12.7361111"}},{"country":"sl","city":"Bungema","coordinates":{"lat":"8.5333333","long":"-11.3666667"}},{"country":"sl","city":"Bunguema","coordinates":{"lat":"8.9833333","long":"-12.1333333"}},{"country":"sl","city":"Bunguema","coordinates":{"lat":"8.3213889","long":"-13.0727778"}},{"country":"sl","city":"Bunjema","coordinates":{"lat":"7.4166667","long":"-11.2"}},{"country":"sl","city":"Bunjema","coordinates":{"lat":"7.75","long":"-11.4833333"}},{"country":"sl","city":"Bunkababi","coordinates":{"lat":"8.3566667","long":"-12.2191667"}},{"country":"sl","city":"Bunka","coordinates":{"lat":"8.7666667","long":"-12.5333333"}},{"country":"sl","city":"Bunti","coordinates":{"lat":"7.8666667","long":"-12.8666667"}},{"country":"sl","city":"Bunumbu","coordinates":{"lat":"8.1666667","long":"-10.8666667"}},{"country":"sl","city":"Bunumbu","coordinates":{"lat":"8.2833333","long":"-12.1833333"}},{"country":"sl","city":"Buobobo","coordinates":{"lat":"8.25","long":"-10.5333333"}},{"country":"sl","city":"Buobobu","coordinates":{"lat":"8.25","long":"-10.5333333"}},{"country":"sl","city":"Burahun","coordinates":{"lat":"8.9","long":"-12.4333333"}},{"country":"sl","city":"Buraia","coordinates":{"lat":"9.0","long":"-13.0666667"}},{"country":"sl","city":"Bure","coordinates":{"lat":"8.6833333","long":"-12.7333333"}},{"country":"sl","city":"Bure","coordinates":{"lat":"7.8816667","long":"-12.9016667"}},{"country":"sl","city":"Bure Town","coordinates":{"lat":"8.2011111","long":"-13.1513889"}},{"country":"sl","city":"Burie Town","coordinates":{"lat":"8.3177778","long":"-13.0580556"}},{"country":"sl","city":"Buru","coordinates":{"lat":"9.2833333","long":"-10.95"}},{"country":"sl","city":"Busu","coordinates":{"lat":"7.4841667","long":"-11.4469444"}},{"country":"sl","city":"Butehun","coordinates":{"lat":"8.4","long":"-10.85"}},{"country":"sl","city":"Buvehun","coordinates":{"lat":"8.2833333","long":"-12.9333333"}},{"country":"sl","city":"Buya","coordinates":{"lat":"8.7330556","long":"-12.1722222"}},{"country":"sl","city":"Buya","coordinates":{"lat":"8.3166667","long":"-12.2833333"}},{"country":"sl","city":"Buyama","coordinates":{"lat":"7.9833333","long":"-10.95"}},{"country":"sl","city":"Buyama","coordinates":{"lat":"7.0519444","long":"-11.6708333"}},{"country":"sl","city":"Buyebu","coordinates":{"lat":"8.25","long":"-12.1166667"}},{"country":"sl","city":"Buyegema","coordinates":{"lat":"8.3166667","long":"-10.6833333"}},{"country":"sl","city":"Buyehun","coordinates":{"lat":"8.15","long":"-11.7166667"}},{"country":"sl","city":"Bwaia","coordinates":{"lat":"8.5666667","long":"-11.0666667"}},{"country":"sl","city":"Bwango Town","coordinates":{"lat":"8.25","long":"-13.05"}},{"country":"sl","city":"Bwedu","coordinates":{"lat":"8.2802778","long":"-10.3719444"}},{"country":"sl","city":"Bwema","coordinates":{"lat":"7.9","long":"-11.0"}},{"country":"sl","city":"Calaba Town","coordinates":{"lat":"8.4380556","long":"-13.1630556"}},{"country":"sl","city":"Campbell Town","coordinates":{"lat":"8.3066667","long":"-13.0502778"}},{"country":"sl","city":"Charlotte","coordinates":{"lat":"8.4241667","long":"-13.1916667"}},{"country":"sl","city":"Chembu","coordinates":{"lat":"9.4166667","long":"-12.2833333"}},{"country":"sl","city":"Cher","coordinates":{"lat":"7.8058333","long":"-12.7636111"}},{"country":"sl","city":"Chesuadu","coordinates":{"lat":"8.95","long":"-11.1666667"}},{"country":"sl","city":"Chokolo","coordinates":{"lat":"7.6333333","long":"-12.3666667"}},{"country":"sl","city":"Cline Town","coordinates":{"lat":"8.2627778","long":"-13.0808333"}},{"country":"sl","city":"Coldbath Town","coordinates":{"lat":"8.4333333","long":"-13.1666667"}},{"country":"sl","city":"Cole Town","coordinates":{"lat":"8.2722222","long":"-13.0797222"}},{"country":"sl","city":"Congo","coordinates":{"lat":"8.3547222","long":"-13.1086111"}},{"country":"sl","city":"Cotton Tree","coordinates":{"lat":"8.5525","long":"-13.1852778"}},{"country":"sl","city":"Daambu","coordinates":{"lat":"9.3333333","long":"-12.0"}},{"country":"sl","city":"Dablama","coordinates":{"lat":"7.9997222","long":"-10.7122222"}},{"country":"sl","city":"Dablama","coordinates":{"lat":"7.5927778","long":"-12.8322222"}},{"country":"sl","city":"Dabu","coordinates":{"lat":"8.0833333","long":"-12.6166667"}},{"country":"sl","city":"Dada","coordinates":{"lat":"9.5166667","long":"-12.2666667"}},{"country":"sl","city":"Dagbu","coordinates":{"lat":"8.5833333","long":"-10.6"}},{"country":"sl","city":"Dagure","coordinates":{"lat":"9.75","long":"-11.3166667"}},{"country":"sl","city":"Dahama","coordinates":{"lat":"8.05","long":"-11.3333333"}},{"country":"sl","city":"Dakadu","coordinates":{"lat":"8.6833333","long":"-10.8"}},{"country":"sl","city":"Dakaia","coordinates":{"lat":"9.3666667","long":"-11.25"}},{"country":"sl","city":"Dakanene","coordinates":{"lat":"9.4833333","long":"-12.6"}},{"country":"sl","city":"Dakaro","coordinates":{"lat":"8.85","long":"-10.9333333"}},{"country":"sl","city":"Dakaw","coordinates":{"lat":"8.0333333","long":"-10.6166667"}},{"country":"sl","city":"Dakokalia","coordinates":{"lat":"9.4666667","long":"-10.8833333"}},{"country":"sl","city":"Dakunaia","coordinates":{"lat":"9.55","long":"-11.5833333"}},{"country":"sl","city":"Dalmusaia","coordinates":{"lat":"9.7833333","long":"-11.2166667"}},{"country":"sl","city":"Dama","coordinates":{"lat":"7.2244444","long":"-11.8591667"}},{"country":"sl","city":"Damando","coordinates":{"lat":"8.7166667","long":"-10.6333333"}},{"country":"sl","city":"Damaworo","coordinates":{"lat":"7.4783333","long":"-11.2175"}},{"country":"sl","city":"Damawuro","coordinates":{"lat":"7.4783333","long":"-11.2175"}},{"country":"sl","city":"Dambaba","coordinates":{"lat":"8.1166667","long":"-11.7"}},{"country":"sl","city":"Damba","coordinates":{"lat":"8.3166667","long":"-10.3166667"}},{"country":"sl","city":"Dambadu","coordinates":{"lat":"8.6166667","long":"-10.5833333"}},{"country":"sl","city":"Dambalu","coordinates":{"lat":"8.1955556","long":"-10.4086111"}},{"country":"sl","city":"Dambara","coordinates":{"lat":"7.5225","long":"-10.8975"}},{"country":"sl","city":"Dambara","coordinates":{"lat":"7.3833333","long":"-11.7"}},{"country":"sl","city":"Dambo","coordinates":{"lat":"8.3166667","long":"-10.3166667"}},{"country":"sl","city":"Dambu","coordinates":{"lat":"7.9783333","long":"-10.8997222"}},{"country":"sl","city":"Dambu","coordinates":{"lat":"8.1833333","long":"-12.45"}},{"country":"sl","city":"Dandabu","coordinates":{"lat":"7.85","long":"-11.3333333"}},{"country":"sl","city":"Dandabu","coordinates":{"lat":"7.4766667","long":"-11.6847222"}},{"country":"sl","city":"Danda","coordinates":{"lat":"8.85","long":"-11.7333333"}},{"country":"sl","city":"Danda","coordinates":{"lat":"7.5538889","long":"-12.6338889"}},{"country":"sl","city":"Dandafara","coordinates":{"lat":"9.2833333","long":"-10.6833333"}},{"country":"sl","city":"Dandaia","coordinates":{"lat":"9.8833333","long":"-12.2166667"}},{"country":"sl","city":"Dandando","coordinates":{"lat":"8.7166667","long":"-10.9166667"}},{"country":"sl","city":"Dandaya","coordinates":{"lat":"8.8833333","long":"-11.65"}},{"country":"sl","city":"Dandebu","coordinates":{"lat":"7.85","long":"-11.3333333"}},{"country":"sl","city":"Dandegahun","coordinates":{"lat":"7.4041667","long":"-11.4358333"}},{"country":"sl","city":"Dandu","coordinates":{"lat":"8.9333333","long":"-11.0666667"}},{"country":"sl","city":"Dandu","coordinates":{"lat":"8.9833333","long":"-10.75"}},{"country":"sl","city":"Dangbwidu","coordinates":{"lat":"8.7166667","long":"-10.9666667"}},{"country":"sl","city":"Dankan","coordinates":{"lat":"9.2166667","long":"-11.6833333"}},{"country":"sl","city":"Dankankuma","coordinates":{"lat":"9.6166667","long":"-11.55"}},{"country":"sl","city":"Dankawali","coordinates":{"lat":"9.6333333","long":"-11.3333333"}},{"country":"sl","city":"Dankowolia","coordinates":{"lat":"8.9166667","long":"-11.6"}},{"country":"sl","city":"Dankwali","coordinates":{"lat":"9.6333333","long":"-11.3333333"}},{"country":"sl","city":"Dansadia","coordinates":{"lat":"9.9833333","long":"-11.2333333"}},{"country":"sl","city":"Dansaia","coordinates":{"lat":"9.9333333","long":"-11.2166667"}},{"country":"sl","city":"Darakuru","coordinates":{"lat":"9.2","long":"-11.5333333"}},{"country":"sl","city":"Dare","coordinates":{"lat":"8.6502778","long":"-13.05"}},{"country":"sl","city":"Dar-es-Salaam","coordinates":{"lat":"8.3666667","long":"-10.4333333"}},{"country":"sl","city":"Dar-es-Salaam","coordinates":{"lat":"9.3166667","long":"-11.9166667"}},{"country":"sl","city":"Dar-es-Salaam","coordinates":{"lat":"7.0919444","long":"-11.5247222"}},{"country":"sl","city":"Dar-es-Salam","coordinates":{"lat":"9.3166667","long":"-11.9166667"}},{"country":"sl","city":"Dar-es-Selaam","coordinates":{"lat":"9.3166667","long":"-11.9166667"}},{"country":"sl","city":"Darina","coordinates":{"lat":"9.2833333","long":"-11.9"}},{"country":"sl","city":"Daru","coordinates":{"lat":"7.9919444","long":"-10.8405556"}},{"country":"sl","city":"Dawa","coordinates":{"lat":"8.2588889","long":"-10.3161111"}},{"country":"sl","city":"Dawambu","coordinates":{"lat":"9.25","long":"-12.0333333"}},{"country":"sl","city":"Dawambu","coordinates":{"lat":"8.1166667","long":"-11.4666667"}},{"country":"sl","city":"Dawia","coordinates":{"lat":"8.8833333","long":"-11.55"}},{"country":"sl","city":"Dawule","coordinates":{"lat":"9.15","long":"-11.1166667"}},{"country":"sl","city":"Dawulema","coordinates":{"lat":"9.0333333","long":"-10.6333333"}},{"country":"sl","city":"Deadu","coordinates":{"lat":"8.7833333","long":"-11.2166667"}},{"country":"sl","city":"Deili","coordinates":{"lat":"9.15","long":"-12.5833333"}},{"country":"sl","city":"Deilo","coordinates":{"lat":"9.15","long":"-12.5833333"}},{"country":"sl","city":"Deima","coordinates":{"lat":"7.9802778","long":"-11.2566667"}},{"country":"sl","city":"Delken","coordinates":{"lat":"7.6247222","long":"-12.7408333"}},{"country":"sl","city":"Delkin","coordinates":{"lat":"7.6247222","long":"-12.7408333"}},{"country":"sl","city":"Demaboa","coordinates":{"lat":"7.55","long":"-12.0"}},{"country":"sl","city":"Dema","coordinates":{"lat":"8.1166667","long":"-10.8"}},{"country":"sl","city":"Dema","coordinates":{"lat":"7.45","long":"-11.95"}},{"country":"sl","city":"Demba","coordinates":{"lat":"9.1166667","long":"-12.5"}},{"country":"sl","city":"Dembema","coordinates":{"lat":"8.65","long":"-11.0833333"}},{"country":"sl","city":"Dendegahun","coordinates":{"lat":"7.4041667","long":"-11.4358333"}},{"country":"sl","city":"Dendehun","coordinates":{"lat":"9.2666667","long":"-12.1333333"}},{"country":"sl","city":"Dengedu","coordinates":{"lat":"8.6333333","long":"-10.5166667"}},{"country":"sl","city":"Denibe","coordinates":{"lat":"7.1","long":"-11.5333333"}},{"country":"sl","city":"Dentema","coordinates":{"lat":"8.6944444","long":"-13.2108333"}},{"country":"sl","city":"Denti","coordinates":{"lat":"8.6997222","long":"-13.2166667"}},{"country":"sl","city":"Depea Water","coordinates":{"lat":"8.3580556","long":"-13.0819444"}},{"country":"sl","city":"Devil Hole","coordinates":{"lat":"8.37","long":"-13.0933333"}},{"country":"sl","city":"Dewadu","coordinates":{"lat":"8.6","long":"-10.9166667"}},{"country":"sl","city":"Deyaw","coordinates":{"lat":"8.5","long":"-10.7666667"}},{"country":"sl","city":"Dia","coordinates":{"lat":"7.9166667","long":"-11.0333333"}},{"country":"sl","city":"Dia","coordinates":{"lat":"7.0833333","long":"-11.35"}},{"country":"sl","city":"Diama","coordinates":{"lat":"7.7872222","long":"-11.2147222"}},{"country":"sl","city":"Diamani","coordinates":{"lat":"7.2305556","long":"-11.9022222"}},{"country":"sl","city":"Diame","coordinates":{"lat":"7.7286111","long":"-11.1425"}},{"country":"sl","city":"Diamei","coordinates":{"lat":"7.4333333","long":"-11.6666667"}},{"country":"sl","city":"Diamein","coordinates":{"lat":"7.4338889","long":"-11.6588889"}},{"country":"sl","city":"Dian Sokurela","coordinates":{"lat":"9.35","long":"-11.5166667"}},{"country":"sl","city":"Dibia","coordinates":{"lat":"9.0833333","long":"-12.85"}},{"country":"sl","city":"Dibia","coordinates":{"lat":"6.9891667","long":"-11.5983333"}},{"country":"sl","city":"Dibid","coordinates":{"lat":"6.9891667","long":"-11.5983333"}},{"country":"sl","city":"Dibo","coordinates":{"lat":"9.4","long":"-12.4333333"}},{"country":"sl","city":"Didia","coordinates":{"lat":"9.65","long":"-11.4166667"}},{"country":"sl","city":"Dige","coordinates":{"lat":"8.0333333","long":"-11.2333333"}},{"country":"sl","city":"Diima","coordinates":{"lat":"7.9802778","long":"-11.2566667"}},{"country":"sl","city":"Dikpaya","coordinates":{"lat":"7.8333333","long":"-11.7833333"}},{"country":"sl","city":"Dilma","coordinates":{"lat":"7.9802778","long":"-11.2566667"}},{"country":"sl","city":"Dina","coordinates":{"lat":"7.5833333","long":"-11.7166667"}},{"country":"sl","city":"Dindi","coordinates":{"lat":"8.4833333","long":"-10.3166667"}},{"country":"sl","city":"Dinga","coordinates":{"lat":"7.4166667","long":"-12.5611111"}},{"country":"sl","city":"Dintilipan","coordinates":{"lat":"9.055","long":"-13.2144444"}},{"country":"sl","city":"Dipala","coordinates":{"lat":"7.5","long":"-12.1333333"}},{"country":"sl","city":"Disa","coordinates":{"lat":"8.0666667","long":"-11.1166667"}},{"country":"sl","city":"Disalami","coordinates":{"lat":"7.2361111","long":"-11.26"}},{"country":"sl","city":"Diwa","coordinates":{"lat":"8.2833333","long":"-11.0666667"}},{"country":"sl","city":"Diyange","coordinates":{"lat":"7.3069444","long":"-11.6144444"}},{"country":"sl","city":"Dodo","coordinates":{"lat":"7.8175","long":"-10.8511111"}},{"country":"sl","city":"Dodo","coordinates":{"lat":"7.4933333","long":"-12.2166667"}},{"country":"sl","city":"Dogema","coordinates":{"lat":"7.8716667","long":"-12.1783333"}},{"country":"sl","city":"Doijo","coordinates":{"lat":"7.8097222","long":"-11.4141667"}},{"country":"sl","city":"Dombadu","coordinates":{"lat":"8.5","long":"-11.2333333"}},{"country":"sl","city":"Domboma","coordinates":{"lat":"8.0544444","long":"-12.0816667"}},{"country":"sl","city":"Dombu","coordinates":{"lat":"7.3166667","long":"-11.2666667"}},{"country":"sl","city":"Domingo Farm","coordinates":{"lat":"8.3783333","long":"-13.2413889"}},{"country":"sl","city":"Domliyan","coordinates":{"lat":"8.9833333","long":"-11.85"}},{"country":"sl","city":"Domo","coordinates":{"lat":"7.7911111","long":"-12.7205556"}},{"country":"sl","city":"Dongowa","coordinates":{"lat":"8.4294444","long":"-10.3963889"}},{"country":"sl","city":"Donia","coordinates":{"lat":"9.75","long":"-12.2666667"}},{"country":"sl","city":"Doumbu","coordinates":{"lat":"7.3166667","long":"-11.2666667"}},{"country":"sl","city":"Dowoju","coordinates":{"lat":"7.8097222","long":"-11.4141667"}},{"country":"sl","city":"Dowoloma","coordinates":{"lat":"7.2166667","long":"-11.4"}},{"country":"sl","city":"Dowoma","coordinates":{"lat":"7.2166667","long":"-11.4"}},{"country":"sl","city":"Duago","coordinates":{"lat":"9.2333333","long":"-11.9"}},{"country":"sl","city":"Duako","coordinates":{"lat":"8.7333333","long":"-10.5666667"}},{"country":"sl","city":"Duako","coordinates":{"lat":"9.85","long":"-11.2833333"}},{"country":"sl","city":"Dubaia","coordinates":{"lat":"9.5166667","long":"-11.9666667"}},{"country":"sl","city":"Dublin","coordinates":{"lat":"8.1333333","long":"-13.2002778"}},{"country":"sl","city":"Dudia","coordinates":{"lat":"7.4","long":"-11.95"}},{"country":"sl","city":"Dugaia","coordinates":{"lat":"9.7166667","long":"-12.5"}},{"country":"sl","city":"Dugbema","coordinates":{"lat":"8.5166667","long":"-10.6833333"}},{"country":"sl","city":"Dugbudu","coordinates":{"lat":"8.5166667","long":"-10.6333333"}},{"country":"sl","city":"Dugulama","coordinates":{"lat":"9.4","long":"-10.85"}},{"country":"sl","city":"Dukono","coordinates":{"lat":"8.3","long":"-10.7333333"}},{"country":"sl","city":"Dukono","coordinates":{"lat":"9.3666667","long":"-11.4333333"}},{"country":"sl","city":"Duladi","coordinates":{"lat":"9.5","long":"-12.65"}},{"country":"sl","city":"Dulema","coordinates":{"lat":"9.2833333","long":"-10.85"}},{"country":"sl","city":"Dulipuibu","coordinates":{"lat":"7.7958333","long":"-12.0436111"}},{"country":"sl","city":"Dumagbe","coordinates":{"lat":"7.0811111","long":"-11.6169444"}},{"country":"sl","city":"Dumbaia","coordinates":{"lat":"9.8833333","long":"-12.2666667"}},{"country":"sl","city":"Dumbilibu","coordinates":{"lat":"8.45","long":"-11.4166667"}},{"country":"sl","city":"Dunamaro","coordinates":{"lat":"8.65","long":"-10.55"}},{"country":"sl","city":"Dunamo","coordinates":{"lat":"8.6666667","long":"-10.65"}},{"country":"sl","city":"Dunduko","coordinates":{"lat":"9.5166667","long":"-11.4"}},{"country":"sl","city":"Dunduwa","coordinates":{"lat":"9.0166667","long":"-11.05"}},{"country":"sl","city":"Dunemaro","coordinates":{"lat":"8.65","long":"-10.8833333"}},{"country":"sl","city":"Durukoro","coordinates":{"lat":"9.0166667","long":"-10.7166667"}},{"country":"sl","city":"Duvubu","coordinates":{"lat":"8.0833333","long":"-11.1166667"}},{"country":"sl","city":"Duvubu","coordinates":{"lat":"8.4333333","long":"-11.55"}},{"country":"sl","city":"Duwulema","coordinates":{"lat":"9.0333333","long":"-10.6333333"}},{"country":"sl","city":"Duya","coordinates":{"lat":"8.35","long":"-11.5166667"}},{"country":"sl","city":"Duyamahun","coordinates":{"lat":"8.4166667","long":"-10.7833333"}},{"country":"sl","city":"Eaiama","coordinates":{"lat":"7.5283333","long":"-10.9980556"}},{"country":"sl","city":"Eaiama","coordinates":{"lat":"7.3452778","long":"-11.5291667"}},{"country":"sl","city":"Egbema","coordinates":{"lat":"7.1352778","long":"-11.3558333"}},{"country":"sl","city":"Eneya","coordinates":{"lat":"8.6522222","long":"-13.2211111"}},{"country":"sl","city":"Faabu","coordinates":{"lat":"8.0","long":"-11.35"}},{"country":"sl","city":"Fabaina","coordinates":{"lat":"8.05","long":"-10.8333333"}},{"country":"sl","city":"Fabaina","coordinates":{"lat":"7.0366667","long":"-11.48"}},{"country":"sl","city":"Fabaina","coordinates":{"lat":"8.3","long":"-12.9333333"}},{"country":"sl","city":"Fabu","coordinates":{"lat":"7.6333333","long":"-11.8833333"}},{"country":"sl","city":"Factri","coordinates":{"lat":"7.5236111","long":"-12.2525"}},{"country":"sl","city":"Fada","coordinates":{"lat":"8.6666667","long":"-10.8833333"}},{"country":"sl","city":"Fadu","coordinates":{"lat":"8.7666667","long":"-10.9333333"}},{"country":"sl","city":"Fadugu","coordinates":{"lat":"9.3833333","long":"-11.7666667"}},{"country":"sl","city":"Fafo","coordinates":{"lat":"8.85","long":"-10.6666667"}},{"country":"sl","city":"Fagoia","coordinates":{"lat":"8.2333333","long":"-10.7666667"}},{"country":"sl","city":"Fagona","coordinates":{"lat":"8.25","long":"-10.9333333"}},{"country":"sl","city":"Fagoya","coordinates":{"lat":"7.9166667","long":"-10.8833333"}},{"country":"sl","city":"Faiama","coordinates":{"lat":"7.5283333","long":"-10.9980556"}},{"country":"sl","city":"Faiama","coordinates":{"lat":"7.3452778","long":"-11.5291667"}},{"country":"sl","city":"Faikundo","coordinates":{"lat":"7.2333333","long":"-11.9"}},{"country":"sl","city":"Failahun","coordinates":{"lat":"7.7833333","long":"-11.7666667"}},{"country":"sl","city":"Faima","coordinates":{"lat":"7.6852778","long":"-11.5697222"}},{"country":"sl","city":"Fainda","coordinates":{"lat":"7.05","long":"-11.5833333"}},{"country":"sl","city":"Faindu","coordinates":{"lat":"8.7166667","long":"-10.5666667"}},{"country":"sl","city":"Fairo","coordinates":{"lat":"7.0927778","long":"-11.4033333"}},{"country":"sl","city":"Fa-iya","coordinates":{"lat":"9.0","long":"-10.7666667"}},{"country":"sl","city":"Fajkundo","coordinates":{"lat":"7.8019444","long":"-11.8958333"}},{"country":"sl","city":"Fakabai","coordinates":{"lat":"7.9847222","long":"-12.7858333"}},{"country":"sl","city":"Fakai","coordinates":{"lat":"7.4783333","long":"-11.3788889"}},{"country":"sl","city":"Fakai","coordinates":{"lat":"8.3627778","long":"-13.0222222"}},{"country":"sl","city":"Fakaisana","coordinates":{"lat":"7.4930556","long":"-12.6036111"}},{"country":"sl","city":"Fakina","coordinates":{"lat":"8.2838889","long":"-13.0719444"}},{"country":"sl","city":"Fakono","coordinates":{"lat":"7.4822222","long":"-12.0155556"}},{"country":"sl","city":"Fakor","coordinates":{"lat":"9.0166667","long":"-11.1166667"}},{"country":"sl","city":"Fakoro","coordinates":{"lat":"8.7666667","long":"-10.6333333"}},{"country":"sl","city":"Fakoya","coordinates":{"lat":"8.5166667","long":"-11.0"}},{"country":"sl","city":"Fakundija","coordinates":{"lat":"8.9833333","long":"-10.7666667"}},{"country":"sl","city":"Fakunding-ya","coordinates":{"lat":"9.0666667","long":"-10.7"}},{"country":"sl","city":"Falabadi","coordinates":{"lat":"9.7833333","long":"-12.0333333"}},{"country":"sl","city":"Falaba","coordinates":{"lat":"8.0333333","long":"-10.7"}},{"country":"sl","city":"Falaba","coordinates":{"lat":"9.85","long":"-11.3166667"}},{"country":"sl","city":"Falaba","coordinates":{"lat":"7.4194444","long":"-11.5272222"}},{"country":"sl","city":"Falabodi","coordinates":{"lat":"9.7833333","long":"-12.0333333"}},{"country":"sl","city":"Falabu","coordinates":{"lat":"7.9833333","long":"-11.7686111"}},{"country":"sl","city":"Fala","coordinates":{"lat":"8.2833333","long":"-11.3833333"}},{"country":"sl","city":"Fala","coordinates":{"lat":"8.05","long":"-11.4833333"}},{"country":"sl","city":"Falahun","coordinates":{"lat":"8.3","long":"-10.6833333"}},{"country":"sl","city":"Falo","coordinates":{"lat":"8.5833333","long":"-10.8166667"}},{"country":"sl","city":"Falu","coordinates":{"lat":"7.9333333","long":"-11.5833333"}},{"country":"sl","city":"Fana","coordinates":{"lat":"9.7","long":"-12.4166667"}},{"country":"sl","city":"Fanama","coordinates":{"lat":"8.9833333","long":"-10.95"}},{"country":"sl","city":"Fanda","coordinates":{"lat":"8.65","long":"-10.6"}},{"country":"sl","city":"Fandala","coordinates":{"lat":"9.0666667","long":"-11.05"}},{"country":"sl","city":"Fandehun","coordinates":{"lat":"8.6","long":"-11.2833333"}},{"country":"sl","city":"Fandu","coordinates":{"lat":"8.2288889","long":"-10.4544444"}},{"country":"sl","city":"Fangamadu","coordinates":{"lat":"8.2452778","long":"-10.3144444"}},{"country":"sl","city":"Fangoia","coordinates":{"lat":"8.9666667","long":"-11.2833333"}},{"country":"sl","city":"Fanima","coordinates":{"lat":"8.9833333","long":"-10.95"}},{"country":"sl","city":"Fanima","coordinates":{"lat":"7.2391667","long":"-11.4822222"}},{"country":"sl","city":"Fankaia","coordinates":{"lat":"9.35","long":"-10.8"}},{"country":"sl","city":"Fankama","coordinates":{"lat":"9.5666667","long":"-11.9166667"}},{"country":"sl","city":"Fankoya","coordinates":{"lat":"9.1666667","long":"-10.9666667"}},{"country":"sl","city":"Fanta","coordinates":{"lat":"9.2833333","long":"-12.6166667"}},{"country":"sl","city":"Fanye","coordinates":{"lat":"8.6333333","long":"-12.8833333"}},{"country":"sl","city":"Faragbema","coordinates":{"lat":"9.1833333","long":"-10.7833333"}},{"country":"sl","city":"Farakoro","coordinates":{"lat":"9.0","long":"-11.3666667"}},{"country":"sl","city":"Farama","coordinates":{"lat":"8.5833333","long":"-11.6"}},{"country":"sl","city":"Farandu","coordinates":{"lat":"8.6666667","long":"-10.9666667"}},{"country":"sl","city":"Farandugu","coordinates":{"lat":"9.4833333","long":"-11.45"}},{"country":"sl","city":"Farangbaya","coordinates":{"lat":"8.9833333","long":"-11.7166667"}},{"country":"sl","city":"Faransula","coordinates":{"lat":"8.8833333","long":"-11.6"}},{"country":"sl","city":"Farataw","coordinates":{"lat":"8.9666667","long":"-11.6166667"}},{"country":"sl","city":"Farawaro","coordinates":{"lat":"9.3666667","long":"-10.85"}},{"country":"sl","city":"Fasinaia","coordinates":{"lat":"9.4","long":"-12.6333333"}},{"country":"sl","city":"Fasonkodu","coordinates":{"lat":"8.4469444","long":"-10.3105556"}},{"country":"sl","city":"Fataba","coordinates":{"lat":"8.2166667","long":"-12.3833333"}},{"country":"sl","city":"Fatio","coordinates":{"lat":"7.4666667","long":"-11.2833333"}},{"country":"sl","city":"Fatori","coordinates":{"lat":"9.2666667","long":"-12.6333333"}},{"country":"sl","city":"Fauia","coordinates":{"lat":"8.7166667","long":"-11.1"}},{"country":"sl","city":"Fawaneemaa","coordinates":{"lat":"7.9072222","long":"-11.9833333"}},{"country":"sl","city":"Fayama","coordinates":{"lat":"7.8436111","long":"-11.5191667"}},{"country":"sl","city":"Fayima","coordinates":{"lat":"7.65","long":"-11.1833333"}},{"country":"sl","city":"Feba","coordinates":{"lat":"7.6847222","long":"-11.9233333"}},{"country":"sl","city":"Febana","coordinates":{"lat":"7.6847222","long":"-11.9233333"}},{"country":"sl","city":"Febena","coordinates":{"lat":"7.6847222","long":"-11.9233333"}},{"country":"sl","city":"Feja","coordinates":{"lat":"7.95","long":"-10.8166667"}},{"country":"sl","city":"Felnabalia","coordinates":{"lat":"9.6333333","long":"-11.0333333"}},{"country":"sl","city":"Fembedu","coordinates":{"lat":"8.5","long":"-10.8333333"}},{"country":"sl","city":"Fengehun","coordinates":{"lat":"7.98","long":"-11.5908333"}},{"country":"sl","city":"Fengka","coordinates":{"lat":"8.75","long":"-12.7"}},{"country":"sl","city":"Fenkembaia","coordinates":{"lat":"8.9333333","long":"-11.65"}},{"country":"sl","city":"Fensedu","coordinates":{"lat":"8.85","long":"-11.1"}},{"country":"sl","city":"Fentikhura","coordinates":{"lat":"9.8666667","long":"-12.2333333"}},{"country":"sl","city":"Fentikhuri","coordinates":{"lat":"9.8666667","long":"-12.2333333"}},{"country":"sl","city":"Feremabalia","coordinates":{"lat":"9.5666667","long":"-10.95"}},{"country":"sl","city":"Fernando Po","coordinates":{"lat":"8.5977778","long":"-13.0194444"}},{"country":"sl","city":"Fero","coordinates":{"lat":"8.8","long":"-10.65"}},{"country":"sl","city":"Fiama","coordinates":{"lat":"8.15","long":"-11.0"}},{"country":"sl","city":"Fiawo","coordinates":{"lat":"8.5333333","long":"-10.9166667"}},{"country":"sl","city":"Figi","coordinates":{"lat":"8.7833333","long":"-11.9666667"}},{"country":"sl","city":"Filina","coordinates":{"lat":"9.9166667","long":"-11.6666667"}},{"country":"sl","city":"Fimbadu","coordinates":{"lat":"8.9","long":"-10.75"}},{"country":"sl","city":"Fimbaia","coordinates":{"lat":"8.6666667","long":"-11.1"}},{"country":"sl","city":"Finabania","coordinates":{"lat":"9.3666667","long":"-10.9333333"}},{"country":"sl","city":"Fintibaia","coordinates":{"lat":"9.0333333","long":"-11.1"}},{"country":"sl","city":"Fintonia","coordinates":{"lat":"9.6666667","long":"-12.2333333"}},{"country":"sl","city":"Firawa","coordinates":{"lat":"9.35","long":"-11.3"}},{"country":"sl","city":"Firikaia","coordinates":{"lat":"8.8666667","long":"-11.4"}},{"country":"sl","city":"Fisher Lane","coordinates":{"lat":"8.4833333","long":"-13.2"}},{"country":"sl","city":"Foau","coordinates":{"lat":"8.2333333","long":"-10.9833333"}},{"country":"sl","city":"Fobu","coordinates":{"lat":"7.8655556","long":"-10.6569444"}},{"country":"sl","city":"Fodia","coordinates":{"lat":"9.2833333","long":"-12.95"}},{"country":"sl","city":"Fodi Town","coordinates":{"lat":"8.1833333","long":"-13.1333333"}},{"country":"sl","city":"Fogbanjo","coordinates":{"lat":"7.0333333","long":"-11.65"}},{"country":"sl","city":"Fogbanju","coordinates":{"lat":"7.0333333","long":"-11.65"}},{"country":"sl","city":"Fogbodu","coordinates":{"lat":"8.3333333","long":"-10.45"}},{"country":"sl","city":"Fogbo","coordinates":{"lat":"8.3019444","long":"-12.04"}},{"country":"sl","city":"Fo-gbo","coordinates":{"lat":"8.2666667","long":"-12.9833333"}},{"country":"sl","city":"Fogo","coordinates":{"lat":"9.25","long":"-11.6666667"}},{"country":"sl","city":"Foiboma","coordinates":{"lat":"8.75","long":"-11.2666667"}},{"country":"sl","city":"Foidu","coordinates":{"lat":"8.5666667","long":"-10.65"}},{"country":"sl","city":"Foimangadu","coordinates":{"lat":"8.9166667","long":"-11.2"}},{"country":"sl","city":"Foinba","coordinates":{"lat":"8.3833333","long":"-11.1333333"}},{"country":"sl","city":"Foinda","coordinates":{"lat":"7.6833333","long":"-12.3333333"}},{"country":"sl","city":"Foindu","coordinates":{"lat":"8.1","long":"-11.0666667"}},{"country":"sl","city":"Foindu","coordinates":{"lat":"7.4108333","long":"-11.5422222"}},{"country":"sl","city":"Foiya","coordinates":{"lat":"8.3","long":"-12.9666667"}},{"country":"sl","city":"Fokaw","coordinates":{"lat":"8.9166667","long":"-12.9833333"}},{"country":"sl","city":"Fola","coordinates":{"lat":"7.9772222","long":"-10.9833333"}},{"country":"sl","city":"Folima","coordinates":{"lat":"7.5025","long":"-11.2625"}},{"country":"sl","city":"Folima","coordinates":{"lat":"7.3","long":"-11.9833333"}},{"country":"sl","city":"Folodu","coordinates":{"lat":"8.4333333","long":"-10.65"}},{"country":"sl","city":"Folu","coordinates":{"lat":"7.9241667","long":"-10.8991667"}},{"country":"sl","city":"Folu","coordinates":{"lat":"6.9911111","long":"-11.5605556"}},{"country":"sl","city":"Fomadu","coordinates":{"lat":"8.6833333","long":"-10.5333333"}},{"country":"sl","city":"Fomaia","coordinates":{"lat":"8.5","long":"-11.3"}},{"country":"sl","city":"Fomaia","coordinates":{"lat":"7.6491667","long":"-12.0522222"}},{"country":"sl","city":"Fomaya","coordinates":{"lat":"7.9666667","long":"-10.9166667"}},{"country":"sl","city":"Fonaia","coordinates":{"lat":"9.2666667","long":"-11.9666667"}},{"country":"sl","city":"Fonayama","coordinates":{"lat":"8.4833333","long":"-10.95"}},{"country":"sl","city":"Fondokhuri","coordinates":{"lat":"9.7666667","long":"-12.2333333"}},{"country":"sl","city":"Fondu","coordinates":{"lat":"8.4333333","long":"-12.7833333"}},{"country":"sl","city":"Foniko","coordinates":{"lat":"7.3233333","long":"-11.5880556"}},{"country":"sl","city":"Fonima","coordinates":{"lat":"8.3666667","long":"-10.9666667"}},{"country":"sl","city":"Fonima","coordinates":{"lat":"8.4305556","long":"-13.2683333"}},{"country":"sl","city":"Foredugu","coordinates":{"lat":"8.75","long":"-12.5"}},{"country":"sl","city":"Fore","coordinates":{"lat":"9.7333333","long":"-11.15"}},{"country":"sl","city":"Foremoria","coordinates":{"lat":"9.8","long":"-11.5833333"}},{"country":"sl","city":"Foremusaia","coordinates":{"lat":"9.8666667","long":"-11.3666667"}},{"country":"sl","city":"Foria","coordinates":{"lat":"9.2333333","long":"-11.2"}},{"country":"sl","city":"Forikolo","coordinates":{"lat":"8.725","long":"-13.1638889"}},{"country":"sl","city":"Forobine","coordinates":{"lat":"8.65","long":"-11.4"}},{"country":"sl","city":"Forodugu","coordinates":{"lat":"8.4188889","long":"-13.0547222"}},{"country":"sl","city":"Forokoia","coordinates":{"lat":"8.8833333","long":"-11.35"}},{"country":"sl","city":"Fotani","coordinates":{"lat":"8.5666667","long":"-11.3833333"}},{"country":"sl","city":"Fotingaia","coordinates":{"lat":"8.6333333","long":"-11.1166667"}},{"country":"sl","city":"Foto","coordinates":{"lat":"9.7","long":"-12.2833333"}},{"country":"sl","city":"Fotori","coordinates":{"lat":"9.2666667","long":"-12.6333333"}},{"country":"sl","city":"Four Miles","coordinates":{"lat":"8.3386111","long":"-13.0047222"}},{"country":"sl","city":"Fowa","coordinates":{"lat":"8.3358333","long":"-10.4063889"}},{"country":"sl","city":"Fowaya","coordinates":{"lat":"8.1","long":"-10.7833333"}},{"country":"sl","city":"Foya","coordinates":{"lat":"7.8941667","long":"-11.1305556"}},{"country":"sl","city":"Foya","coordinates":{"lat":"7.4172222","long":"-12.1263889"}},{"country":"sl","city":"Foyama","coordinates":{"lat":"7.9666667","long":"-10.9166667"}},{"country":"sl","city":"Fransa","coordinates":{"lat":"8.9","long":"-12.65"}},{"country":"sl","city":"Freetown","coordinates":{"lat":"8.49","long":"-13.2341667"}},{"country":"sl","city":"Fuendo","coordinates":{"lat":"8.45","long":"-10.7166667"}},{"country":"sl","city":"Fuendo","coordinates":{"lat":"8.0833333","long":"-11.5833333"}},{"country":"sl","city":"Fuendu","coordinates":{"lat":"8.45","long":"-10.7166667"}},{"country":"sl","city":"Fuendu","coordinates":{"lat":"8.3222222","long":"-12.0802778"}},{"country":"sl","city":"Fuendu","coordinates":{"lat":"8.2666667","long":"-12.1333333"}},{"country":"sl","city":"Fuero","coordinates":{"lat":"8.6","long":"-10.65"}},{"country":"sl","city":"Fuhiko","coordinates":{"lat":"7.3233333","long":"-11.5880556"}},{"country":"sl","city":"Fuidu","coordinates":{"lat":"8.7833333","long":"-10.9"}},{"country":"sl","city":"Fukunba","coordinates":{"lat":"9.3666667","long":"-11.75"}},{"country":"sl","city":"Fula","coordinates":{"lat":"7.5411111","long":"-11.965"}},{"country":"sl","city":"Fulahun","coordinates":{"lat":"8.25","long":"-10.7"}},{"country":"sl","city":"Fulako","coordinates":{"lat":"8.4166667","long":"-10.7333333"}},{"country":"sl","city":"Fulaninahun","coordinates":{"lat":"7.9","long":"-12.05"}},{"country":"sl","city":"Fulatown","coordinates":{"lat":"8.8333333","long":"-12.4"}},{"country":"sl","city":"Fula Town","coordinates":{"lat":"9.3166667","long":"-11.8666667"}},{"country":"sl","city":"Fulawahun","coordinates":{"lat":"8.1166667","long":"-11.1333333"}},{"country":"sl","city":"Fulawahun","coordinates":{"lat":"7.9808333","long":"-11.9994444"}},{"country":"sl","city":"Fulewama","coordinates":{"lat":"8.1180556","long":"-12.1647222"}},{"country":"sl","city":"Fuliwama","coordinates":{"lat":"7.9538889","long":"-12.0855556"}},{"country":"sl","city":"Fulun","coordinates":{"lat":"8.8","long":"-12.8"}},{"country":"sl","city":"Fumbala","coordinates":{"lat":"8.0333333","long":"-10.6166667"}},{"country":"sl","city":"Fundo","coordinates":{"lat":"8.4333333","long":"-12.7833333"}},{"country":"sl","city":"Fundu","coordinates":{"lat":"8.6","long":"-12.8166667"}},{"country":"sl","city":"Fundusuma","coordinates":{"lat":"9.2166667","long":"-10.75"}},{"country":"sl","city":"Funeba","coordinates":{"lat":"9.15","long":"-11.3166667"}},{"country":"sl","city":"Funehun","coordinates":{"lat":"7.1","long":"-11.6"}},{"country":"sl","city":"Funemba","coordinates":{"lat":"9.15","long":"-11.3166667"}},{"country":"sl","city":"Fungia","coordinates":{"lat":"8.1","long":"-12.0166667"}},{"country":"sl","city":"Funihun","coordinates":{"lat":"7.1","long":"-11.6"}},{"country":"sl","city":"Funiko","coordinates":{"lat":"7.3233333","long":"-11.5880556"}},{"country":"sl","city":"Funima","coordinates":{"lat":"8.2333333","long":"-11.2833333"}},{"country":"sl","city":"Funkia","coordinates":{"lat":"7.8666667","long":"-12.5666667"}},{"country":"sl","city":"Funkia","coordinates":{"lat":"8.4319444","long":"-13.2897222"}},{"country":"sl","city":"Funkin","coordinates":{"lat":"9.1","long":"-12.45"}},{"country":"sl","city":"Funkio","coordinates":{"lat":"7.7397222","long":"-12.7355556"}},{"country":"sl","city":"Funknyin","coordinates":{"lat":"9.1","long":"-12.45"}},{"country":"sl","city":"Funkuya","coordinates":{"lat":"9.0","long":"-12.9166667"}},{"country":"sl","city":"Furia","coordinates":{"lat":"8.95","long":"-11.7166667"}},{"country":"sl","city":"Furibalia","coordinates":{"lat":"8.8666667","long":"-11.55"}},{"country":"sl","city":"Furikaria","coordinates":{"lat":"8.9833333","long":"-12.5333333"}},{"country":"sl","city":"Fusia","coordinates":{"lat":"9.9","long":"-11.3333333"}},{"country":"sl","city":"Futa","coordinates":{"lat":"8.4833333","long":"-12.9166667"}},{"country":"sl","city":"Futa","coordinates":{"lat":"7.2","long":"-11.5"}},{"country":"sl","city":"Futani","coordinates":{"lat":"8.5666667","long":"-11.8166667"}},{"country":"sl","city":"Futawahn","coordinates":{"lat":"8.05","long":"-11.7333333"}},{"country":"sl","city":"Futawahun","coordinates":{"lat":"8.05","long":"-11.7333333"}},{"country":"sl","city":"Futawoma","coordinates":{"lat":"7.8666667","long":"-11.9833333"}},{"country":"sl","city":"Fuyero","coordinates":{"lat":"8.7666667","long":"-10.9166667"}},{"country":"sl","city":"Gaahun","coordinates":{"lat":"8.05","long":"-11.0166667"}},{"country":"sl","city":"Gaama","coordinates":{"lat":"7.7333333","long":"-11.2166667"}},{"country":"sl","city":"Gabweba","coordinates":{"lat":"8.2166667","long":"-11.55"}},{"country":"sl","city":"Gafton","coordinates":{"lat":"8.3936111","long":"-13.1536111"}},{"country":"sl","city":"Gahun","coordinates":{"lat":"7.6161111","long":"-11.0805556"}},{"country":"sl","city":"Gaidehun","coordinates":{"lat":"8.3666667","long":"-11.75"}},{"country":"sl","city":"Gaigba","coordinates":{"lat":"7.85","long":"-10.7166667"}},{"country":"sl","city":"Gaigo","coordinates":{"lat":"8.2166667","long":"-10.5333333"}},{"country":"sl","city":"Gaioura","coordinates":{"lat":"7.65","long":"-11.65"}},{"country":"sl","city":"Gaivolu","coordinates":{"lat":"8.1833333","long":"-10.6"}},{"country":"sl","city":"Gajubaoma","coordinates":{"lat":"7.3166667","long":"-11.4666667"}},{"country":"sl","city":"Galahun","coordinates":{"lat":"8.3","long":"-11.05"}},{"country":"sl","city":"Galema","coordinates":{"lat":"8.6736111","long":"-10.4702778"}},{"country":"sl","city":"Galu","coordinates":{"lat":"7.7994444","long":"-11.1713889"}},{"country":"sl","city":"Galu","coordinates":{"lat":"7.0297222","long":"-11.5319444"}},{"country":"sl","city":"Gama","coordinates":{"lat":"7.7333333","long":"-11.2166667"}},{"country":"sl","city":"Gamayama","coordinates":{"lat":"7.6494444","long":"-11.5469444"}},{"country":"sl","city":"Gambia","coordinates":{"lat":"7.5325","long":"-12.1769444"}},{"country":"sl","city":"Gando","coordinates":{"lat":"7.6333333","long":"-11.45"}},{"country":"sl","city":"Gandohun","coordinates":{"lat":"7.6333333","long":"-11.45"}},{"country":"sl","city":"Gandohun","coordinates":{"lat":"7.5563889","long":"-11.6925"}},{"country":"sl","city":"Gandorhun","coordinates":{"lat":"7.9305556","long":"-11.2933333"}},{"country":"sl","city":"Gandorhun","coordinates":{"lat":"7.1786111","long":"-11.7841667"}},{"country":"sl","city":"Gangama","coordinates":{"lat":"8.0","long":"-11.05"}},{"country":"sl","city":"Gangama","coordinates":{"lat":"7.4","long":"-11.8666667"}},{"country":"sl","city":"Gangodu","coordinates":{"lat":"8.5166667","long":"-10.9"}},{"country":"sl","city":"Ganguhun","coordinates":{"lat":"8.1841667","long":"-12.1997222"}},{"country":"sl","city":"Ganjama","coordinates":{"lat":"8.2333333","long":"-11.6166667"}},{"country":"sl","city":"Ganya","coordinates":{"lat":"9.6166667","long":"-12.4666667"}},{"country":"sl","city":"Garahun","coordinates":{"lat":"8.3","long":"-11.6166667"}},{"country":"sl","city":"Garahun","coordinates":{"lat":"8.3333333","long":"-12.9333333"}},{"country":"sl","city":"Garama","coordinates":{"lat":"8.25","long":"-10.3166667"}},{"country":"sl","city":"Garinga","coordinates":{"lat":"7.3863889","long":"-12.3683333"}},{"country":"sl","city":"Garwama","coordinates":{"lat":"8.2333333","long":"-11.35"}},{"country":"sl","city":"Gaugba","coordinates":{"lat":"7.1833333","long":"-11.9166667"}},{"country":"sl","city":"Gavuyema","coordinates":{"lat":"7.75","long":"-11.1333333"}},{"country":"sl","city":"Gawmbu","coordinates":{"lat":"8.35","long":"-11.3833333"}},{"country":"sl","city":"Gawula","coordinates":{"lat":"7.8961111","long":"-11.7133333"}},{"country":"sl","city":"Gawura","coordinates":{"lat":"7.8961111","long":"-11.7133333"}},{"country":"sl","city":"Gawuyema","coordinates":{"lat":"7.75","long":"-11.1333333"}},{"country":"sl","city":"Gbaama","coordinates":{"lat":"7.8413889","long":"-11.6144444"}},{"country":"sl","city":"Gbaan","coordinates":{"lat":"7.2786111","long":"-12.1144444"}},{"country":"sl","city":"Gbabai","coordinates":{"lat":"8.45","long":"-12.9333333"}},{"country":"sl","city":"Gba","coordinates":{"lat":"7.2744444","long":"-11.2286111"}},{"country":"sl","city":"Gbahama","coordinates":{"lat":"7.2977778","long":"-11.3486111"}},{"country":"sl","city":"Gbahun","coordinates":{"lat":"8.05","long":"-11.35"}},{"country":"sl","city":"Gbaidu","coordinates":{"lat":"8.4833333","long":"-10.85"}},{"country":"sl","city":"Gbaikiya","coordinates":{"lat":"8.1666667","long":"-10.6333333"}},{"country":"sl","city":"Gbailo","coordinates":{"lat":"8.3166667","long":"-12.8833333"}},{"country":"sl","city":"Gbain","coordinates":{"lat":"8.6586111","long":"-13.1477778"}},{"country":"sl","city":"Gbaiya","coordinates":{"lat":"8.1666667","long":"-10.6333333"}},{"country":"sl","city":"Gbakilo","coordinates":{"lat":"8.7","long":"-10.85"}},{"country":"sl","city":"Gbakio","coordinates":{"lat":"8.65","long":"-11.0333333"}},{"country":"sl","city":"Gbalahun","coordinates":{"lat":"7.9666667","long":"-10.6"}},{"country":"sl","city":"Gbalan","coordinates":{"lat":"9.0166667","long":"-12.75"}},{"country":"sl","city":"Gbale","coordinates":{"lat":"7.5333333","long":"-11.8666667"}},{"country":"sl","city":"Gbalehun","coordinates":{"lat":"7.8316667","long":"-11.8091667"}},{"country":"sl","city":"Gbali","coordinates":{"lat":"7.8811111","long":"-11.8255556"}},{"country":"sl","city":"Gbaligbali","coordinates":{"lat":"9.5166667","long":"-12.2166667"}},{"country":"sl","city":"Gbalihun","coordinates":{"lat":"7.8811111","long":"-11.8255556"}},{"country":"sl","city":"Gbama","coordinates":{"lat":"8.0","long":"-10.8666667"}},{"country":"sl","city":"Gbama","coordinates":{"lat":"7.1713889","long":"-11.4036111"}},{"country":"sl","city":"Gbamani","coordinates":{"lat":"7.3488889","long":"-12.0961111"}},{"country":"sl","city":"Gbambaia","coordinates":{"lat":"9.1","long":"-10.95"}},{"country":"sl","city":"Gbambali","coordinates":{"lat":"8.6161111","long":"-13.1477778"}},{"country":"sl","city":"Gbambiadu","coordinates":{"lat":"8.6833333","long":"-11.3"}},{"country":"sl","city":"Gbampo","coordinates":{"lat":"7.5827778","long":"-12.7997222"}},{"country":"sl","city":"Gbamundu","coordinates":{"lat":"8.6333333","long":"-10.6666667"}},{"country":"sl","city":"Gbamusa","coordinates":{"lat":"7.9833333","long":"-12.5666667"}},{"country":"sl","city":"Gbamusu","coordinates":{"lat":"7.8166667","long":"-12.5833333"}},{"country":"sl","city":"Gbana","coordinates":{"lat":"8.9","long":"-13.0"}},{"country":"sl","city":"Gbana","coordinates":{"lat":"7.8","long":"-12.6166667"}},{"country":"sl","city":"Gbanahun","coordinates":{"lat":"7.2833333","long":"-11.55"}},{"country":"sl","city":"Gbanbalo","coordinates":{"lat":"8.65","long":"-10.8"}},{"country":"sl","city":"Gbandawo","coordinates":{"lat":"7.7633333","long":"-11.3661111"}},{"country":"sl","city":"Gbandidu","coordinates":{"lat":"8.8166667","long":"-11.2166667"}},{"country":"sl","city":"Gbandi","coordinates":{"lat":"8.3166667","long":"-10.9333333"}},{"country":"sl","city":"Gbandi","coordinates":{"lat":"7.0527778","long":"-11.6319444"}},{"country":"sl","city":"Gbandoma","coordinates":{"lat":"8.4333333","long":"-12.8666667"}},{"country":"sl","city":"Gbandorma","coordinates":{"lat":"7.95","long":"-11.1333333"}},{"country":"sl","city":"Gbandu","coordinates":{"lat":"8.435","long":"-10.2958333"}},{"country":"sl","city":"Gbane","coordinates":{"lat":"8.3166667","long":"-12.9166667"}},{"country":"sl","city":"Gbane","coordinates":{"lat":"8.2166667","long":"-12.2"}},{"country":"sl","city":"Gbane Loko","coordinates":{"lat":"9.1","long":"-12.6333333"}},{"country":"sl","city":"Gbanelol","coordinates":{"lat":"8.6219444","long":"-13.1877778"}},{"country":"sl","city":"Gbanfalo","coordinates":{"lat":"8.6666667","long":"-10.7833333"}},{"country":"sl","city":"Gbangadu","coordinates":{"lat":"8.7833333","long":"-10.85"}},{"country":"sl","city":"Gbangan","coordinates":{"lat":"9.9666667","long":"-11.4166667"}},{"country":"sl","city":"Gbangba","coordinates":{"lat":"8.4377778","long":"-12.0313889"}},{"country":"sl","city":"Gbangba","coordinates":{"lat":"7.45","long":"-12.0166667"}},{"country":"sl","city":"Gbangbaia","coordinates":{"lat":"8.9333333","long":"-11.2166667"}},{"country":"sl","city":"Gbangbaia","coordinates":{"lat":"7.7666667","long":"-12.3333333"}},{"country":"sl","city":"Gbangbama","coordinates":{"lat":"8.3","long":"-12.1"}},{"country":"sl","city":"Gbangbama","coordinates":{"lat":"7.7080556","long":"-12.3097222"}},{"country":"sl","city":"Gbangbanfira","coordinates":{"lat":"9.1166667","long":"-11.4"}},{"country":"sl","city":"Gbangbaro","coordinates":{"lat":"8.75","long":"-11.0"}},{"country":"sl","city":"Gbangbatok","coordinates":{"lat":"7.8066667","long":"-12.3841667"}},{"country":"sl","city":"Gbangbima","coordinates":{"lat":"7.0519444","long":"-11.6708333"}},{"country":"sl","city":"Gbangema","coordinates":{"lat":"8.0833333","long":"-10.9666667"}},{"country":"sl","city":"Gbangidu","coordinates":{"lat":"8.9833333","long":"-10.6166667"}},{"country":"sl","city":"Gbanguria","coordinates":{"lat":"8.9833333","long":"-10.8166667"}},{"country":"sl","city":"Gbaninga","coordinates":{"lat":"7.4769444","long":"-12.1075"}},{"country":"sl","city":"Gbanjauma","coordinates":{"lat":"7.9166667","long":"-10.85"}},{"country":"sl","city":"Gbanka","coordinates":{"lat":"9.15","long":"-12.7166667"}},{"country":"sl","city":"Gbankan","coordinates":{"lat":"8.85","long":"-11.9666667"}},{"country":"sl","city":"Gbankona","coordinates":{"lat":"9.05","long":"-11.8"}},{"country":"sl","city":"Gbanti","coordinates":{"lat":"8.0338889","long":"-12.7513889"}},{"country":"sl","city":"Gbap","coordinates":{"lat":"8.4372222","long":"-13.0427778"}},{"country":"sl","city":"Gbap","coordinates":{"lat":"7.3763889","long":"-12.2616667"}},{"country":"sl","city":"Gbara","coordinates":{"lat":"8.45","long":"-11.8666667"}},{"country":"sl","city":"Gbarama","coordinates":{"lat":"8.2427778","long":"-10.3813889"}},{"country":"sl","city":"Gbarama","coordinates":{"lat":"8.2166667","long":"-11.4833333"}},{"country":"sl","city":"Gbaran","coordinates":{"lat":"8.7833333","long":"-12.5"}},{"country":"sl","city":"Gbaru","coordinates":{"lat":"7.9080556","long":"-11.0827778"}},{"country":"sl","city":"Gbasati","coordinates":{"lat":"8.35","long":"-12.8166667"}},{"country":"sl","city":"Gbashama","coordinates":{"lat":"8.3","long":"-11.6333333"}},{"country":"sl","city":"Gbasiakonke","coordinates":{"lat":"8.5666667","long":"-11.05"}},{"country":"sl","city":"Gbatawoma","coordinates":{"lat":"7.8666667","long":"-11.3666667"}},{"country":"sl","city":"Gbatema","coordinates":{"lat":"8.0333333","long":"-10.9"}},{"country":"sl","city":"Gbatema","coordinates":{"lat":"8.05","long":"-11.3833333"}},{"country":"sl","city":"Gbatodu","coordinates":{"lat":"8.55","long":"-11.0166667"}},{"country":"sl","city":"Gbaulahun","coordinates":{"lat":"7.9666667","long":"-10.6"}},{"country":"sl","city":"Gbawima","coordinates":{"lat":"8.3833333","long":"-11.3833333"}},{"country":"sl","city":"Gbawula","coordinates":{"lat":"8.1166667","long":"-11.3333333"}},{"country":"sl","city":"Gbeaia","coordinates":{"lat":"8.8833333","long":"-10.85"}},{"country":"sl","city":"Gbeaia","coordinates":{"lat":"9.0","long":"-10.85"}},{"country":"sl","city":"Gbeha","coordinates":{"lat":"7.5333333","long":"-11.95"}},{"country":"sl","city":"Gbehan","coordinates":{"lat":"7.3811111","long":"-12.0597222"}},{"country":"sl","city":"Gbeka","coordinates":{"lat":"8.05","long":"-10.8333333"}},{"country":"sl","city":"Gbekawraw","coordinates":{"lat":"8.7666667","long":"-11.1666667"}},{"country":"sl","city":"Gbekedu","coordinates":{"lat":"8.365","long":"-10.3619444"}},{"country":"sl","city":"Gbeko","coordinates":{"lat":"8.6","long":"-10.65"}},{"country":"sl","city":"Gbekpe","coordinates":{"lat":"8.6166667","long":"-10.5166667"}},{"country":"sl","city":"Gbela","coordinates":{"lat":"8.8666667","long":"-12.85"}},{"country":"sl","city":"Gbele","coordinates":{"lat":"8.8666667","long":"-12.85"}},{"country":"sl","city":"Gbeli","coordinates":{"lat":"7.3297222","long":"-12.1611111"}},{"country":"sl","city":"Gbema","coordinates":{"lat":"7.6666667","long":"-11.4833333"}},{"country":"sl","city":"Gbema","coordinates":{"lat":"7.2833333","long":"-11.8833333"}},{"country":"sl","city":"Gbemaia","coordinates":{"lat":"8.9","long":"-11.1333333"}},{"country":"sl","city":"Gbematambadu","coordinates":{"lat":"8.7333333","long":"-10.8"}},{"country":"sl","city":"Gbembo","coordinates":{"lat":"7.43","long":"-12.0622222"}},{"country":"sl","city":"Gbembu","coordinates":{"lat":"7.3497222","long":"-12.0644444"}},{"country":"sl","city":"Gbencha","coordinates":{"lat":"7.8491667","long":"-12.84"}},{"country":"sl","city":"Gbendela","coordinates":{"lat":"7.8333333","long":"-10.9833333"}},{"country":"sl","city":"Gbendema","coordinates":{"lat":"7.8333333","long":"-10.9333333"}},{"country":"sl","city":"Gbenderu","coordinates":{"lat":"7.8344444","long":"-11.1819444"}},{"country":"sl","city":"Gbenega","coordinates":{"lat":"7.8833333","long":"-11.9833333"}},{"country":"sl","city":"Gbengbabu","coordinates":{"lat":"8.25","long":"-12.3"}},{"country":"sl","city":"Gbengbebu","coordinates":{"lat":"8.25","long":"-12.3"}},{"country":"sl","city":"Gben","coordinates":{"lat":"9.1166667","long":"-12.9333333"}},{"country":"sl","city":"Gbensendo","coordinates":{"lat":"8.8333333","long":"-11.0166667"}},{"country":"sl","city":"Gbenti","coordinates":{"lat":"8.8005556","long":"-13.1166667"}},{"country":"sl","city":"Gbeorbu","coordinates":{"lat":"7.7141667","long":"-11.1163889"}},{"country":"sl","city":"Gberefi","coordinates":{"lat":"9.4166667","long":"-11.15"}},{"country":"sl","city":"Gberia Fotombu","coordinates":{"lat":"9.8833333","long":"-11.1666667"}},{"country":"sl","city":"Gberia","coordinates":{"lat":"9.8166667","long":"-12.1333333"}},{"country":"sl","city":"Gberia Timbako","coordinates":{"lat":"9.75","long":"-11.1833333"}},{"country":"sl","city":"Gberi","coordinates":{"lat":"8.4188889","long":"-13.0311111"}},{"country":"sl","city":"Gberi","coordinates":{"lat":"8.0166667","long":"-12.6166667"}},{"country":"sl","city":"Gberikoro","coordinates":{"lat":"9.0833333","long":"-11.5166667"}},{"country":"sl","city":"Gbero","coordinates":{"lat":"8.4333333","long":"-12.9833333"}},{"country":"sl","city":"Gberti","coordinates":{"lat":"8.8005556","long":"-13.1166667"}},{"country":"sl","city":"Gberu","coordinates":{"lat":"7.1666667","long":"-11.75"}},{"country":"sl","city":"Gbesebu","coordinates":{"lat":"8.1","long":"-11.75"}},{"country":"sl","city":"Gbese","coordinates":{"lat":"7.7666667","long":"-11.35"}},{"country":"sl","city":"Gbese","coordinates":{"lat":"8.4544444","long":"-13.0502778"}},{"country":"sl","city":"Gbese","coordinates":{"lat":"7.0741667","long":"-11.7102778"}},{"country":"sl","city":"Gbeseya","coordinates":{"lat":"8.7647222","long":"-13.2075"}},{"country":"sl","city":"Gbesibu","coordinates":{"lat":"8.1","long":"-12.0333333"}},{"country":"sl","city":"Gbetema","coordinates":{"lat":"8.5666667","long":"-11.0833333"}},{"country":"sl","city":"Gbeteoma","coordinates":{"lat":"7.9530556","long":"-12.6186111"}},