[{"country":"aw","city":"Angochi","coordinates":{"lat":"12.5166667","long":"-69.95"}},{"country":"aw","city":"Arasji","coordinates":{"lat":"12.6166667","long":"-70.0666667"}},{"country":"aw","city":"Babijn","coordinates":{"lat":"12.5333333","long":"-69.9833333"}},{"country":"aw","city":"Balashi","coordinates":{"lat":"12.4833333","long":"-69.9666667"}},{"country":"aw","city":"Barcelona","coordinates":{"lat":"12.5166667","long":"-70.0166667"}},{"country":"aw","city":"Blumond","coordinates":{"lat":"12.5333333","long":"-70.9833333"}},{"country":"aw","city":"Boton","coordinates":{"lat":"12.4833333","long":"-69.95"}},{"country":"aw","city":"Brasil","coordinates":{"lat":"12.45","long":"-69.9166667"}},{"country":"aw","city":"Bringamosa","coordinates":{"lat":"12.4833333","long":"-69.95"}},{"country":"aw","city":"Bubali","coordinates":{"lat":"12.55","long":"-70.0333333"}},{"country":"aw","city":"Bushiribana","coordinates":{"lat":"12.55","long":"-69.9666667"}},{"country":"aw","city":"Bushiribans","coordinates":{"lat":"12.55","long":"-69.9666667"}},{"country":"aw","city":"Butucu","coordinates":{"lat":"12.4666667","long":"-69.9"}},{"country":"aw","city":"Calabas","coordinates":{"lat":"12.55","long":"-70.0"}},{"country":"aw","city":"Calbas","coordinates":{"lat":"12.55","long":"-70.0"}},{"country":"aw","city":"Camacuri","coordinates":{"lat":"12.5","long":"-70.0166667"}},{"country":"aw","city":"Canashito","coordinates":{"lat":"12.5","long":"-69.9833333"}},{"country":"aw","city":"Canashitu","coordinates":{"lat":"12.5","long":"-69.9833333"}},{"country":"aw","city":"Cas Ariba","coordinates":{"lat":"12.5","long":"-69.95"}},{"country":"aw","city":"Cas di Paloma","coordinates":{"lat":"12.4833333","long":"-70.0"}},{"country":"aw","city":"Cashero","coordinates":{"lat":"12.5166667","long":"-69.9833333"}},{"country":"aw","city":"Casibari","coordinates":{"lat":"12.5333333","long":"-69.9833333"}},{"country":"aw","city":"Catashi","coordinates":{"lat":"12.5","long":"-69.95"}},{"country":"aw","city":"Catiri","coordinates":{"lat":"12.5333333","long":"-70.0166667"}},{"country":"aw","city":"Ceru Colorado","coordinates":{"lat":"12.4166667","long":"-69.8666667"}},{"country":"aw","city":"Coba Lodo","coordinates":{"lat":"12.5","long":"-69.95"}},{"country":"aw","city":"Cumaná","coordinates":{"lat":"12.5166667","long":"-70.0166667"}},{"country":"aw","city":"Cunucu Abao","coordinates":{"lat":"12.55","long":"-70.0333333"}},{"country":"aw","city":"Cura Cabai","coordinates":{"lat":"12.4333333","long":"-69.9166667"}},{"country":"aw","city":"Dacota","coordinates":{"lat":"12.5","long":"-70.0166667"}},{"country":"aw","city":"Druif","coordinates":{"lat":"12.5333333","long":"-70.0666667"}},{"country":"aw","city":"Falcon","coordinates":{"lat":"12.5333333","long":"-70.0166667"}},{"country":"aw","city":"Fontein","coordinates":{"lat":"12.5","long":"-69.9"}},{"country":"aw","city":"Gasparito","coordinates":{"lat":"12.55","long":"-70.0333333"}},{"country":"aw","city":"Jamanota","coordinates":{"lat":"12.4833333","long":"-69.95"}},{"country":"aw","city":"Jan Flemming","coordinates":{"lat":"12.4833333","long":"-69.9666667"}},{"country":"aw","city":"Juwana Morto","coordinates":{"lat":"12.4333333","long":"-69.8833333"}},{"country":"aw","city":"Largo Cadushi","coordinates":{"lat":"12.5166667","long":"-69.9666667"}},{"country":"aw","city":"Mabon","coordinates":{"lat":"12.45","long":"-69.9166667"}},{"country":"aw","city":"Macuarima","coordinates":{"lat":"12.5","long":"-69.9666667"}},{"country":"aw","city":"Madiki","coordinates":{"lat":"12.5166667","long":"-70.0333333"}},{"country":"aw","city":"Mahuma","coordinates":{"lat":"12.5","long":"-69.9833333"}},{"country":"aw","city":"Marawiel","coordinates":{"lat":"12.5333333","long":"-69.9833333"}},{"country":"aw","city":"Maria Mài","coordinates":{"lat":"12.4833333","long":"-69.95"}},{"country":"aw","city":"Meiveld","coordinates":{"lat":"12.5166667","long":"-70.0"}},{"country":"aw","city":"Moco","coordinates":{"lat":"12.55","long":"-70.0"}},{"country":"aw","city":"Modansa","coordinates":{"lat":"12.5333333","long":"-70.0"}},{"country":"aw","city":"Mon Pos","coordinates":{"lat":"12.5166667","long":"-69.9666667"}},{"country":"aw","city":"Morgenster","coordinates":{"lat":"12.5166667","long":"-70.0"}},{"country":"aw","city":"Noord Cura Cabai","coordinates":{"lat":"12.45","long":"-69.9333333"}},{"country":"aw","city":"Noord","coordinates":{"lat":"12.5666667","long":"-70.0166667"}},{"country":"aw","city":"Nuñe","coordinates":{"lat":"12.5333333","long":"-70.0"}},{"country":"aw","city":"Oranjestad","coordinates":{"lat":"12.5166667","long":"-70.0333333"}},{"country":"aw","city":"Palm Beach","coordinates":{"lat":"12.5666667","long":"-70.0333333"}},{"country":"aw","city":"Paradera","coordinates":{"lat":"12.5333333","long":"-70.0"}},{"country":"aw","city":"Paradijs","coordinates":{"lat":"12.5333333","long":"-70.0333333"}},{"country":"aw","city":"Paraguaná","coordinates":{"lat":"12.55","long":"-70.0166667"}},{"country":"aw","city":"Parkietenbos","coordinates":{"lat":"12.4833333","long":"-69.9833333"}},{"country":"aw","city":"Pavía","coordinates":{"lat":"12.5166667","long":"-69.9833333"}},{"country":"aw","city":"Picaron","coordinates":{"lat":"12.5","long":"-69.95"}},{"country":"aw","city":"Piedra Plat","coordinates":{"lat":"12.5166667","long":"-69.9833333"}},{"country":"aw","city":"Plantersrust","coordinates":{"lat":"12.5","long":"-70.0"}},{"country":"aw","city":"Playa","coordinates":{"lat":"12.5166667","long":"-70.0333333"}},{"country":"aw","city":"Ponton","coordinates":{"lat":"12.5333333","long":"-70.0333333"}},{"country":"aw","city":"Pos Abao","coordinates":{"lat":"12.5333333","long":"-70.0333333"}},{"country":"aw","city":"Pos Chikito","coordinates":{"lat":"12.45","long":"-69.95"}},{"country":"aw","city":"Pos Chikitu","coordinates":{"lat":"12.45","long":"-69.95"}},{"country":"aw","city":"Primavera","coordinates":{"lat":"12.5","long":"-70.0"}},{"country":"aw","city":"Roncado","coordinates":{"lat":"12.5333333","long":"-70.0166667"}},{"country":"aw","city":"Rooi Afó","coordinates":{"lat":"12.5166667","long":"-70.0"}},{"country":"aw","city":"Rooi Bosal","coordinates":{"lat":"12.4833333","long":"-69.9666667"}},{"country":"aw","city":"Rooi Cochi","coordinates":{"lat":"12.45","long":"-69.9333333"}},{"country":"aw","city":"Rooi Congo","coordinates":{"lat":"12.45","long":"-69.9"}},{"country":"aw","city":"Rooi Hundo","coordinates":{"lat":"12.4333333","long":"-69.8833333"}},{"country":"aw","city":"Rooi Master","coordinates":{"lat":"12.45","long":"-69.9166667"}},{"country":"aw","city":"Rooi Prikichi","coordinates":{"lat":"12.5333333","long":"-69.9666667"}},{"country":"aw","city":"Sabana Basora","coordinates":{"lat":"12.4666667","long":"-69.95"}},{"country":"aw","city":"Sabana Berde","coordinates":{"lat":"12.5","long":"-70.0166667"}},{"country":"aw","city":"Sabana Blancoe","coordinates":{"lat":"12.5166667","long":"-70.0166667"}},{"country":"aw","city":"Sabana Blanco","coordinates":{"lat":"12.5166667","long":"-70.0166667"}},{"country":"aw","city":"Sabana Grandi","coordinates":{"lat":"12.5","long":"-69.9833333"}},{"country":"aw","city":"Sabana Liber","coordinates":{"lat":"12.55","long":"-70.0166667"}},{"country":"aw","city":"Sabana","coordinates":{"lat":"12.5166667","long":"-70.0166667"}},{"country":"aw","city":"Sabana Westpunt","coordinates":{"lat":"12.6","long":"-70.0333333"}},{"country":"aw","city":"Sabaneta","coordinates":{"lat":"12.45","long":"-69.9333333"}},{"country":"aw","city":"Sabanía Abao","coordinates":{"lat":"12.5166667","long":"-69.95"}},{"country":"aw","city":"Saliña Cerca","coordinates":{"lat":"12.5666667","long":"-70.0333333"}},{"country":"aw","city":"San Barbola","coordinates":{"lat":"12.5166667","long":"-70.0"}},{"country":"aw","city":"San Fuego","coordinates":{"lat":"12.5","long":"-69.95"}},{"country":"aw","city":"Santa Anna","coordinates":{"lat":"12.5666667","long":"-70.0333333"}},{"country":"aw","city":"Santa Cruz","coordinates":{"lat":"12.5","long":"-69.9666667"}},{"country":"aw","city":"Santa Helena","coordinates":{"lat":"12.5166667","long":"-70.0333333"}},{"country":"aw","city":"Santa Martha","coordinates":{"lat":"12.5","long":"-69.9833333"}},{"country":"aw","city":"Savaneta","coordinates":{"lat":"12.45","long":"-69.9333333"}},{"country":"aw","city":"Savoneta","coordinates":{"lat":"12.45","long":"-69.9333333"}},{"country":"aw","city":"Savonet","coordinates":{"lat":"12.45","long":"-69.9333333"}},{"country":"aw","city":"Sero Blanco","coordinates":{"lat":"12.5166667","long":"-70.0166667"}},{"country":"aw","city":"Sero Colorado","coordinates":{"lat":"12.4166667","long":"-69.8666667"}},{"country":"aw","city":"Shaba","coordinates":{"lat":"12.55","long":"-70.0166667"}},{"country":"aw","city":"Shabiruri","coordinates":{"lat":"12.5166667","long":"-69.9666667"}},{"country":"aw","city":"Shete","coordinates":{"lat":"12.5","long":"-69.9333333"}},{"country":"aw","city":"Shiribana","coordinates":{"lat":"12.5333333","long":"-70.0"}},{"country":"aw","city":"Simeon Antonio","coordinates":{"lat":"12.4833333","long":"-70.0"}},{"country":"aw","city":"Sint Anna","coordinates":{"lat":"12.5666667","long":"-70.0333333"}},{"country":"aw","city":"Sint Nicolaas","coordinates":{"lat":"12.4333333","long":"-69.9"}},{"country":"aw","city":"Siribana","coordinates":{"lat":"12.5166667","long":"-69.9833333"}},{"country":"aw","city":"Soledad","coordinates":{"lat":"12.55","long":"-70.0"}},{"country":"aw","city":"Solito","coordinates":{"lat":"12.5166667","long":"-70.0166667"}},{"country":"aw","city":"Tamarijn","coordinates":{"lat":"12.5333333","long":"-69.9666667"}},{"country":"aw","city":"Tanki Flip","coordinates":{"lat":"12.55","long":"-70.0333333"}},{"country":"aw","city":"Tanki Lender","coordinates":{"lat":"12.5333333","long":"-70.0166667"}},{"country":"aw","city":"Tarabana","coordinates":{"lat":"12.5166667","long":"-70.0166667"}},{"country":"aw","city":"Washington","coordinates":{"lat":"12.55","long":"-70.0333333"}},{"country":"aw","city":"Wayaca","coordinates":{"lat":"12.5","long":"-70.0"}},{"country":"aw","city":"Westpunt","coordinates":{"lat":"12.6","long":"-70.0333333"}}]