[{"country":"bo","city":"25 de Julio","coordinates":{"lat":"-19.75","long":"-58.25"}},{"country":"bo","city":"6 de Abril","coordinates":{"lat":"-16.8666667","long":"-59.9833333"}},{"country":"bo","city":"6 de Agosto","coordinates":{"lat":"-10.9333333","long":"-67.15"}},{"country":"bo","city":"6 de Agosto","coordinates":{"lat":"-14.8166667","long":"-61.7666667"}},{"country":"bo","city":"Abanay","coordinates":{"lat":"-21.5333333","long":"-63.55"}},{"country":"bo","city":"Abapó","coordinates":{"lat":"-18.8333333","long":"-63.4666667"}},{"country":"bo","city":"Abara","coordinates":{"lat":"-17.4833333","long":"-69.4333333"}},{"country":"bo","city":"Abaro","coordinates":{"lat":"-17.4833333","long":"-69.4333333"}},{"country":"bo","city":"Abeja","coordinates":{"lat":"-14.8833333","long":"-61.7166667"}},{"country":"bo","city":"Abejas","coordinates":{"lat":"-14.1333333","long":"-62.1833333"}},{"country":"bo","city":"Abel Kumo","coordinates":{"lat":"-18.8833333","long":"-66.6166667"}},{"country":"bo","city":"Abicaya","coordinates":{"lat":"-16.4833333","long":"-68.45"}},{"country":"bo","city":"Abichaca","coordinates":{"lat":"-16.05","long":"-68.65"}},{"country":"bo","city":"Abra","coordinates":{"lat":"-17.7666667","long":"-66.5"}},{"country":"bo","city":"Abra","coordinates":{"lat":"-20.55","long":"-65.6333333"}},{"country":"bo","city":"Abra Bejucal","coordinates":{"lat":"-21.5333333","long":"-64.1166667"}},{"country":"bo","city":"Abra Blanca","coordinates":{"lat":"-21.4166667","long":"-65.65"}},{"country":"bo","city":"Abra Calacruz","coordinates":{"lat":"-21.05","long":"-65.95"}},{"country":"bo","city":"Abra Calcalaguay","coordinates":{"lat":"-19.8","long":"-68.45"}},{"country":"bo","city":"Abracasa","coordinates":{"lat":"-19.9","long":"-65.7166667"}},{"country":"bo","city":"Abra Ckasa","coordinates":{"lat":"-21.7666667","long":"-64.5833333"}},{"country":"bo","city":"Abra de Caisar","coordinates":{"lat":"-21.2","long":"-67.3833333"}},{"country":"bo","city":"Abra de Caisuro","coordinates":{"lat":"-21.2","long":"-67.3833333"}},{"country":"bo","city":"Abra de Napa","coordinates":{"lat":"-20.5333333","long":"-68.5833333"}},{"country":"bo","city":"Abra de Pulgui","coordinates":{"lat":"-19.2333333","long":"-65.2166667"}},{"country":"bo","city":"Abra de Pulqui","coordinates":{"lat":"-19.2333333","long":"-65.2166667"}},{"country":"bo","city":"Abra de Sivingamayo","coordinates":{"lat":"-20.3333333","long":"-65.15"}},{"country":"bo","city":"Abra de Tapacai","coordinates":{"lat":"-17.6","long":"-66.65"}},{"country":"bo","city":"Abra de Tapacarí","coordinates":{"lat":"-17.6","long":"-66.65"}},{"country":"bo","city":"Abra Divorti","coordinates":{"lat":"-17.5666667","long":"-64.0166667"}},{"country":"bo","city":"Abra Divortio","coordinates":{"lat":"-17.5666667","long":"-64.0166667"}},{"country":"bo","city":"Abra Grand","coordinates":{"lat":"-18.2166667","long":"-64.2333333"}},{"country":"bo","city":"Abra Grande","coordinates":{"lat":"-18.2166667","long":"-64.2333333"}},{"country":"bo","city":"Abra Kasa","coordinates":{"lat":"-21.7666667","long":"-64.5833333"}},{"country":"bo","city":"Abra Pampa","coordinates":{"lat":"-20.1","long":"-64.75"}},{"country":"bo","city":"Abra Potrerillo","coordinates":{"lat":"-21.2166667","long":"-64.15"}},{"country":"bo","city":"Abras de Ivio","coordinates":{"lat":"-20.45","long":"-64.0333333"}},{"country":"bo","city":"Abra Sivingani","coordinates":{"lat":"-17.8166667","long":"-65.5333333"}},{"country":"bo","city":"Abra Tambocasa","coordinates":{"lat":"-17.7666667","long":"-65.5333333"}},{"country":"bo","city":"Abra Tambockasa","coordinates":{"lat":"-17.7666667","long":"-65.5333333"}},{"country":"bo","city":"Abra Turuguapa","coordinates":{"lat":"-18.0833333","long":"-60.1166667"}},{"country":"bo","city":"Abritas","coordinates":{"lat":"-17.5333333","long":"-61.2"}},{"country":"bo","city":"Abuela","coordinates":{"lat":"-21.0666667","long":"-65.7166667"}},{"country":"bo","city":"Abuná Chico","coordinates":{"lat":"-10.4666667","long":"-67.1333333"}},{"country":"bo","city":"Acachila","coordinates":{"lat":"-19.2833333","long":"-65.2"}},{"country":"bo","city":"Acachilo","coordinates":{"lat":"-19.2833333","long":"-65.2"}},{"country":"bo","city":"Acacio","coordinates":{"lat":"-18.0","long":"-66.0833333"}},{"country":"bo","city":"Acahuani","coordinates":{"lat":"-18.2166667","long":"-65.65"}},{"country":"bo","city":"Acahuta","coordinates":{"lat":"-21.9666667","long":"-66.7666667"}},{"country":"bo","city":"Acaita","coordinates":{"lat":"-13.9","long":"-61.6333333"}},{"country":"bo","city":"Acalaca","coordinates":{"lat":"-14.7833333","long":"-68.4333333"}},{"country":"bo","city":"Acanea","coordinates":{"lat":"-18.1166667","long":"-68.65"}},{"country":"bo","city":"Acarapini","coordinates":{"lat":"-15.65","long":"-68.45"}},{"country":"bo","city":"Acasio","coordinates":{"lat":"-18.0","long":"-66.0833333"}},{"country":"bo","city":"Acchila","coordinates":{"lat":"-20.35","long":"-64.8166667"}},{"country":"bo","city":"Acchilla","coordinates":{"lat":"-20.35","long":"-64.8166667"}},{"country":"bo","city":"Aceite","coordinates":{"lat":"-13.9","long":"-61.6333333"}},{"country":"bo","city":"Acensión","coordinates":{"lat":"-10.8666667","long":"-66.65"}},{"country":"bo","city":"Acercani","coordinates":{"lat":"-17.4","long":"-69.3333333"}},{"country":"bo","city":"Acesilo","coordinates":{"lat":"-15.7666667","long":"-68.8166667"}},{"country":"bo","city":"Acevedo","coordinates":{"lat":"-18.5044444","long":"-64.975"}},{"country":"bo","city":"Achaca","coordinates":{"lat":"-16.6333333","long":"-68.7"}},{"country":"bo","city":"Achacachi","coordinates":{"lat":"-16.05","long":"-68.6833333"}},{"country":"bo","city":"Achacachi Chico","coordinates":{"lat":"-16.0166667","long":"-68.7666667"}},{"country":"bo","city":"Achacanaiyoc","coordinates":{"lat":"-21.7166667","long":"-66.1166667"}},{"country":"bo","city":"Achacanayoc","coordinates":{"lat":"-21.1333333","long":"-65.7166667"}},{"country":"bo","city":"Acha Icha","coordinates":{"lat":"-21.2166667","long":"-67.65"}},{"country":"bo","city":"Achairpa","coordinates":{"lat":"-16.8833333","long":"-68.3833333"}},{"country":"bo","city":"Achallcha","coordinates":{"lat":"-21.2166667","long":"-67.65"}},{"country":"bo","city":"Achapa","coordinates":{"lat":"-21.65","long":"-65.85"}},{"country":"bo","city":"Achapampa","coordinates":{"lat":"-15.4166667","long":"-68.5333333"}},{"country":"bo","city":"Achapata","coordinates":{"lat":"-19.2666667","long":"-67.0166667"}},{"country":"bo","city":"Achapatja","coordinates":{"lat":"-17.5333333","long":"-69.0166667"}},{"country":"bo","city":"Achavico","coordinates":{"lat":"-17.4","long":"-68.9166667"}},{"country":"bo","city":"Achica Abajo","coordinates":{"lat":"-16.7","long":"-68.2666667"}},{"country":"bo","city":"Achica Arriba","coordinates":{"lat":"-16.7166667","long":"-68.2166667"}},{"country":"bo","city":"Achicuiri","coordinates":{"lat":"-15.3666667","long":"-67.9333333"}},{"country":"bo","city":"Achila","coordinates":{"lat":"-15.8","long":"-68.0666667"}},{"country":"bo","city":"Achina","coordinates":{"lat":"-15.7333333","long":"-68.0666667"}},{"country":"bo","city":"Achipiri","coordinates":{"lat":"-15.1666667","long":"-68.2333333"}},{"country":"bo","city":"Achiquiri","coordinates":{"lat":"-15.1666667","long":"-68.2333333"}},{"country":"bo","city":"Achirales","coordinates":{"lat":"-22.1333333","long":"-64.4666667"}},{"country":"bo","city":"Achiralito","coordinates":{"lat":"-21.6333333","long":"-63.7833333"}},{"country":"bo","city":"Achiras","coordinates":{"lat":"-17.3333333","long":"-65.5333333"}},{"country":"bo","city":"Achiri","coordinates":{"lat":"-17.1666667","long":"-69.0166667"}},{"country":"bo","city":"Achitas","coordinates":{"lat":"-17.3333333","long":"-65.5333333"}},{"country":"bo","city":"Achoapata","coordinates":{"lat":"-19.2666667","long":"-67.0166667"}},{"country":"bo","city":"Achoata","coordinates":{"lat":"-19.2666667","long":"-67.0166667"}},{"country":"bo","city":"Achocalla","coordinates":{"lat":"-16.5833333","long":"-68.1666667"}},{"country":"bo","city":"Achojpaya","coordinates":{"lat":"-16.8166667","long":"-67.6333333"}},{"country":"bo","city":"Achoma","coordinates":{"lat":"-18.2666667","long":"-64.9666667"}},{"country":"bo","city":"Achuluni","coordinates":{"lat":"-15.6","long":"-69.2833333"}},{"country":"bo","city":"Achuma","coordinates":{"lat":"-20.9166667","long":"-65.3"}},{"country":"bo","city":"Achumani","coordinates":{"lat":"-16.5333333","long":"-68.0666667"}},{"country":"bo","city":"Acnapa","coordinates":{"lat":"-21.75","long":"-65.8166667"}},{"country":"bo","city":"Acoberayoc","coordinates":{"lat":"-21.45","long":"-66.65"}},{"country":"bo","city":"Acopata","coordinates":{"lat":"-17.15","long":"-68.7666667"}},{"country":"bo","city":"Acoribes","coordinates":{"lat":"-18.6166667","long":"-68.5166667"}},{"country":"bo","city":"Acquia","coordinates":{"lat":"-21.95","long":"-66.7166667"}},{"country":"bo","city":"Actapalla","coordinates":{"lat":"-20.8166667","long":"-65.7333333"}},{"country":"bo","city":"Acullani","coordinates":{"lat":"-16.6","long":"-67.3166667"}},{"country":"bo","city":"Aczuli Pampa","coordinates":{"lat":"-19.1252778","long":"-65.4638889"}},{"country":"bo","city":"Adelia","coordinates":{"lat":"-11.0166667","long":"-68.35"}},{"country":"bo","city":"Adivino Amaya","coordinates":{"lat":"-17.0833333","long":"-68.6666667"}},{"country":"bo","city":"Adoberayoc","coordinates":{"lat":"-21.45","long":"-66.65"}},{"country":"bo","city":"Aduana","coordinates":{"lat":"-17.55","long":"-65.2333333"}},{"country":"bo","city":"Aduana","coordinates":{"lat":"-10.9666667","long":"-68.0333333"}},{"country":"bo","city":"Aduana","coordinates":{"lat":"-16.7666667","long":"-60.55"}},{"country":"bo","city":"Agana","coordinates":{"lat":"-15.8833333","long":"-67.8166667"}},{"country":"bo","city":"Agapito","coordinates":{"lat":"-10.7833333","long":"-67.35"}},{"country":"bo","city":"A. Garzón","coordinates":{"lat":"-20.9833333","long":"-63.1666667"}},{"country":"bo","city":"Agdo","coordinates":{"lat":"-10.45","long":"-67.4833333"}},{"country":"bo","city":"Agua","coordinates":{"lat":"-20.65","long":"-68.1833333"}},{"country":"bo","city":"Agua","coordinates":{"lat":"-17.1","long":"-63.5833333"}},{"country":"bo","city":"Agua Blanca","coordinates":{"lat":"-18.1833333","long":"-64.6333333"}},{"country":"bo","city":"Agua Blanca","coordinates":{"lat":"-10.3","long":"-66.25"}},{"country":"bo","city":"Agua Blanca","coordinates":{"lat":"-14.6833333","long":"-62.5166667"}},{"country":"bo","city":"Agua Blanca","coordinates":{"lat":"-21.2166667","long":"-63.4"}},{"country":"bo","city":"Agua Buena","coordinates":{"lat":"-19.0","long":"-63.4166667"}},{"country":"bo","city":"Agua Buena","coordinates":{"lat":"-21.4166667","long":"-64.15"}},{"country":"bo","city":"Agua Caliente","coordinates":{"lat":"-19.5833333","long":"-64.0833333"}},{"country":"bo","city":"Agua Caliente","coordinates":{"lat":"-16.2","long":"-62.6666667"}},{"country":"bo","city":"Aguacandita","coordinates":{"lat":"-21.85","long":"-63.8166667"}},{"country":"bo","city":"Agua Castilla","coordinates":{"lat":"-21.0","long":"-64.6"}},{"country":"bo","city":"Agua Castilla","coordinates":{"lat":"-19.7741667","long":"-65.9891667"}},{"country":"bo","city":"Agua Chica","coordinates":{"lat":"-21.0833333","long":"-67.25"}},{"country":"bo","city":"Aguacho","coordinates":{"lat":"-18.2666667","long":"-67.2"}},{"country":"bo","city":"Agua Clara","coordinates":{"lat":"-19.0666667","long":"-63.0333333"}},{"country":"bo","city":"Aguada","coordinates":{"lat":"-17.1","long":"-66.6166667"}},{"country":"bo","city":"Aguada","coordinates":{"lat":"-18.3666667","long":"-65.4833333"}},{"country":"bo","city":"Aguada de Jaraloma","coordinates":{"lat":"-20.75","long":"-68.2333333"}},{"country":"bo","city":"Aguada de Pantalaca","coordinates":{"lat":"-20.65","long":"-68.1833333"}},{"country":"bo","city":"Aguada de Poruncha","coordinates":{"lat":"-20.85","long":"-68.3666667"}},{"country":"bo","city":"Aguada de Quiaquilani","coordinates":{"lat":"-20.2333333","long":"-68.4"}},{"country":"bo","city":"Aguada de Quiaquillani","coordinates":{"lat":"-20.2333333","long":"-68.4"}},{"country":"bo","city":"Aguada de Quillaquillani","coordinates":{"lat":"-20.2333333","long":"-68.4"}},{"country":"bo","city":"Aguada de Tapia","coordinates":{"lat":"-20.75","long":"-68.15"}},{"country":"bo","city":"Aguada de Tapis","coordinates":{"lat":"-20.75","long":"-68.15"}},{"country":"bo","city":"Aguada Quiaquillani","coordinates":{"lat":"-20.2333333","long":"-68.4"}},{"country":"bo","city":"Agua de Castilla","coordinates":{"lat":"-20.9333333","long":"-66.7666667"}},{"country":"bo","city":"Aguadilla","coordinates":{"lat":"-21.7166667","long":"-66.0166667"}},{"country":"bo","city":"Aguaditas","coordinates":{"lat":"-18.7666667","long":"-64.05"}},{"country":"bo","city":"Aguaditas","coordinates":{"lat":"-21.35","long":"-64.1333333"}},{"country":"bo","city":"Agua Dulce","coordinates":{"lat":"-12.5833333","long":"-65.5666667"}},{"country":"bo","city":"Agua Dulce","coordinates":{"lat":"-19.6166667","long":"-67.1166667"}},{"country":"bo","city":"Agua Dulce","coordinates":{"lat":"-11.0166667","long":"-66.2166667"}},{"country":"bo","city":"Agua Dulce","coordinates":{"lat":"-14.1666667","long":"-62.3166667"}},{"country":"bo","city":"Agua Fea","coordinates":{"lat":"-18.9666667","long":"-63.0333333"}},{"country":"bo","city":"Agua Hedionda","coordinates":{"lat":"-20.9","long":"-64.1"}},{"country":"bo","city":"Agua Hedionda","coordinates":{"lat":"-21.7833333","long":"-64.4833333"}},{"country":"bo","city":"Aguaira","coordinates":{"lat":"-19.9833333","long":"-63.0666667"}},{"country":"bo","city":"Aguairenda","coordinates":{"lat":"-21.8333333","long":"-63.75"}},{"country":"bo","city":"Aguairendita","coordinates":{"lat":"-21.8333333","long":"-63.75"}},{"country":"bo","city":"Aguaises","coordinates":{"lat":"-17.9333333","long":"-63.2166667"}},{"country":"bo","city":"Aguallamaya","coordinates":{"lat":"-16.8333333","long":"-68.9333333"}},{"country":"bo","city":"Aguallamaya","coordinates":{"lat":"-18.3666667","long":"-67.2666667"}},{"country":"bo","city":"Agua Milada","coordinates":{"lat":"-20.5333333","long":"-66.5333333"}},{"country":"bo","city":"Agua Milagra","coordinates":{"lat":"-19.2833333","long":"-67.1166667"}},{"country":"bo","city":"Aguamilagro","coordinates":{"lat":"-14.2833333","long":"-68.2"}},{"country":"bo","city":"Agua Milagro","coordinates":{"lat":"-16.0333333","long":"-67.1666667"}},{"country":"bo","city":"Agua Milagro","coordinates":{"lat":"-19.2833333","long":"-67.1166667"}},{"country":"bo","city":"Agua Milagro","coordinates":{"lat":"-20.8833333","long":"-66.7833333"}},{"country":"bo","city":"Agua Millada","coordinates":{"lat":"-20.5333333","long":"-66.5333333"}},{"country":"bo","city":"Agua Panda","coordinates":{"lat":"-18.05","long":"-60.85"}},{"country":"bo","city":"Agua Pande","coordinates":{"lat":"-18.05","long":"-60.85"}},{"country":"bo","city":"Agua Pasta","coordinates":{"lat":"-19.4666667","long":"-61.2"}},{"country":"bo","city":"Agua Pasto","coordinates":{"lat":"-19.4666667","long":"-61.2"}},{"country":"bo","city":"Aguaquisa","coordinates":{"lat":"-20.5666667","long":"-67.75"}},{"country":"bo","city":"Aguaragüe","coordinates":{"lat":"-21.4666667","long":"-63.5166667"}},{"country":"bo","city":"Aguarai","coordinates":{"lat":"-21.4666667","long":"-63.5166667"}},{"country":"bo","city":"Aguarate Guazú","coordinates":{"lat":"-19.3166667","long":"-62.4333333"}},{"country":"bo","city":"Aguarate-mi","coordinates":{"lat":"-19.3333333","long":"-62.4666667"}},{"country":"bo","city":"Aguaray","coordinates":{"lat":"-21.4666667","long":"-63.5166667"}},{"country":"bo","city":"Aguarda","coordinates":{"lat":"-20.6","long":"-66.4666667"}},{"country":"bo","city":"Aguardaloma","coordinates":{"lat":"-21.35","long":"-66.0666667"}},{"country":"bo","city":"Aguarendita","coordinates":{"lat":"-21.8333333","long":"-63.75"}},{"country":"bo","city":"Aguareteguazú","coordinates":{"lat":"-19.3166667","long":"-62.4333333"}},{"country":"bo","city":"Aguaretemí","coordinates":{"lat":"-19.3333333","long":"-62.4666667"}},{"country":"bo","city":"Agua Retirada","coordinates":{"lat":"-18.5333333","long":"-59.1833333"}},{"country":"bo","city":"Agua Rica","coordinates":{"lat":"-21.5166667","long":"-63.4833333"}},{"country":"bo","city":"Agua Salada","coordinates":{"lat":"-21.3833333","long":"-63.6333333"}},{"country":"bo","city":"Aguas Calientes","coordinates":{"lat":"-19.5833333","long":"-64.0833333"}},{"country":"bo","city":"Aguas Calientes","coordinates":{"lat":"-15.75","long":"-68.9666667"}},{"country":"bo","city":"Aguas Calientes","coordinates":{"lat":"-21.05","long":"-67.4166667"}},{"country":"bo","city":"Aguas Calientes","coordinates":{"lat":"-17.8333333","long":"-60.7166667"}},{"country":"bo","city":"Aguas Claras","coordinates":{"lat":"-16.55","long":"-67.4333333"}},{"country":"bo","city":"Agua Sulfhídrica","coordinates":{"lat":"-22.7333333","long":"-64.3666667"}},{"country":"bo","city":"Agua Sulfídrica","coordinates":{"lat":"-22.7333333","long":"-64.3666667"}},{"country":"bo","city":"Aguaypalos","coordinates":{"lat":"-21.1666667","long":"-64.3833333"}},{"country":"bo","city":"Aguayrenda","coordinates":{"lat":"-21.8666667","long":"-63.6666667"}},{"country":"bo","city":"Agua Zande","coordinates":{"lat":"-18.05","long":"-60.85"}},{"country":"bo","city":"Aguilani","coordinates":{"lat":"-16.7166667","long":"-67.35"}},{"country":"bo","city":"Aguilar","coordinates":{"lat":"-16.7166667","long":"-67.35"}},{"country":"bo","city":"Aguilar","coordinates":{"lat":"-21.75","long":"-66.5833333"}},{"country":"bo","city":"Aguilar","coordinates":{"lat":"-21.2833333","long":"-63.4333333"}},{"country":"bo","city":"Aguilera","coordinates":{"lat":"-11.5166667","long":"-68.0166667"}},{"country":"bo","city":"Aguilera","coordinates":{"lat":"-17.4166667","long":"-63.2666667"}},{"country":"bo","city":"Aguirre","coordinates":{"lat":"-17.3666667","long":"-65.7333333"}},{"country":"bo","city":"Aguita Chica","coordinates":{"lat":"-22.0833333","long":"-65.5833333"}},{"country":"bo","city":"Aguo Blanca","coordinates":{"lat":"-10.3","long":"-66.25"}},{"country":"bo","city":"Aguricoba","coordinates":{"lat":"-10.4333333","long":"-66.8"}},{"country":"bo","city":"Agustín","coordinates":{"lat":"-17.1666667","long":"-61.6333333"}},{"country":"bo","city":"Aigachi","coordinates":{"lat":"-16.3666667","long":"-68.6166667"}},{"country":"bo","city":"Aigú","coordinates":{"lat":"-17.4833333","long":"-61.6"}},{"country":"bo","city":"Aijuríco","coordinates":{"lat":"-15.0","long":"-65.0333333"}},{"country":"bo","city":"Ailaico","coordinates":{"lat":"-16.3333333","long":"-68.1"}},{"country":"bo","city":"Aillaico","coordinates":{"lat":"-16.3333333","long":"-68.1"}},{"country":"bo","city":"Aillolaya","coordinates":{"lat":"-15.1833333","long":"-68.7166667"}},{"country":"bo","city":"Aimaya","coordinates":{"lat":"-18.4333333","long":"-66.5166667"}},{"country":"bo","city":"Aime","coordinates":{"lat":"-11.7833333","long":"-66.6666667"}},{"country":"bo","city":"Aimidonani","coordinates":{"lat":"-17.7333333","long":"-68.2666667"}},{"country":"bo","city":"Aimirí","coordinates":{"lat":"-19.3833333","long":"-63.3"}},{"country":"bo","city":"Ainachuta","coordinates":{"lat":"-17.8","long":"-68.95"}},{"country":"bo","city":"Aiquile","coordinates":{"lat":"-18.1666667","long":"-65.1666667"}},{"country":"bo","city":"Aiyuiv","coordinates":{"lat":"-15.1833333","long":"-67.0666667"}},{"country":"bo","city":"Ajamarca","coordinates":{"lat":"-17.3666667","long":"-67.0666667"}},{"country":"bo","city":"Ajañani","coordinates":{"lat":"-16.1666667","long":"-69.0"}},{"country":"bo","city":"Ajchilla","coordinates":{"lat":"-20.35","long":"-64.8166667"}},{"country":"bo","city":"Ajial","coordinates":{"lat":"-18.4666667","long":"-65.3166667"}},{"country":"bo","city":"Ajinaluyani","coordinates":{"lat":"-16.5","long":"-68.6"}},{"country":"bo","city":"Ajllata","coordinates":{"lat":"-16.0166667","long":"-68.7833333"}},{"country":"bo","city":"Ajtara","coordinates":{"lat":"-19.0666667","long":"-65.95"}},{"country":"bo","city":"Ajusan","coordinates":{"lat":"-15.4","long":"-68.5333333"}},{"country":"bo","city":"Ajusani","coordinates":{"lat":"-15.4","long":"-68.5166667"}},{"country":"bo","city":"Ajusticiado","coordinates":{"lat":"-16.65","long":"-66.8166667"}},{"country":"bo","city":"Alaconi","coordinates":{"lat":"-17.1666667","long":"-69.15"}},{"country":"bo","city":"Alalay","coordinates":{"lat":"-17.6833333","long":"-65.6833333"}},{"country":"bo","city":"Alapaxa","coordinates":{"lat":"-19.5666667","long":"-67.9666667"}},{"country":"bo","city":"Alarachi","coordinates":{"lat":"-22.2","long":"-64.6333333"}},{"country":"bo","city":"Alba","coordinates":{"lat":"-17.7666667","long":"-60.6"}},{"country":"bo","city":"Albertopa","coordinates":{"lat":"-19.7333333","long":"-64.2333333"}},{"country":"bo","city":"Alberto-Pampa","coordinates":{"lat":"-19.7333333","long":"-64.2333333"}},{"country":"bo","city":"Albertoque","coordinates":{"lat":"-19.7333333","long":"-64.2333333"}},{"country":"bo","city":"Alcalá","coordinates":{"lat":"-19.3666667","long":"-64.4166667"}},{"country":"bo","city":"Alcalá Tambo","coordinates":{"lat":"-19.35","long":"-66.0666667"}},{"country":"bo","city":"Alcalde Pampa","coordinates":{"lat":"-19.5666667","long":"-64.4833333"}},{"country":"bo","city":"Alcamariyoc","coordinates":{"lat":"-21.65","long":"-66.7333333"}},{"country":"bo","city":"Alcaria","coordinates":{"lat":"-18.3833333","long":"-66.4333333"}},{"country":"bo","city":"Alcatambo","coordinates":{"lat":"-19.7","long":"-65.7666667"}},{"country":"bo","city":"Alcautal","coordinates":{"lat":"-20.1","long":"-63.9"}},{"country":"bo","city":"Alcaya","coordinates":{"lat":"-19.6166667","long":"-67.7666667"}},{"country":"bo","city":"Alcayatal","coordinates":{"lat":"-20.1","long":"-63.9"}},{"country":"bo","city":"Alcoche","coordinates":{"lat":"-15.7","long":"-67.6666667"}},{"country":"bo","city":"Alcornocal","coordinates":{"lat":"-17.7666667","long":"-63.3666667"}},{"country":"bo","city":"Alcotambo","coordinates":{"lat":"-19.7","long":"-65.7666667"}},{"country":"bo","city":"Aldea de Bororos","coordinates":{"lat":"-16.3833333","long":"-58.4"}},{"country":"bo","city":"Alegre","coordinates":{"lat":"-10.3666667","long":"-67.3166667"}},{"country":"bo","city":"Alegre","coordinates":{"lat":"-15.1","long":"-60.4666667"}},{"country":"bo","city":"Alegrete","coordinates":{"lat":"-10.75","long":"-65.5666667"}},{"country":"bo","city":"Alejandría","coordinates":{"lat":"-12.0666667","long":"-65.15"}},{"country":"bo","city":"Algarrobal","coordinates":{"lat":"-18.05","long":"-65.05"}},{"country":"bo","city":"Algarrobal","coordinates":{"lat":"-21.3333333","long":"-63.3666667"}},{"country":"bo","city":"Algarrobilla","coordinates":{"lat":"-21.3666667","long":"-63.5"}},{"country":"bo","city":"Algarrobillo","coordinates":{"lat":"-18.1","long":"-62.95"}},{"country":"bo","city":"Algarrobillos","coordinates":{"lat":"-21.9166667","long":"-63.1833333"}},{"country":"bo","city":"Algodonal","coordinates":{"lat":"-20.3833333","long":"-64.4166667"}},{"country":"bo","city":"Algodonal","coordinates":{"lat":"-17.95","long":"-64.1833333"}},{"country":"bo","city":"Algodonal","coordinates":{"lat":"-21.3666667","long":"-63.75"}},{"country":"bo","city":"Alianza","coordinates":{"lat":"-10.9333333","long":"-66.05"}},{"country":"bo","city":"Alianza","coordinates":{"lat":"-15.7","long":"-67.25"}},{"country":"bo","city":"Alianza","coordinates":{"lat":"-19.85","long":"-67.7333333"}},{"country":"bo","city":"Alianza","coordinates":{"lat":"-11.2666667","long":"-68.4166667"}},{"country":"bo","city":"Alianza","coordinates":{"lat":"-20.6333333","long":"-66.2333333"}},{"country":"bo","city":"Alianza","coordinates":{"lat":"-14.3166667","long":"-62.2666667"}},{"country":"bo","city":"Aliaza","coordinates":{"lat":"-10.9333333","long":"-66.05"}},{"country":"bo","city":"Alicia","coordinates":{"lat":"-10.9833333","long":"-69.0333333"}},{"country":"bo","city":"Alisani","coordinates":{"lat":"-16.9","long":"-66.6666667"}},{"country":"bo","city":"Alisas","coordinates":{"lat":"-21.85","long":"-64.9333333"}},{"country":"bo","city":"Aliso Mayu","coordinates":{"lat":"-19.3","long":"-64.6666667"}},{"country":"bo","city":"Alisuni","coordinates":{"lat":"-16.9","long":"-66.6666667"}},{"country":"bo","city":"Alizos","coordinates":{"lat":"-21.85","long":"-64.9333333"}},{"country":"bo","city":"Allagracia","coordinates":{"lat":"-11.6","long":"-68.25"}},{"country":"bo","city":"Allallica","coordinates":{"lat":"-16.8","long":"-67.9666667"}},{"country":"bo","city":"Allangua","coordinates":{"lat":"-19.8","long":"-63.7666667"}},{"country":"bo","city":"Allita","coordinates":{"lat":"-20.4","long":"-66.6"}},{"country":"bo","city":"Allitas","coordinates":{"lat":"-20.4","long":"-66.6"}},{"country":"bo","city":"Allituma","coordinates":{"lat":"-19.3166667","long":"-68.3666667"}},{"country":"bo","city":"Allpacoma","coordinates":{"lat":"-16.5333333","long":"-68.15"}},{"country":"bo","city":"Allpakeri","coordinates":{"lat":"-17.9333333","long":"-69.0833333"}},{"country":"bo","city":"Allpaqueri","coordinates":{"lat":"-17.85","long":"-68.4333333"}},{"country":"bo","city":"Almacén","coordinates":{"lat":"-14.0166667","long":"-62.05"}},{"country":"bo","city":"Almasaruchipa","coordinates":{"lat":"-21.4666667","long":"-66.0833333"}},{"country":"bo","city":"Almendral","coordinates":{"lat":"-11.05","long":"-65.7"}},{"country":"bo","city":"Almendras","coordinates":{"lat":"-18.0666667","long":"-63.2666667"}},{"country":"bo","city":"Almendro","coordinates":{"lat":"-18.5666667","long":"-59.05"}},{"country":"bo","city":"Almendros","coordinates":{"lat":"-18.5666667","long":"-59.05"}},{"country":"bo","city":"Almona","coordinates":{"lat":"-21.15","long":"-65.7833333"}},{"country":"bo","city":"Almonedas","coordinates":{"lat":"-10.6333333","long":"-66.2666667"}},{"country":"bo","city":"Aloohuasi","coordinates":{"lat":"-21.5833333","long":"-66.4"}},{"country":"bo","city":"Alota","coordinates":{"lat":"-21.4","long":"-67.5666667"}},{"country":"bo","city":"Alpaca","coordinates":{"lat":"-18.4333333","long":"-65.8"}},{"country":"bo","city":"Alpacan","coordinates":{"lat":"-19.9333333","long":"-66.9833333"}},{"country":"bo","city":"Alpacoma","coordinates":{"lat":"-16.6","long":"-68.1833333"}},{"country":"bo","city":"Alpahuasi","coordinates":{"lat":"-21.1333333","long":"-65.8666667"}},{"country":"bo","city":"Alpampa","coordinates":{"lat":"-20.4","long":"-66.6"}},{"country":"bo","city":"Alsacia","coordinates":{"lat":"-10.6666667","long":"-66.3833333"}},{"country":"bo","city":"Alsacia Cosulta","coordinates":{"lat":"-10.6666667","long":"-66.3833333"}},{"country":"bo","city":"Alsarsia","coordinates":{"lat":"-10.6666667","long":"-66.3833333"}},{"country":"bo","city":"Alsuri","coordinates":{"lat":"-17.8333333","long":"-68.0666667"}},{"country":"bo","city":"Alta Gracia","coordinates":{"lat":"-13.25","long":"-64.1666667"}},{"country":"bo","city":"Alta Gracia","coordinates":{"lat":"-11.3","long":"-66.5666667"}},{"country":"bo","city":"Altagracia","coordinates":{"lat":"-11.6","long":"-68.25"}},{"country":"bo","city":"Alta Gracia","coordinates":{"lat":"-16.1666667","long":"-62.15"}},{"country":"bo","city":"Altamachi","coordinates":{"lat":"-17.0333333","long":"-66.4333333"}},{"country":"bo","city":"Altamarani","coordinates":{"lat":"-14.35","long":"-67.5666667"}},{"country":"bo","city":"Altamirani","coordinates":{"lat":"-17.5166667","long":"-68.5"}},{"country":"bo","city":"Altampasi","coordinates":{"lat":"-21.2833333","long":"-66.2166667"}},{"country":"bo","city":"Altapampa","coordinates":{"lat":"-20.4","long":"-66.6"}},{"country":"bo","city":"Alta Vista","coordinates":{"lat":"-14.7166667","long":"-62.4"}},{"country":"bo","city":"Alto Achacana","coordinates":{"lat":"-16.7833333","long":"-69.1666667"}},{"country":"bo","city":"Alto Almacén","coordinates":{"lat":"-14.3333333","long":"-62.1666667"}},{"country":"bo","city":"Alto","coordinates":{"lat":"-15.6","long":"-68.4833333"}},{"country":"bo","city":"Alto Barranca","coordinates":{"lat":"-21.5833333","long":"-66.7833333"}},{"country":"bo","city":"Alto Camiri","coordinates":{"lat":"-20.1","long":"-63.5333333"}},{"country":"bo","city":"Alto Chaparé","coordinates":{"lat":"-16.8","long":"-65.1333333"}},{"country":"bo","city":"Alto Comanehi","coordinates":{"lat":"-17.05","long":"-68.4833333"}},{"country":"bo","city":"Alto de Cajas","coordinates":{"lat":"-21.35","long":"-64.5"}},{"country":"bo","city":"Alto de Comanche","coordinates":{"lat":"-17.05","long":"-68.4833333"}},{"country":"bo","city":"Alto de España","coordinates":{"lat":"-21.3833333","long":"-64.4333333"}},{"country":"bo","city":"Alto de las Sierras","coordinates":{"lat":"-18.35","long":"-63.7833333"}},{"country":"bo","city":"Alto de los Zarzos","coordinates":{"lat":"-21.4666667","long":"-63.9"}},{"country":"bo","city":"Alto de Tareira","coordinates":{"lat":"-19.6666667","long":"-63.6"}},{"country":"bo","city":"Alto de Tereira","coordinates":{"lat":"-19.6666667","long":"-63.6"}},{"country":"bo","city":"Alto Ipaguazi","coordinates":{"lat":"-21.4","long":"-63.8333333"}},{"country":"bo","city":"Alto Lajitas","coordinates":{"lat":"-21.5666667","long":"-63.6833333"}},{"country":"bo","city":"Alto Lima","coordinates":{"lat":"-16.4833333","long":"-68.1833333"}},{"country":"bo","city":"Alto Madidi","coordinates":{"lat":"-13.6333333","long":"-68.7416667"}},{"country":"bo","city":"Alto Porvenir","coordinates":{"lat":"-11.35","long":"-69.2166667"}},{"country":"bo","city":"Altos","coordinates":{"lat":"-14.5","long":"-68.4666667"}},{"country":"bo","city":"Alto Seco","coordinates":{"lat":"-18.8666667","long":"-64.1166667"}},{"country":"bo","city":"Altura Nueva Brema","coordinates":{"lat":"-12.55","long":"-64.4"}},{"country":"bo","city":"Alum Ita","coordinates":{"lat":"-17.1","long":"-68.6166667"}},{"country":"bo","city":"Alves","coordinates":{"lat":"-9.8333333","long":"-65.6333333"}},{"country":"bo","city":"Alvis","coordinates":{"lat":"-14.6333333","long":"-63.15"}},{"country":"bo","city":"Amachani","coordinates":{"lat":"-15.7666667","long":"-68.85"}},{"country":"bo","city":"Amachuma","coordinates":{"lat":"-21.1333333","long":"-65.4333333"}},{"country":"bo","city":"Amachuma","coordinates":{"lat":"-18.4","long":"-68.35"}},{"country":"bo","city":"Amachuma","coordinates":{"lat":"-20.5","long":"-66.6833333"}},{"country":"bo","city":"Amachuma Grande","coordinates":{"lat":"-18.4","long":"-68.3"}},{"country":"bo","city":"Amachumama","coordinates":{"lat":"-18.4","long":"-68.35"}},{"country":"bo","city":"Amachumani","coordinates":{"lat":"-17.6166667","long":"-67.4"}},{"country":"bo","city":"Amachuta","coordinates":{"lat":"-17.8","long":"-68.95"}},{"country":"bo","city":"Amaguaya","coordinates":{"lat":"-15.9333333","long":"-68.2666667"}},{"country":"bo","city":"Amanati","coordinates":{"lat":"-19.2833333","long":"-62.4333333"}},{"country":"bo","city":"Amancaya","coordinates":{"lat":"-19.3166667","long":"-64.55"}},{"country":"bo","city":"Amani","coordinates":{"lat":"-17.4166667","long":"-68.95"}},{"country":"bo","city":"Amañoken","coordinates":{"lat":"-17.7333333","long":"-68.6166667"}},{"country":"bo","city":"Amañokeri","coordinates":{"lat":"-17.7333333","long":"-68.6166667"}},{"country":"bo","city":"Amarete","coordinates":{"lat":"-15.2333333","long":"-68.9666667"}},{"country":"bo","city":"Amaro","coordinates":{"lat":"-19.5166667","long":"-68.4833333"}},{"country":"bo","city":"Amaru","coordinates":{"lat":"-19.4666667","long":"-64.4"}},{"country":"bo","city":"Amauari","coordinates":{"lat":"-11.2333333","long":"-68.2333333"}},{"country":"bo","city":"Amaya","coordinates":{"lat":"-18.4833333","long":"-66.4333333"}},{"country":"bo","city":"Amayapampa","coordinates":{"lat":"-18.4833333","long":"-66.4333333"}},{"country":"bo","city":"Ambaibo","coordinates":{"lat":"-16.8833333","long":"-62.85"}},{"country":"bo","city":"Ambaito","coordinates":{"lat":"-16.8833333","long":"-62.85"}},{"country":"bo","city":"Ambaná","coordinates":{"lat":"-15.4666667","long":"-69.0"}},{"country":"bo","city":"Amboró","coordinates":{"lat":"-17.6166667","long":"-63.6166667"}},{"country":"bo","city":"Amboro Nuevo","coordinates":{"lat":"-19.7166667","long":"-62.6166667"}},{"country":"bo","city":"Ambreo","coordinates":{"lat":"-10.4833333","long":"-66.8333333"}},{"country":"bo","city":"Amenati","coordinates":{"lat":"-19.2833333","long":"-62.4333333"}},{"country":"bo","city":"Amenet","coordinates":{"lat":"-19.2833333","long":"-62.4333333"}},{"country":"bo","city":"Amereta","coordinates":{"lat":"-21.5","long":"-64.0333333"}},{"country":"bo","city":"Amerete","coordinates":{"lat":"-21.5","long":"-64.0333333"}},{"country":"bo","city":"América","coordinates":{"lat":"-11.2833333","long":"-66.1333333"}},{"country":"bo","city":"América","coordinates":{"lat":"-10.7666667","long":"-66.6833333"}},{"country":"bo","city":"Amiraya","coordinates":{"lat":"-17.4833333","long":"-66.3"}},{"country":"bo","city":"Ampa Ampa","coordinates":{"lat":"-20.3","long":"-65.4"}},{"country":"bo","city":"Ampaya","coordinates":{"lat":"-19.25","long":"-65.2333333"}},{"country":"bo","city":"Ampicolque","coordinates":{"lat":"-17.2333333","long":"-67.35"}},{"country":"bo","city":"Amta Auta","coordinates":{"lat":"-17.3166667","long":"-68.6333333"}},{"country":"bo","city":"Amullajta","coordinates":{"lat":"-17.0333333","long":"-67.8"}},{"country":"bo","city":"Amutari","coordinates":{"lat":"-11.2333333","long":"-68.2333333"}},{"country":"bo","city":"Aña","coordinates":{"lat":"-21.3","long":"-65.5"}},{"country":"bo","city":"Anaca","coordinates":{"lat":"-17.2","long":"-68.7666667"}},{"country":"bo","city":"Añahuani","coordinates":{"lat":"-18.2166667","long":"-65.65"}},{"country":"bo","city":"Anahuayani","coordinates":{"lat":"-18.2166667","long":"-65.65"}},{"country":"bo","city":"Anahui","coordinates":{"lat":"-21.2666667","long":"-66.1833333"}},{"country":"bo","city":"Anahuiloma","coordinates":{"lat":"-21.5","long":"-66.1666667"}},{"country":"bo","city":"Anahulloma","coordinates":{"lat":"-21.5","long":"-66.1666667"}},{"country":"bo","city":"Anahuna","coordinates":{"lat":"-21.2666667","long":"-66.0"}},{"country":"bo","city":"Analoa","coordinates":{"lat":"-20.5666667","long":"-68.1333333"}},{"country":"bo","city":"Ananea","coordinates":{"lat":"-15.5333333","long":"-68.7333333"}},{"country":"bo","city":"Anarchuyo","coordinates":{"lat":"-19.35","long":"-67.2333333"}},{"country":"bo","city":"Anarchuyu","coordinates":{"lat":"-19.35","long":"-67.2333333"}},{"country":"bo","city":"Añarenda","coordinates":{"lat":"-21.0666667","long":"-64.1"}},{"country":"bo","city":"Anaruya","coordinates":{"lat":"-21.0666667","long":"-65.8833333"}},{"country":"bo","city":"Anayani","coordinates":{"lat":"-17.1333333","long":"-68.5333333"}},{"country":"bo","city":"Ancacato","coordinates":{"lat":"-18.8833333","long":"-66.6666667"}},{"country":"bo","city":"Ancacora","coordinates":{"lat":"-19.9333333","long":"-63.1833333"}},{"country":"bo","city":"Ancañasa","coordinates":{"lat":"-20.8833333","long":"-63.7166667"}},{"country":"bo","city":"Ancara","coordinates":{"lat":"-16.8166667","long":"-68.2166667"}},{"country":"bo","city":"Ancarani","coordinates":{"lat":"-18.8833333","long":"-65.2666667"}},{"country":"bo","city":"Ancaravi","coordinates":{"lat":"-18.4","long":"-67.7666667"}},{"country":"bo","city":"Ancasoro","coordinates":{"lat":"-19.9333333","long":"-63.1833333"}},{"country":"bo","city":"Ancazoro","coordinates":{"lat":"-19.9333333","long":"-63.1833333"}},{"country":"bo","city":"Ancelmo","coordinates":{"lat":"-15.2333333","long":"-68.3333333"}},{"country":"bo","city":"Anchaplaya","coordinates":{"lat":"-14.05","long":"-68.8833333"}},{"country":"bo","city":"Ancheplaya","coordinates":{"lat":"-14.05","long":"-68.8833333"}},{"country":"bo","city":"Anchocara","coordinates":{"lat":"-17.05","long":"-67.6333333"}},{"country":"bo","city":"Anchodaya","coordinates":{"lat":"-14.05","long":"-68.8833333"}},{"country":"bo","city":"Anchopata","coordinates":{"lat":"-14.05","long":"-68.8833333"}},{"country":"bo","city":"Anchopaya","coordinates":{"lat":"-14.05","long":"-68.8833333"}},{"country":"bo","city":"Anciaqui","coordinates":{"lat":"-15.5833333","long":"-67.95"}},{"country":"bo","city":"Ancoamaya","coordinates":{"lat":"-16.2","long":"-68.8166667"}},{"country":"bo","city":"Ancoaque","coordinates":{"lat":"-15.5833333","long":"-67.95"}},{"country":"bo","city":"Anco-aque","coordinates":{"lat":"-16.75","long":"-68.95"}},{"country":"bo","city":"Ancocahua","coordinates":{"lat":"-16.4166667","long":"-68.5333333"}},{"country":"bo","city":"Ancocahua","coordinates":{"lat":"-18.5666667","long":"-67.6166667"}},{"country":"bo","city":"Ancocahua","coordinates":{"lat":"-18.8333333","long":"-66.3"}},{"country":"bo","city":"Ancocala","coordinates":{"lat":"-15.5666667","long":"-68.1"}},{"country":"bo","city":"Ancocala","coordinates":{"lat":"-19.4333333","long":"-67.4"}},{"country":"bo","city":"Ancocalani","coordinates":{"lat":"-15.4","long":"-68.5166667"}},{"country":"bo","city":"Ancocola","coordinates":{"lat":"-18.4333333","long":"-67.6833333"}},{"country":"bo","city":"Ancocolla","coordinates":{"lat":"-19.4333333","long":"-67.4"}},{"country":"bo","city":"Ancocolo","coordinates":{"lat":"-18.4333333","long":"-67.6833333"}},{"country":"bo","city":"Ancocoto","coordinates":{"lat":"-19.4333333","long":"-67.4"}},{"country":"bo","city":"Ancohua","coordinates":{"lat":"-18.5666667","long":"-67.6166667"}},{"country":"bo","city":"Ancohuma","coordinates":{"lat":"-15.75","long":"-68.55"}},{"country":"bo","city":"Ancola","coordinates":{"lat":"-18.4333333","long":"-67.6833333"}},{"country":"bo","city":"Ancolayma","coordinates":{"lat":"-18.6","long":"-66.4833333"}},{"country":"bo","city":"Ancoma","coordinates":{"lat":"-15.7666667","long":"-68.55"}},{"country":"bo","city":"Ancoma","coordinates":{"lat":"-19.1169444","long":"-65.6447222"}},{"country":"bo","city":"Ancomarca","coordinates":{"lat":"-17.2166667","long":"-68.95"}},{"country":"bo","city":"Ancomaya","coordinates":{"lat":"-19.4","long":"-65.2333333"}},{"country":"bo","city":"Ancona","coordinates":{"lat":"-19.1169444","long":"-65.6447222"}},{"country":"bo","city":"Ancón","coordinates":{"lat":"-21.6166667","long":"-64.6666667"}},{"country":"bo","city":"Ancoraimes","coordinates":{"lat":"-15.9","long":"-68.9666667"}},{"country":"bo","city":"Ancorovi","coordinates":{"lat":"-18.4","long":"-67.7666667"}},{"country":"bo","city":"Ancoruma","coordinates":{"lat":"-17.5","long":"-66.7333333"}},{"country":"bo","city":"Ancoruma","coordinates":{"lat":"-17.0833333","long":"-68.3666667"}},{"country":"bo","city":"Ancosuni","coordinates":{"lat":"-16.7833333","long":"-67.9666667"}},{"country":"bo","city":"Ancota","coordinates":{"lat":"-15.5333333","long":"-68.0166667"}},{"country":"bo","city":"Ancoyo","coordinates":{"lat":"-19.7166667","long":"-67.6833333"}},{"country":"bo","city":"Andaca","coordinates":{"lat":"-17.3166667","long":"-68.75"}},{"country":"bo","city":"Andacaba","coordinates":{"lat":"-19.8166667","long":"-65.6333333"}},{"country":"bo","city":"Andacave","coordinates":{"lat":"-19.8166667","long":"-65.6333333"}},{"country":"bo","city":"Andamarca","coordinates":{"lat":"-18.7666667","long":"-67.5166667"}},{"country":"bo","city":"Andapata","coordinates":{"lat":"-18.2333333","long":"-67.9666667"}},{"country":"bo","city":"Andarivi","coordinates":{"lat":"-16.9333333","long":"-68.3"}},{"country":"bo","city":"Andavilque","coordinates":{"lat":"-18.4","long":"-66.5833333"}},{"country":"bo","city":"Andén","coordinates":{"lat":"-17.9666667","long":"-65.9"}},{"country":"bo","city":"Andenes","coordinates":{"lat":"-17.85","long":"-65.9833333"}},{"country":"bo","city":"Andenpampa","coordinates":{"lat":"-17.9166667","long":"-65.9166667"}},{"country":"bo","city":"Andrés","coordinates":{"lat":"-17.8333333","long":"-58.75"}},{"country":"bo","city":"Añez","coordinates":{"lat":"-10.8666667","long":"-66.5333333"}},{"country":"bo","city":"Añez","coordinates":{"lat":"-15.7","long":"-63.0833333"}},{"country":"bo","city":"Angelcasa","coordinates":{"lat":"-20.9333333","long":"-66.35"}},{"country":"bo","city":"Ángeles","coordinates":{"lat":"-20.9","long":"-66.3166667"}},{"country":"bo","city":"Angeles","coordinates":{"lat":"-14.5333333","long":"-62.2166667"}},{"country":"bo","city":"Angosto","coordinates":{"lat":"-20.3833333","long":"-64.0166667"}},{"country":"bo","city":"Angosto","coordinates":{"lat":"-21.55","long":"-65.2666667"}},{"country":"bo","city":"Angosto Taperilla","coordinates":{"lat":"-19.7333333","long":"-63.8833333"}},{"country":"bo","city":"Angostura","coordinates":{"lat":"-18.8333333","long":"-65.1166667"}},{"country":"bo","city":"Angostura","coordinates":{"lat":"-16.8","long":"-67.6333333"}},{"country":"bo","city":"Angostura","coordinates":{"lat":"-10.8","long":"-66.25"}},{"country":"bo","city":"Angostura","coordinates":{"lat":"-18.1166667","long":"-65.7333333"}},{"country":"bo","city":"Angostura","coordinates":{"lat":"-18.1333333","long":"-64.2"}},{"country":"bo","city":"Angostura","coordinates":{"lat":"-21.6833333","long":"-64.6333333"}},{"country":"bo","city":"Angosturacasa","coordinates":{"lat":"-21.3833333","long":"-66.3166667"}},{"country":"bo","city":"Anguaira","coordinates":{"lat":"-19.9833333","long":"-63.0666667"}},{"country":"bo","city":"Añilaya","coordinates":{"lat":"-15.65","long":"-68.7166667"}},{"country":"bo","city":"Anillo","coordinates":{"lat":"-14.0666667","long":"-61.85"}},{"country":"bo","city":"Ánimas","coordinates":{"lat":"-18.3666667","long":"-67.5833333"}},{"country":"bo","city":"Animas","coordinates":{"lat":"-20.9666667","long":"-66.3"}},{"country":"bo","city":"Añimbó","coordinates":{"lat":"-20.5666667","long":"-64.1"}},{"country":"bo","city":"Animosa","coordinates":{"lat":"-18.3666667","long":"-67.5833333"}},{"country":"bo","city":"Animoza","coordinates":{"lat":"-18.3666667","long":"-67.5833333"}},{"country":"bo","city":"Anka Kollu","coordinates":{"lat":"-18.5166667","long":"-68.0"}},{"country":"bo","city":"Anluta","coordinates":{"lat":"-20.6166667","long":"-66.3833333"}},{"country":"bo","city":"Anocagua","coordinates":{"lat":"-15.5833333","long":"-67.95"}},{"country":"bo","city":"Anocarayre","coordinates":{"lat":"-17.4333333","long":"-66.3333333"}},{"country":"bo","city":"Anocarire","coordinates":{"lat":"-17.4333333","long":"-66.3333333"}},{"country":"bo","city":"Anokolke","coordinates":{"lat":"-17.8666667","long":"-68.8333333"}},{"country":"bo","city":"Anquaira","coordinates":{"lat":"-19.9833333","long":"-63.0666667"}},{"country":"bo","city":"Anquioma Alto","coordinates":{"lat":"-16.9833333","long":"-67.65"}},{"country":"bo","city":"Anquioma","coordinates":{"lat":"-16.9833333","long":"-67.6666667"}},{"country":"bo","city":"Anquioma Bajo","coordinates":{"lat":"-16.9666667","long":"-67.6666667"}},{"country":"bo","city":"Anselmo","coordinates":{"lat":"-15.2333333","long":"-68.3333333"}},{"country":"bo","city":"Anta","coordinates":{"lat":"-16.95","long":"-68.7333333"}},{"country":"bo","city":"Anta Anta","coordinates":{"lat":"-17.3166667","long":"-68.6333333"}},{"country":"bo","city":"Antacagua","coordinates":{"lat":"-17.5833333","long":"-66.6833333"}},{"country":"bo","city":"Antacollo","coordinates":{"lat":"-18.1666667","long":"-68.6"}},{"country":"bo","city":"Anta Khaua","coordinates":{"lat":"-17.6","long":"-66.7"}},{"country":"bo","city":"Antamarca","coordinates":{"lat":"-16.6","long":"-68.7666667"}},{"country":"bo","city":"Antana","coordinates":{"lat":"-16.4","long":"-68.5"}},{"country":"bo","city":"Antani","coordinates":{"lat":"-17.4166667","long":"-68.95"}},{"country":"bo","city":"Antapata","coordinates":{"lat":"-18.2333333","long":"-67.9666667"}},{"country":"bo","city":"Antaquira","coordinates":{"lat":"-17.0333333","long":"-68.5833333"}},{"country":"bo","city":"Antasagua","coordinates":{"lat":"-17.5833333","long":"-66.6833333"}},{"country":"bo","city":"Anta-Uta","coordinates":{"lat":"-17.3333333","long":"-68.9333333"}},{"country":"bo","city":"Antaya","coordinates":{"lat":"-19.25","long":"-65.2166667"}},{"country":"bo","city":"Antequera","coordinates":{"lat":"-18.4833333","long":"-66.8833333"}},{"country":"bo","city":"Antezana","coordinates":{"lat":"-11.3666667","long":"-67.5166667"}},{"country":"bo","city":"Anticasa","coordinates":{"lat":"-20.9666667","long":"-66.4666667"}},{"country":"bo","city":"Anticuragua","coordinates":{"lat":"-18.25","long":"-68.4666667"}},{"country":"bo","city":"Anticuraguara","coordinates":{"lat":"-18.25","long":"-68.4666667"}},{"country":"bo","city":"Anticurahuara","coordinates":{"lat":"-18.25","long":"-68.4666667"}},{"country":"bo","city":"Antigua Colonia Crevaux","coordinates":{"lat":"-21.9166667","long":"-62.9166667"}},{"country":"bo","city":"Antihasi","coordinates":{"lat":"-21.15","long":"-66.3666667"}},{"country":"bo","city":"Antihorno","coordinates":{"lat":"-21.1333333","long":"-66.2333333"}},{"country":"bo","city":"Antihuasi","coordinates":{"lat":"-21.15","long":"-66.3666667"}},{"country":"bo","city":"Antiipiña","coordinates":{"lat":"-17.6166667","long":"-68.6"}},{"country":"bo","city":"Antijipiña","coordinates":{"lat":"-17.6166667","long":"-68.6"}},{"country":"bo","city":"Antilpiña","coordinates":{"lat":"-17.6166667","long":"-68.6"}},{"country":"bo","city":"Antincurahua","coordinates":{"lat":"-18.25","long":"-68.4666667"}},{"country":"bo","city":"Antincurahuara","coordinates":{"lat":"-18.25","long":"-68.4666667"}},{"country":"bo","city":"Antiopujre","coordinates":{"lat":"-21.5166667","long":"-65.8833333"}},{"country":"bo","city":"Antipampa","coordinates":{"lat":"-17.4833333","long":"-67.6166667"}},{"country":"bo","city":"Antipiña","coordinates":{"lat":"-17.6166667","long":"-68.6"}},{"country":"bo","city":"Antocollo","coordinates":{"lat":"-16.2166667","long":"-68.5666667"}},{"country":"bo","city":"Antora","coordinates":{"lat":"-18.7333333","long":"-65.6333333"}},{"country":"bo","city":"Antora","coordinates":{"lat":"-19.1238889","long":"-65.9730556"}},{"country":"bo","city":"Anukariri","coordinates":{"lat":"-17.2","long":"-69.35"}},{"country":"bo","city":"Anupucara","coordinates":{"lat":"-17.4166667","long":"-67.4166667"}},{"country":"bo","city":"Anupuraca","coordinates":{"lat":"-17.4166667","long":"-67.4166667"}},{"country":"bo","city":"Anzaldo","coordinates":{"lat":"-17.8333333","long":"-65.9166667"}},{"country":"bo","city":"Apacheta","coordinates":{"lat":"-17.7833333","long":"-65.35"}},{"country":"bo","city":"Apacheta","coordinates":{"lat":"-16.7","long":"-67.2666667"}},{"country":"bo","city":"Apacheta","coordinates":{"lat":"-19.9166667","long":"-66.2666667"}},{"country":"bo","city":"Apacheta","coordinates":{"lat":"-18.7166667","long":"-64.1666667"}},{"country":"bo","city":"Apacheta Calcalaguay","coordinates":{"lat":"-19.8","long":"-68.45"}},{"country":"bo","city":"Apachetacasa","coordinates":{"lat":"-21.5333333","long":"-66.8833333"}},{"country":"bo","city":"Apacheta Kasa","coordinates":{"lat":"-21.5333333","long":"-66.8833333"}},{"country":"bo","city":"Apachetilla","coordinates":{"lat":"-19.2833333","long":"-65.05"}},{"country":"bo","city":"Apama","coordinates":{"lat":"-15.9333333","long":"-67.9166667"}},{"country":"bo","city":"Apana","coordinates":{"lat":"-15.9333333","long":"-67.9166667"}},{"country":"bo","city":"Aparajos","coordinates":{"lat":"-15.7833333","long":"-64.4666667"}},{"country":"bo","city":"Aparejos","coordinates":{"lat":"-15.7833333","long":"-64.4666667"}},{"country":"bo","city":"Apayiruma","coordinates":{"lat":"-17.05","long":"-68.6"}},{"country":"bo","city":"Apere","coordinates":{"lat":"-12.1166667","long":"-66.2833333"}},{"country":"bo","city":"Apilla","coordinates":{"lat":"-17.85","long":"-66.25"}},{"country":"bo","city":"Apilla Pampa","coordinates":{"lat":"-17.85","long":"-66.25"}},{"country":"bo","city":"Apillapampa","coordinates":{"lat":"-17.8","long":"-66.2"}},{"country":"bo","city":"Apillmarca","coordinates":{"lat":"-17.0666667","long":"-68.55"}},{"country":"bo","city":"Apingalla","coordinates":{"lat":"-17.05","long":"-67.7833333"}},{"country":"bo","city":"Apingollas","coordinates":{"lat":"-17.05","long":"-67.7833333"}},{"country":"bo","city":"Apita","coordinates":{"lat":"-16.6333333","long":"-67.5"}},{"country":"bo","city":"Apolo","coordinates":{"lat":"-14.7166667","long":"-68.4166667"}},{"country":"bo","city":"Apooco","coordinates":{"lat":"-15.8666667","long":"-68.8666667"}},{"country":"bo","city":"Apucara","coordinates":{"lat":"-21.5833333","long":"-66.8166667"}},{"country":"bo","city":"Aquilambaya","coordinates":{"lat":"-15.7666667","long":"-68.8166667"}},{"country":"bo","city":"Aquio","coordinates":{"lat":"-19.7","long":"-63.7166667"}},{"country":"bo","city":"Ara","coordinates":{"lat":"-20.6","long":"-65.4833333"}},{"country":"bo","city":"Arabate","coordinates":{"lat":"-19.0","long":"-65.2"}},{"country":"bo","city":"Arabete","coordinates":{"lat":"-19.0","long":"-65.2"}},{"country":"bo","city":"Arabico","coordinates":{"lat":"-20.1166667","long":"-63.6666667"}},{"country":"bo","city":"Araca","coordinates":{"lat":"-16.8166667","long":"-67.55"}},{"country":"bo","city":"Araca","coordinates":{"lat":"-9.8666667","long":"-66.3833333"}},{"country":"bo","city":"Aracachi","coordinates":{"lat":"-18.6333333","long":"-66.1833333"}},{"country":"bo","city":"Aracana","coordinates":{"lat":"-17.15","long":"-68.55"}},{"country":"bo","city":"Araijilla","coordinates":{"lat":"-19.5166667","long":"-65.8166667"}},{"country":"bo","city":"Aramani","coordinates":{"lat":"-17.05","long":"-66.7833333"}},{"country":"bo","city":"Arampampa","coordinates":{"lat":"-17.95","long":"-66.0833333"}},{"country":"bo","city":"Arana","coordinates":{"lat":"-15.8833333","long":"-67.8166667"}},{"country":"bo","city":"Arani","coordinates":{"lat":"-17.5666667","long":"-65.7666667"}},{"country":"bo","city":"Aranjuez","coordinates":{"lat":"-16.55","long":"-68.1"}},{"country":"bo","city":"Arapata","coordinates":{"lat":"-16.2166667","long":"-67.5666667"}},{"country":"bo","city":"Arapiri","coordinates":{"lat":"-19.9666667","long":"-65.1166667"}},{"country":"bo","city":"Arasaya","coordinates":{"lat":"-16.45","long":"-68.95"}},{"country":"bo","city":"Arashico","coordinates":{"lat":"-11.4","long":"-68.8666667"}},{"country":"bo","city":"Arático","coordinates":{"lat":"-20.1166667","long":"-63.6666667"}},{"country":"bo","city":"Arauco","coordinates":{"lat":"-17.2833333","long":"-65.9833333"}},{"country":"bo","city":"Araujo","coordinates":{"lat":"-17.2833333","long":"-65.9833333"}},{"country":"bo","city":"Arballio","coordinates":{"lat":"-22.1333333","long":"-64.9"}},{"country":"bo","city":"Arballo","coordinates":{"lat":"-22.1333333","long":"-64.9"}},{"country":"bo","city":"Arbieto","coordinates":{"lat":"-17.5666667","long":"-66.0166667"}},{"country":"bo","city":"Arbolito","coordinates":{"lat":"-22.1333333","long":"-64.9"}},{"country":"bo","city":"Árbol Solo","coordinates":{"lat":"-13.6166667","long":"-64.75"}},{"country":"bo","city":"Arca","coordinates":{"lat":"-17.9166667","long":"-66.7"}},{"country":"bo","city":"Arcata","coordinates":{"lat":"-17.1166667","long":"-68.0"}},{"country":"bo","city":"Arco","coordinates":{"lat":"-17.9166667","long":"-66.7"}},{"country":"bo","city":"Arcopongo","coordinates":{"lat":"-16.65","long":"-67.0"}},{"country":"bo","city":"Arcos","coordinates":{"lat":"-20.2333333","long":"-64.2666667"}},{"country":"bo","city":"Ardilla","coordinates":{"lat":"-17.7166667","long":"-65.2666667"}},{"country":"bo","city":"Areloma","coordinates":{"lat":"-20.85","long":"-66.2333333"}},{"country":"bo","city":"Arena","coordinates":{"lat":"-20.1833333","long":"-63.8833333"}},{"country":"bo","city":"Arenal","coordinates":{"lat":"-12.2666667","long":"-66.2333333"}},{"country":"bo","city":"Arenal","coordinates":{"lat":"-22.1","long":"-64.7166667"}},{"country":"bo","city":"Arenales","coordinates":{"lat":"-22.1","long":"-65.4833333"}},{"country":"bo","city":"Arenales","coordinates":{"lat":"-18.95","long":"-63.7333333"}},{"country":"bo","city":"ArenaLoma","coordinates":{"lat":"-20.85","long":"-66.2333333"}},{"country":"bo","city":"Arenas","coordinates":{"lat":"-20.1833333","long":"-63.8833333"}},{"country":"bo","city":"Arepucho","coordinates":{"lat":"-17.25","long":"-65.2333333"}},{"country":"bo","city":"Arequipa","coordinates":{"lat":"-12.3666667","long":"-66.2833333"}},{"country":"bo","city":"Arequipa","coordinates":{"lat":"-15.6","long":"-67.95"}},{"country":"bo","city":"Argandoñaloma","coordinates":{"lat":"-21.5666667","long":"-66.35"}},{"country":"bo","city":"Argel","coordinates":{"lat":"-13.45","long":"-62.5"}},{"country":"bo","city":"Argelia","coordinates":{"lat":"-13.45","long":"-62.5"}},{"country":"bo","city":"Argelia","coordinates":{"lat":"-9.9","long":"-66.5833333"}},{"country":"bo","city":"Aribibi","coordinates":{"lat":"-14.05","long":"-62.5666667"}},{"country":"bo","city":"Arica","coordinates":{"lat":"-9.7666667","long":"-65.8833333"}},{"country":"bo","city":"Arichua","coordinates":{"lat":"-17.2","long":"-68.9666667"}},{"country":"bo","city":"Arillanga","coordinates":{"lat":"-17.3166667","long":"-67.8666667"}},{"country":"bo","city":"Ariruma","coordinates":{"lat":"-18.2983333","long":"-64.2638889"}},{"country":"bo","city":"Arislaca","coordinates":{"lat":"-20.55","long":"-66.6166667"}},{"country":"bo","city":"Aritalomas","coordinates":{"lat":"-21.15","long":"-66.55"}},{"country":"bo","city":"Armala","coordinates":{"lat":"-18.3333333","long":"-68.1833333"}},{"country":"bo","city":"Armata","coordinates":{"lat":"-18.3333333","long":"-68.1833333"}},{"country":"bo","city":"Armenia","coordinates":{"lat":"-14.4166667","long":"-67.0666667"}},{"country":"bo","city":"Armenta","coordinates":{"lat":"-14.4166667","long":"-67.0666667"}},{"country":"bo","city":"Aroifilla","coordinates":{"lat":"-19.5166667","long":"-65.8166667"}},{"country":"bo","city":"Aroma","coordinates":{"lat":"-15.15","long":"-64.0333333"}},{"country":"bo","city":"Aroma","coordinates":{"lat":"-17.0666667","long":"-67.5333333"}},{"country":"bo","city":"Aroma","coordinates":{"lat":"-19.3833333","long":"-67.35"}},{"country":"bo","city":"Aroma","coordinates":{"lat":"-17.2","long":"-63.0833333"}},{"country":"bo","city":"Arpaja","coordinates":{"lat":"-20.65","long":"-64.95"}},{"country":"bo","city":"Arpasiña","coordinates":{"lat":"-18.0","long":"-68.15"}},{"country":"bo","city":"Arpita","coordinates":{"lat":"-17.5833333","long":"-66.05"}},{"country":"bo","city":"Arque","coordinates":{"lat":"-17.8","long":"-66.3833333"}},{"country":"bo","city":"Arquillas","coordinates":{"lat":"-19.25","long":"-64.4833333"}},{"country":"bo","city":"Arquillos","coordinates":{"lat":"-19.25","long":"-64.4833333"}},{"country":"bo","city":"Arrayán","coordinates":{"lat":"-18.3666667","long":"-64.4833333"}},{"country":"bo","city":"Arrepiado","coordinates":{"lat":"-10.5","long":"-67.5333333"}},{"country":"bo","city":"Arriegua","coordinates":{"lat":"-14.4166667","long":"-67.5333333"}},{"country":"bo","city":"Arrien","coordinates":{"lat":"-19.8166667","long":"-58.1833333"}},{"country":"bo","city":"Arrosales","coordinates":{"lat":"-22.6666667","long":"-64.3166667"}},{"country":"bo","city":"Arroyo Grande","coordinates":{"lat":"-10.7333333","long":"-67.9166667"}},{"country":"bo","city":"Arroyos","coordinates":{"lat":"-16.6333333","long":"-63.7666667"}},{"country":"bo","city":"Arroyo Seco","coordinates":{"lat":"-13.95","long":"-61.9166667"}},{"country":"bo","city":"Arroyuelo","coordinates":{"lat":"-17.8166667","long":"-63.05"}},{"country":"bo","city":"Arteza","coordinates":{"lat":"-21.6166667","long":"-65.2666667"}},{"country":"bo","city":"Arugaito","coordinates":{"lat":"-16.05","long":"-61.8833333"}},{"country":"bo","city":"Aruguayito","coordinates":{"lat":"-16.3833333","long":"-62.05"}},{"country":"bo","city":"Arum-Itapi","coordinates":{"lat":"-17.1","long":"-68.6166667"}},{"country":"bo","city":"Arumtapi","coordinates":{"lat":"-17.1","long":"-68.6166667"}},{"country":"bo","city":"Arumt tapi","coordinates":{"lat":"-17.1","long":"-68.6166667"}},{"country":"bo","city":"Asabi","coordinates":{"lat":"-17.2333333","long":"-63.4"}},{"country":"bo","city":"Asariama","coordinates":{"lat":"-14.25","long":"-68.5416667"}},{"country":"bo","city":"Asariamas","coordinates":{"lat":"-14.25","long":"-68.5416667"}},{"country":"bo","city":"Asarón","coordinates":{"lat":"-21.1166667","long":"-65.9166667"}},{"country":"bo","city":"A. Sarzón","coordinates":{"lat":"-20.85","long":"-63.1"}},{"country":"bo","city":"Ascanti","coordinates":{"lat":"-20.9666667","long":"-65.7"}},{"country":"bo","city":"Ascención","coordinates":{"lat":"-13.6166667","long":"-63.0333333"}},{"country":"bo","city":"Ascención","coordinates":{"lat":"-10.8666667","long":"-66.65"}},{"country":"bo","city":"Ascención","coordinates":{"lat":"-14.8333333","long":"-60.6166667"}},{"country":"bo","city":"Ascensión","coordinates":{"lat":"-13.6166667","long":"-63.0333333"}},{"country":"bo","city":"Ascensión","coordinates":{"lat":"-10.8666667","long":"-66.65"}},{"country":"bo","city":"Ascensión","coordinates":{"lat":"-15.7","long":"-63.0833333"}},{"country":"bo","city":"Ascension de las Petas","coordinates":{"lat":"-16.3166667","long":"-59.45"}},{"country":"bo","city":"Asencion","coordinates":{"lat":"-15.7","long":"-63.0833333"}},{"country":"bo","city":"Aseraduya","coordinates":{"lat":"-21.8","long":"-66.5"}},{"country":"bo","city":"Aserani","coordinates":{"lat":"-21.0666667","long":"-65.9166667"}},{"country":"bo","city":"Aserduya","coordinates":{"lat":"-21.8","long":"-66.5"}},{"country":"bo","city":"Aseron","coordinates":{"lat":"-21.1166667","long":"-65.9166667"}},{"country":"bo","city":"Aserradero","coordinates":{"lat":"-19.0","long":"-57.8666667"}},{"country":"bo","city":"Asiento","coordinates":{"lat":"-16.8166667","long":"-67.55"}},{"country":"bo","city":"Asiento","coordinates":{"lat":"-19.9166667","long":"-66.65"}},{"country":"bo","city":"Asiento Minero de Macha","coordinates":{"lat":"-18.9166667","long":"-66.3"}},{"country":"bo","city":"Asiento Minero de Pacha","coordinates":{"lat":"-18.9166667","long":"-66.3"}},{"country":"bo","city":"Asiento Minero Macha","coordinates":{"lat":"-18.9166667","long":"-66.3"}},{"country":"bo","city":"Asilla","coordinates":{"lat":"-14.45","long":"-68.6166667"}},{"country":"bo","city":"Asimpunta","coordinates":{"lat":"-20.8","long":"-66.2"}},{"country":"bo","city":"Asinpunta","coordinates":{"lat":"-20.8","long":"-66.2"}},{"country":"bo","city":"Asioca","coordinates":{"lat":"-21.75","long":"-65.3333333"}},{"country":"bo","city":"Asirumarca","coordinates":{"lat":"-17.0666667","long":"-68.7"}},{"country":"bo","city":"Asis","coordinates":{"lat":"-10.45","long":"-66.1666667"}},{"country":"bo","city":"Asloca","coordinates":{"lat":"-21.7","long":"-65.2833333"}},{"country":"bo","city":"Asnapugio","coordinates":{"lat":"-20.2833333","long":"-66.5333333"}},{"country":"bo","city":"Asnapujio","coordinates":{"lat":"-20.2833333","long":"-66.5333333"}},{"country":"bo","city":"Asnapujo","coordinates":{"lat":"-20.2833333","long":"-66.5333333"}},{"country":"bo","city":"Asna Pujro","coordinates":{"lat":"-21.4833333","long":"-65.1666667"}},{"country":"bo","city":"Asobayoc","coordinates":{"lat":"-21.2333333","long":"-65.85"}},{"country":"bo","city":"Asociega","coordinates":{"lat":"-13.3666667","long":"-62.1"}},{"country":"bo","city":"Asociego","coordinates":{"lat":"-13.3666667","long":"-62.1"}},{"country":"bo","city":"Astich","coordinates":{"lat":"-16.9666667","long":"-61.0166667"}},{"country":"bo","city":"Astillero","coordinates":{"lat":"-19.5","long":"-64.1833333"}},{"country":"bo","city":"Astillero","coordinates":{"lat":"-21.1","long":"-64.6333333"}},{"country":"bo","city":"Astuchoma","coordinates":{"lat":"-21.7333333","long":"-65.8333333"}},{"country":"bo","city":"Astuchona","coordinates":{"lat":"-21.7333333","long":"-65.8333333"}},{"country":"bo","city":"Asunción","coordinates":{"lat":"-16.8833333","long":"-65.1166667"}},{"country":"bo","city":"Asunción","coordinates":{"lat":"-11.7666667","long":"-67.8333333"}},{"country":"bo","city":"Asunción","coordinates":{"lat":"-17.85","long":"-60.1666667"}},{"country":"bo","city":"Asunta","coordinates":{"lat":"-12.65","long":"-64.1833333"}},{"country":"bo","city":"Asunta","coordinates":{"lat":"-15.7166667","long":"-67.6833333"}},{"country":"bo","city":"Asunta","coordinates":{"lat":"-10.2166667","long":"-66.9666667"}},{"country":"bo","city":"Asunta","coordinates":{"lat":"-13.9666667","long":"-62.0833333"}},{"country":"bo","city":"Asuntia","coordinates":{"lat":"-15.45","long":"-64.4166667"}},{"country":"bo","city":"Asunto","coordinates":{"lat":"-10.2166667","long":"-66.9666667"}},{"country":"bo","city":"Asuvi","coordinates":{"lat":"-17.1166667","long":"-63.4333333"}},{"country":"bo","city":"Atacasa","coordinates":{"lat":"-20.95","long":"-65.95"}},{"country":"bo","city":"Atahallani","coordinates":{"lat":"-16.8333333","long":"-67.7333333"}},{"country":"bo","city":"Atahuallani","coordinates":{"lat":"-16.7333333","long":"-67.7833333"}},{"country":"bo","city":"Atahuasi","coordinates":{"lat":"-21.4833333","long":"-66.4833333"}},{"country":"bo","city":"Atajado","coordinates":{"lat":"-18.8166667","long":"-62.7166667"}},{"country":"bo","city":"Atalamayoc","coordinates":{"lat":"-21.45","long":"-66.4333333"}},{"country":"bo","city":"Atalamayos","coordinates":{"lat":"-21.45","long":"-66.4333333"}},{"country":"bo","city":"Ataraca","coordinates":{"lat":"-17.75","long":"-67.25"}},{"country":"bo","city":"Ataraque","coordinates":{"lat":"-17.75","long":"-67.25"}},{"country":"bo","city":"Atén","coordinates":{"lat":"-14.9166667","long":"-68.3833333"}},{"country":"bo","city":"Atirindia","coordinates":{"lat":"-20.85","long":"-63.9333333"}},{"country":"bo","city":"Atocani","coordinates":{"lat":"-18.8","long":"-65.4"}},{"country":"bo","city":"Atocha","coordinates":{"lat":"-20.9333333","long":"-66.2333333"}},{"country":"bo","city":"Atocha Palca","coordinates":{"lat":"-20.9166667","long":"-66.2166667"}},{"country":"bo","city":"Atocha Vieja","coordinates":{"lat":"-20.9166667","long":"-66.2166667"}},{"country":"bo","city":"Atochuhuasiloma","coordinates":{"lat":"-21.2666667","long":"-65.6333333"}},{"country":"bo","city":"Atorama","coordinates":{"lat":"-17.0666667","long":"-67.55"}},{"country":"bo","city":"Atoroma","coordinates":{"lat":"-17.0666667","long":"-67.55"}},{"country":"bo","city":"Atulcha","coordinates":{"lat":"-20.5666667","long":"-67.6333333"}},{"country":"bo","city":"Atuloni","coordinates":{"lat":"-21.5166667","long":"-66.1166667"}},{"country":"bo","city":"Atuouiri","coordinates":{"lat":"-17.2833333","long":"-67.85"}},{"country":"bo","city":"Atupuncu","coordinates":{"lat":"-19.4","long":"-65.9"}},{"country":"bo","city":"Atuquiri","coordinates":{"lat":"-17.2833333","long":"-67.85"}},{"country":"bo","city":"Aturicamayoc","coordinates":{"lat":"-21.1","long":"-66.4"}},{"country":"bo","city":"Aucachi","coordinates":{"lat":"-20.8","long":"-65.5333333"}},{"country":"bo","city":"Aucapata","coordinates":{"lat":"-15.3666667","long":"-68.65"}},{"country":"bo","city":"Audiencia","coordinates":{"lat":"-17.4666667","long":"-68.6166667"}},{"country":"bo","city":"Aullagas","coordinates":{"lat":"-18.6666667","long":"-66.0166667"}},{"country":"bo","city":"Auqui Amaya","coordinates":{"lat":"-17.1166667","long":"-69.0333333"}},{"country":"bo","city":"Auqui Kollu","coordinates":{"lat":"-19.3833333","long":"-67.6"}},{"country":"bo","city":"Aurora","coordinates":{"lat":"-16.3","long":"-68.2166667"}},{"country":"bo","city":"Australia","coordinates":{"lat":"-12.7","long":"-66.5333333"}},{"country":"bo","city":"Australia","coordinates":{"lat":"-19.85","long":"-62.5166667"}},{"country":"bo","city":"Auto Aillo","coordinates":{"lat":"-17.5","long":"-68.4666667"}},{"country":"bo","city":"Avarachani","coordinates":{"lat":"-15.2833333","long":"-69.1"}},{"country":"bo","city":"Avaroa","coordinates":{"lat":"-19.0833333","long":"-60.2333333"}},{"country":"bo","city":"Averana","coordinates":{"lat":"-18.5833333","long":"-66.2"}},{"country":"bo","city":"Averanga","coordinates":{"lat":"-18.5833333","long":"-66.2"}},{"country":"bo","city":"Avicaya","coordinates":{"lat":"-16.4833333","long":"-68.45"}},{"country":"bo","city":"Avicaya","coordinates":{"lat":"-18.5333333","long":"-66.8666667"}},{"country":"bo","city":"Avichaca","coordinates":{"lat":"-16.05","long":"-68.65"}},{"country":"bo","city":"Avilcha","coordinates":{"lat":"-21.2833333","long":"-67.2166667"}},{"country":"bo","city":"Avilio","coordinates":{"lat":"-11.3833333","long":"-67.5166667"}},{"country":"bo","city":"Ayaamaya","coordinates":{"lat":"-17.5666667","long":"-67.7"}},{"country":"bo","city":"Ayacucho","coordinates":{"lat":"-17.7333333","long":"-65.6"}},{"country":"bo","city":"Ayacucho","coordinates":{"lat":"-11.1833333","long":"-67.5833333"}},{"country":"bo","city":"Ayacucho","coordinates":{"lat":"-17.85","long":"-63.3333333"}},{"country":"bo","city":"Ayala","coordinates":{"lat":"-21.1","long":"-66.0"}},{"country":"bo","city":"Ayamaya","coordinates":{"lat":"-17.3833333","long":"-67.7166667"}},{"country":"bo","city":"Ayampampa","coordinates":{"lat":"-17.7333333","long":"-65.6"}},{"country":"bo","city":"Ayantata","coordinates":{"lat":"-18.5333333","long":"-66.45"}},{"country":"bo","city":"Ayapampa","coordinates":{"lat":"-17.7333333","long":"-65.6"}},{"country":"bo","city":"Ayata","coordinates":{"lat":"-15.35","long":"-68.75"}},{"country":"bo","city":"Aygachi","coordinates":{"lat":"-16.3666667","long":"-68.6166667"}},{"country":"bo","city":"Ayisana","coordinates":{"lat":"-21.4166667","long":"-66.2166667"}},{"country":"bo","city":"Ayma","coordinates":{"lat":"-16.65","long":"-68.0666667"}},{"country":"bo","city":"Aymaya","coordinates":{"lat":"-18.4333333","long":"-66.5166667"}},{"country":"bo","city":"Aymiri","coordinates":{"lat":"-19.3833333","long":"-63.3"}},{"country":"bo","city":"Ayoamlaya","coordinates":{"lat":"-17.5666667","long":"-67.7"}},{"country":"bo","city":"Ayo Ayo","coordinates":{"lat":"-17.0833333","long":"-68.0"}},{"country":"bo","city":"Ayo Ayo","coordinates":{"lat":"-18.9666667","long":"-66.15"}},{"country":"bo","city":"Ayoma","coordinates":{"lat":"-17.6333333","long":"-66.4333333"}},{"country":"bo","city":"Ayoma","coordinates":{"lat":"-18.9166667","long":"-66.15"}},{"country":"bo","city":"Ayparahui","coordinates":{"lat":"-19.0333333","long":"-67.9333333"}},{"country":"bo","city":"Ayparahul","coordinates":{"lat":"-19.0333333","long":"-67.9333333"}},{"country":"bo","city":"Ayparavi","coordinates":{"lat":"-19.0333333","long":"-67.9333333"}},{"country":"bo","city":"Ayque","coordinates":{"lat":"-19.8833333","long":"-67.5833333"}},{"country":"bo","city":"Ayumbiraiti","coordinates":{"lat":"-20.1666667","long":"-63.7333333"}},{"country":"bo","city":"Ayumbirate","coordinates":{"lat":"-20.1666667","long":"-63.7333333"}},{"country":"bo","city":"Ayzacollo","coordinates":{"lat":"-17.4166667","long":"-67.5"}},{"country":"bo","city":"Azafranal","coordinates":{"lat":"-16.65","long":"-68.9333333"}},{"country":"bo","city":"Azafrán","coordinates":{"lat":"-17.3166667","long":"-62.9833333"}},{"country":"bo","city":"Azakes","coordinates":{"lat":"-20.6","long":"-67.6833333"}},{"country":"bo","city":"Azángaro","coordinates":{"lat":"-15.0666667","long":"-68.8333333"}},{"country":"bo","city":"Azángaro","coordinates":{"lat":"-19.4844444","long":"-65.65"}},{"country":"bo","city":"Azangora","coordinates":{"lat":"-15.0666667","long":"-68.8333333"}},{"country":"bo","city":"Azeradayoc","coordinates":{"lat":"-21.8","long":"-66.5"}},{"country":"bo","city":"Azero Marca","coordinates":{"lat":"-17.0666667","long":"-68.7"}},{"country":"bo","city":"Azero María","coordinates":{"lat":"-17.0666667","long":"-68.7"}},{"country":"bo","city":"Azerón","coordinates":{"lat":"-21.1166667","long":"-65.9166667"}},{"country":"bo","city":"Azotea","coordinates":{"lat":"-11.3333333","long":"-67.2"}},{"country":"bo","city":"Azotes","coordinates":{"lat":"-11.3333333","long":"-67.2"}},{"country":"bo","city":"Azucaro","coordinates":{"lat":"-17.9","long":"-60.2333333"}},{"country":"bo","city":"Azufreras","coordinates":{"lat":"-19.7166667","long":"-68.6666667"}},{"country":"bo","city":"Azul","coordinates":{"lat":"-17.7166667","long":"-65.1833333"}},{"country":"bo","city":"Azul","coordinates":{"lat":"-13.1666667","long":"-65.65"}},{"country":"bo","city":"Azul","coordinates":{"lat":"-14.7333333","long":"-63.3333333"}},{"country":"bo","city":"Azul Cocha","coordinates":{"lat":"-17.7166667","long":"-65.1833333"}},{"country":"bo","city":"Azulicasa","coordinates":{"lat":"-21.1166667","long":"-65.7"}},{"country":"bo","city":"Azulichihua","coordinates":{"lat":"-21.35","long":"-66.1833333"}},{"country":"bo","city":"Azullenca","coordinates":{"lat":"-17.0666667","long":"-68.8"}},{"country":"bo","city":"Azurdui","coordinates":{"lat":"-20.1","long":"-64.4166667"}},{"country":"bo","city":"Azurduy","coordinates":{"lat":"-20.1","long":"-64.4166667"}},{"country":"bo","city":"Azurita","coordinates":{"lat":"-18.0666667","long":"-68.15"}},{"country":"bo","city":"Azusaqui","coordinates":{"lat":"-17.35","long":"-63.1333333"}},{"country":"bo","city":"Azuvi","coordinates":{"lat":"-17.2333333","long":"-63.4"}},{"country":"bo","city":"Azuzagui","coordinates":{"lat":"-17.35","long":"-63.1333333"}},{"country":"bo","city":"Baerepoti","coordinates":{"lat":"-19.85","long":"-63.8333333"}},{"country":"bo","city":"Bagio","coordinates":{"lat":"-11.2","long":"-68.6166667"}},{"country":"bo","city":"Bahía","coordinates":{"lat":"-18.6166667","long":"-58.2"}},{"country":"bo","city":"Bahía Blanca","coordinates":{"lat":"-14.4333333","long":"-62.3"}},{"country":"bo","city":"Bahia Floresta","coordinates":{"lat":"-11.15","long":"-68.7833333"}},{"country":"bo","city":"Bahía Progreso","coordinates":{"lat":"-12.95","long":"-63.8333333"}},{"country":"bo","city":"Bahía Verde","coordinates":{"lat":"-10.15","long":"-66.6"}},{"country":"bo","city":"Baichuja","coordinates":{"lat":"-14.4","long":"-67.1166667"}},{"country":"bo","city":"Baichuje","coordinates":{"lat":"-14.4","long":"-67.1166667"}},{"country":"bo","city":"Baisondo","coordinates":{"lat":"-20.8666667","long":"-63.85"}},{"country":"bo","city":"Baja Huaricana","coordinates":{"lat":"-16.7333333","long":"-67.9166667"}},{"country":"bo","city":"Bajío","coordinates":{"lat":"-11.2333333","long":"-68.5833333"}},{"country":"bo","city":"Bajío","coordinates":{"lat":"-17.5666667","long":"-63.3666667"}},{"country":"bo","city":"Bajo","coordinates":{"lat":"-16.0833333","long":"-68.05"}},{"country":"bo","city":"Bajo Plata","coordinates":{"lat":"-14.5","long":"-62.25"}},{"country":"bo","city":"Bajos Punta","coordinates":{"lat":"-20.4666667","long":"-66.7666667"}},{"country":"bo","city":"Bala","coordinates":{"lat":"-20.6","long":"-68.3"}},{"country":"bo","city":"Bala Puca","coordinates":{"lat":"-22.5","long":"-64.4666667"}},{"country":"bo","city":"Balcón","coordinates":{"lat":"-20.9666667","long":"-64.6833333"}},{"country":"bo","city":"Balconcillo Alomuya","coordinates":{"lat":"-19.5666667","long":"-65.2666667"}},{"country":"bo","city":"Balconcillo","coordinates":{"lat":"-19.5666667","long":"-65.2666667"}},{"country":"bo","city":"Balconcito Alomuya","coordinates":{"lat":"-19.5666667","long":"-65.2666667"}},{"country":"bo","city":"Ballivián","coordinates":{"lat":"-17.1","long":"-68.4833333"}},{"country":"bo","city":"Ballivián","coordinates":{"lat":"-11.6166667","long":"-67.7166667"}},{"country":"bo","city":"Ballivián","coordinates":{"lat":"-17.0833333","long":"-62.65"}},{"country":"bo","city":"Balsa","coordinates":{"lat":"-17.0","long":"-68.7833333"}},{"country":"bo","city":"Balsamuni","coordinates":{"lat":"-15.6166667","long":"-67.8333333"}},{"country":"bo","city":"Balsanuni","coordinates":{"lat":"-15.6166667","long":"-67.8333333"}},{"country":"bo","city":"Balsapampa","coordinates":{"lat":"-15.5833333","long":"-68.1666667"}},{"country":"bo","city":"Balsa Pampa","coordinates":{"lat":"-16.1666667","long":"-67.0666667"}},{"country":"bo","city":"Bambarillo","coordinates":{"lat":"-17.1166667","long":"-67.5666667"}},{"country":"bo","city":"Bambarra","coordinates":{"lat":"-19.3166667","long":"-57.9333333"}},{"country":"bo","city":"Bambarral","coordinates":{"lat":"-19.3166667","long":"-57.9333333"}},{"country":"bo","city":"Bamburata","coordinates":{"lat":"-17.0833333","long":"-68.85"}},{"country":"bo","city":"Bamburuta","coordinates":{"lat":"-17.45","long":"-69.1333333"}},{"country":"bo","city":"Bañadito","coordinates":{"lat":"-17.2666667","long":"-63.3333333"}},{"country":"bo","city":"Bañado","coordinates":{"lat":"-18.9602778","long":"-64.4988889"}},{"country":"bo","city":"Bañado","coordinates":{"lat":"-17.9333333","long":"-64.6"}},{"country":"bo","city":"Bañados","coordinates":{"lat":"-21.15","long":"-63.4333333"}},{"country":"bo","city":"Bandera","coordinates":{"lat":"-13.2333333","long":"-65.65"}},{"country":"bo","city":"Banderayauna","coordinates":{"lat":"-21.0666667","long":"-65.6833333"}},{"country":"bo","city":"Banduria","coordinates":{"lat":"-17.55","long":"-63.2666667"}},{"country":"bo","city":"Banegas","coordinates":{"lat":"-17.15","long":"-62.8333333"}},{"country":"bo","city":"Banepoti","coordinates":{"lat":"-19.85","long":"-63.8333333"}},{"country":"bo","city":"Banger","coordinates":{"lat":"-19.4833333","long":"-65.8166667"}},{"country":"bo","city":"Baños","coordinates":{"lat":"-17.2166667","long":"-67.95"}},{"country":"bo","city":"Baños","coordinates":{"lat":"-19.3166667","long":"-65.4333333"}},{"country":"bo","city":"Barbacho","coordinates":{"lat":"-11.1833333","long":"-69.1833333"}},{"country":"bo","city":"Barbecho","coordinates":{"lat":"-11.1833333","long":"-69.1833333"}},{"country":"bo","city":"Barbecho","coordinates":{"lat":"-21.2166667","long":"-66.0666667"}},{"country":"bo","city":"Barbechos","coordinates":{"lat":"-19.9166667","long":"-64.6166667"}},{"country":"bo","city":"Barbosa","coordinates":{"lat":"-21.1","long":"-63.1166667"}},{"country":"bo","city":"Barcal Vieja","coordinates":{"lat":"-18.0","long":"-67.3166667"}},{"country":"bo","city":"Barcelona","coordinates":{"lat":"-10.9166667","long":"-66.8833333"}},{"country":"bo","city":"Barcelona","coordinates":{"lat":"-18.2666667","long":"-63.5833333"}},{"country":"bo","city":"Barelones","coordinates":{"lat":"-13.8333333","long":"-61.7166667"}},{"country":"bo","city":"Barepoli","coordinates":{"lat":"-19.3833333","long":"-64.9833333"}},{"country":"bo","city":"Barepoti","coordinates":{"lat":"-19.85","long":"-63.8333333"}},{"country":"bo","city":"Barepoti","coordinates":{"lat":"-19.3833333","long":"-64.9833333"}},{"country":"bo","city":"Barraca","coordinates":{"lat":"-18.9833333","long":"-65.3333333"}},{"country":"bo","city":"Barraca","coordinates":{"lat":"-16.7","long":"-67.4333333"}},{"country":"bo","city":"Barraca General Román","coordinates":{"lat":"-17.15","long":"-64.4666667"}},{"country":"bo","city":"Barraca Grande","coordinates":{"lat":"-11.8666667","long":"-65.6"}},{"country":"bo","city":"Barraca Ibabo","coordinates":{"lat":"-16.4333333","long":"-64.6833333"}},{"country":"bo","city":"Barraca Ibobo","coordinates":{"lat":"-16.4333333","long":"-64.6833333"}},{"country":"bo","city":"Barraca Isarsama","coordinates":{"lat":"-17.0","long":"-64.6833333"}},{"country":"bo","city":"Barraca Rapirrán","coordinates":{"lat":"-10.3333333","long":"-67.1666667"}},{"country":"bo","city":"Barraca Repirran","coordinates":{"lat":"-10.3333333","long":"-67.1666667"}},{"country":"bo","city":"Barraca Riparran","coordinates":{"lat":"-10.3333333","long":"-67.1666667"}},{"country":"bo","city":"Barraca Sacta","coordinates":{"lat":"-16.8333333","long":"-64.75"}},{"country":"bo","city":"Barraca Víbora","coordinates":{"lat":"-17.0333333","long":"-64.55"}},{"country":"bo","city":"Barracoma","coordinates":{"lat":"-12.05","long":"-65.9166667"}},{"country":"bo","city":"Barranca","coordinates":{"lat":"-18.9833333","long":"-65.3333333"}},{"country":"bo","city":"Barranca","coordinates":{"lat":"-16.7","long":"-67.4333333"}},{"country":"bo","city":"Barranca Ibari","coordinates":{"lat":"-16.6","long":"-63.8166667"}},{"country":"bo","city":"Barrancas","coordinates":{"lat":"-22.1666667","long":"-67.4166667"}},{"country":"bo","city":"Barrancas","coordinates":{"lat":"-21.75","long":"-64.65"}},{"country":"bo","city":"Barranco","coordinates":{"lat":"-16.7666667","long":"-67.3833333"}},{"country":"bo","city":"Barranco Ibare","coordinates":{"lat":"-16.6","long":"-63.8166667"}},{"country":"bo","city":"Barrancos","coordinates":{"lat":"-18.9833333","long":"-65.3333333"}},{"country":"bo","city":"Barraquita","coordinates":{"lat":"-12.2166667","long":"-67.1166667"}},{"country":"bo","city":"Barrera","coordinates":{"lat":"-12.5833333","long":"-66.9833333"}},{"country":"bo","city":"Barrera","coordinates":{"lat":"-18.7833333","long":"-63.8166667"}},{"country":"bo","city":"Barrera Grande","coordinates":{"lat":"-11.8666667","long":"-65.6"}},{"country":"bo","city":"Barreras","coordinates":{"lat":"-17.45","long":"-63.1666667"}},{"country":"bo","city":"Barrero","coordinates":{"lat":"-19.9666667","long":"-63.7833333"}},{"country":"bo","city":"Barrero","coordinates":{"lat":"-9.8333333","long":"-66.15"}},{"country":"bo","city":"Barrero","coordinates":{"lat":"-14.6833333","long":"-61.9833333"}},{"country":"bo","city":"Barrero Cañada","coordinates":{"lat":"-19.9666667","long":"-63.7833333"}},{"country":"bo","city":"Barrial","coordinates":{"lat":"-17.5","long":"-63.2166667"}},{"country":"bo","city":"Barro Negro","coordinates":{"lat":"-21.7333333","long":"-63.8333333"}},{"country":"bo","city":"Barroquita","coordinates":{"lat":"-12.2166667","long":"-67.1166667"}},{"country":"bo","city":"Barros","coordinates":{"lat":"-21.7833333","long":"-63.6"}},{"country":"bo","city":"Barros Blancos","coordinates":{"lat":"-18.2666667","long":"-62.9333333"}},{"country":"bo","city":"Bartaca","coordinates":{"lat":"-18.9833333","long":"-65.3333333"}},{"country":"bo","city":"Bartolo","coordinates":{"lat":"-15.5666667","long":"-68.1166667"}},{"country":"bo","city":"Basilea","coordinates":{"lat":"-14.6","long":"-65.0166667"}},{"country":"bo","city":"Basilio","coordinates":{"lat":"-18.0333333","long":"-63.1666667"}},{"country":"bo","city":"Basquira","coordinates":{"lat":"-15.95","long":"-68.6166667"}},{"country":"bo","city":"Bastilla","coordinates":{"lat":"-11.0166667","long":"-68.0833333"}},{"country":"bo","city":"Batalla","coordinates":{"lat":"-16.3","long":"-68.55"}},{"country":"bo","city":"Batallas","coordinates":{"lat":"-16.3333333","long":"-68.5"}},{"country":"bo","city":"Batania","coordinates":{"lat":"-17.35","long":"-63.15"}},{"country":"bo","city":"Batelones","coordinates":{"lat":"-13.8333333","long":"-61.7166667"}},{"country":"bo","city":"Batun Quemado","coordinates":{"lat":"-14.4333333","long":"-64.55"}},{"country":"bo","city":"Bauer","coordinates":{"lat":"-16.4","long":"-60.9166667"}},{"country":"bo","city":"Baurecito","coordinates":{"lat":"-13.2166667","long":"-64.8"}},{"country":"bo","city":"Baures","coordinates":{"lat":"-13.5833333","long":"-63.5833333"}},{"country":"bo","city":"Bauricito","coordinates":{"lat":"-13.2166667","long":"-64.8"}},{"country":"bo","city":"Beata","coordinates":{"lat":"-21.3666667","long":"-66.2166667"}},{"country":"bo","city":"Behiro Novo","coordinates":{"lat":"-12.8166667","long":"-63.0333333"}},{"country":"bo","city":"Beiro Neva","coordinates":{"lat":"-12.8166667","long":"-63.0333333"}},{"country":"bo","city":"Belem","coordinates":{"lat":"-18.0666667","long":"-67.9333333"}},{"country":"bo","city":"Belem","coordinates":{"lat":"-10.0166667","long":"-66.75"}},{"country":"bo","city":"Belén","coordinates":{"lat":"-14.7333333","long":"-66.7833333"}},{"country":"bo","city":"Belén","coordinates":{"lat":"-16.0166667","long":"-68.7333333"}},{"country":"bo","city":"Belén","coordinates":{"lat":"-17.8","long":"-67.3333333"}},{"country":"bo","city":"Belén","coordinates":{"lat":"-10.0166667","long":"-66.75"}},{"country":"bo","city":"Belén","coordinates":{"lat":"-18.5333333","long":"-66.3166667"}},{"country":"bo","city":"Belén","coordinates":{"lat":"-21.7833333","long":"-64.5833333"}},{"country":"bo","city":"Belén de Anamarca","coordinates":{"lat":"-18.8","long":"-67.65"}},{"country":"bo","city":"Belén de Andamarca","coordinates":{"lat":"-18.8","long":"-67.65"}},{"country":"bo","city":"Belén de Choquecota","coordinates":{"lat":"-17.9833333","long":"-67.85"}},{"country":"bo","city":"Bella Angélica","coordinates":{"lat":"-14.6333333","long":"-61.55"}},{"country":"bo","city":"Bella Brisa","coordinates":{"lat":"-11.3833333","long":"-66.35"}},{"country":"bo","city":"Bella Esperanza","coordinates":{"lat":"-10.9833333","long":"-66.8333333"}},{"country":"bo","city":"Bella Esperanza","coordinates":{"lat":"-21.45","long":"-63.1666667"}},{"country":"bo","city":"Bella Flor","coordinates":{"lat":"-11.15","long":"-67.8166667"}},{"country":"bo","city":"Bella Flor","coordinates":{"lat":"-17.6833333","long":"-63.1333333"}},{"country":"bo","city":"Bella Selva","coordinates":{"lat":"-10.6","long":"-66.6166667"}},{"country":"bo","city":"Bella Vista","coordinates":{"lat":"-18.9","long":"-65.1666667"}},{"country":"bo","city":"Bella Vista","coordinates":{"lat":"-13.1166667","long":"-63.7833333"}},{"country":"bo","city":"Bella Vista","coordinates":{"lat":"-15.3333333","long":"-68.2166667"}},{"country":"bo","city":"Bella Vista","coordinates":{"lat":"-17.7","long":"-67.5"}},{"country":"bo","city":"Bella Vista","coordinates":{"lat":"-10.25","long":"-65.8166667"}},{"country":"bo","city":"Bella Vista","coordinates":{"lat":"-18.6833333","long":"-66.0333333"}},{"country":"bo","city":"Bella Vista","coordinates":{"lat":"-13.5833333","long":"-61.5"}},{"country":"bo","city":"Bella Vista","coordinates":{"lat":"-21.65","long":"-64.85"}},{"country":"bo","city":"Bella Vista de Cañaviri","coordinates":{"lat":"-18.65","long":"-66.9166667"}},{"country":"bo","city":"Bello Horizonte","coordinates":{"lat":"-10.35","long":"-66.7"}},{"country":"bo","city":"Bello Oriente","coordinates":{"lat":"-10.35","long":"-66.7"}},{"country":"bo","city":"Belmonte","coordinates":{"lat":"-9.85","long":"-66.2666667"}},{"country":"bo","city":"Belo Monte","coordinates":{"lat":"-10.0666667","long":"-66.8333333"}},{"country":"bo","city":"Bena","coordinates":{"lat":"-21.25","long":"-67.35"}},{"country":"bo","city":"Benavides","coordinates":{"lat":"-12.6333333","long":"-67.3333333"}},{"country":"bo","city":"Benavidez","coordinates":{"lat":"-12.6333333","long":"-67.3333333"}},{"country":"bo","city":"Bendom","coordinates":{"lat":"-20.65","long":"-65.9833333"}},{"country":"bo","city":"Bengala","coordinates":{"lat":"-16.9333333","long":"-67.4333333"}},{"country":"bo","city":"Benjamín","coordinates":{"lat":"-12.9166667","long":"-65.1166667"}},{"country":"bo","city":"Benjamín","coordinates":{"lat":"-10.4","long":"-66.15"}},{"country":"bo","city":"Benjamino","coordinates":{"lat":"-12.9166667","long":"-65.1166667"}},{"country":"bo","city":"Berenguela","coordinates":{"lat":"-17.8833333","long":"-66.4166667"}},{"country":"bo","city":"Berenguela","coordinates":{"lat":"-16.7833333","long":"-67.9666667"}},{"country":"bo","city":"Berlín","coordinates":{"lat":"-18.5833333","long":"-68.2333333"}},{"country":"bo","city":"Berlín","coordinates":{"lat":"-10.7833333","long":"-66.3333333"}},{"country":"bo","city":"Bermejo","coordinates":{"lat":"-22.65","long":"-64.3666667"}},{"country":"bo","city":"Berros","coordinates":{"lat":"-18.3","long":"-68.5833333"}},{"country":"bo","city":"Bertani","coordinates":{"lat":"-21.1166667","long":"-66.8833333"}},{"country":"bo","city":"Bestia","coordinates":{"lat":"-15.6333333","long":"-68.2833333"}},{"country":"bo","city":"Betanzos","coordinates":{"lat":"-19.5505556","long":"-65.4533333"}},{"country":"bo","city":"Betanzos","coordinates":{"lat":"-17.5666667","long":"-62.8166667"}},{"country":"bo","city":"Beyuma","coordinates":{"lat":"-11.5333333","long":"-68.9333333"}},{"country":"bo","city":"Bibasi","coordinates":{"lat":"-15.9833333","long":"-60.4"}},{"country":"bo","city":"Bibosi","coordinates":{"lat":"-14.2333333","long":"-66.9666667"}},{"country":"bo","city":"Bibosi","coordinates":{"lat":"-14.7","long":"-62.1166667"}},{"country":"bo","city":"Bibosis","coordinates":{"lat":"-14.2333333","long":"-66.9666667"}},{"country":"bo","city":"Bicuiche","coordinates":{"lat":"-14.2666667","long":"-67.3"}},{"country":"bo","city":"Bicuichu","coordinates":{"lat":"-14.2666667","long":"-67.3"}},{"country":"bo","city":"Bihua","coordinates":{"lat":"-14.25","long":"-68.0833333"}},{"country":"bo","city":"Billarcito","coordinates":{"lat":"-19.65","long":"-63.6833333"}},{"country":"bo","city":"Biquiri","coordinates":{"lat":"-15.3833333","long":"-68.7166667"}},{"country":"bo","city":"Birag","coordinates":{"lat":"-22.1833333","long":"-64.1"}},{"country":"bo","city":"Biray","coordinates":{"lat":"-22.1833333","long":"-64.1"}},{"country":"bo","city":"Birayo","coordinates":{"lat":"-22.1833333","long":"-64.1"}},{"country":"bo","city":"Bisanche","coordinates":{"lat":"-19.6166667","long":"-64.7666667"}},{"country":"bo","city":"Bivosis","coordinates":{"lat":"-14.2333333","long":"-66.9666667"}},{"country":"bo","city":"Biz","coordinates":{"lat":"-17.65","long":"-62.9"}},{"country":"bo","city":"Blanca Flor","coordinates":{"lat":"-11.8","long":"-66.8"}},{"country":"bo","city":"Blanco","coordinates":{"lat":"-20.6666667","long":"-65.7166667"}},{"country":"bo","city":"Blomfield","coordinates":{"lat":"-15.1","long":"-62.1"}},{"country":"bo","city":"Bloomfield","coordinates":{"lat":"-14.8","long":"-62.2166667"}},{"country":"bo","city":"Bloomfielt","coordinates":{"lat":"-14.8","long":"-62.2166667"}},{"country":"bo","city":"Boa Vista","coordinates":{"lat":"-10.9","long":"-65.6"}},{"country":"bo","city":"Boca","coordinates":{"lat":"-12.6833333","long":"-63.2833333"}},{"country":"bo","city":"Boca Chaparé","coordinates":{"lat":"-15.9333333","long":"-64.6833333"}},{"country":"bo","city":"Boca del Ortón","coordinates":{"lat":"-10.8333333","long":"-66.0666667"}},{"country":"bo","city":"Boca Grande","coordinates":{"lat":"-12.6833333","long":"-63.2833333"}},{"country":"bo","city":"Bocamina","coordinates":{"lat":"-19.7833333","long":"-65.75"}},{"country":"bo","city":"Boca Muyumanu","coordinates":{"lat":"-11.45","long":"-69.05"}},{"country":"bo","city":"Boca Ortón","coordinates":{"lat":"-10.8333333","long":"-66.0666667"}},{"country":"bo","city":"Boca Toma","coordinates":{"lat":"-17.1166667","long":"-67.1"}},{"country":"bo","city":"Bocca","coordinates":{"lat":"-12.6833333","long":"-63.2833333"}},{"country":"bo","city":"Bochahuasi","coordinates":{"lat":"-21.8666667","long":"-66.2666667"}},{"country":"bo","city":"Bocoa","coordinates":{"lat":"-12.6833333","long":"-63.2833333"}},{"country":"bo","city":"Bococo","coordinates":{"lat":"-13.6333333","long":"-65.4833333"}},{"country":"bo","city":"Bogasugua","coordinates":{"lat":"-20.2166667","long":"-63.7"}},{"country":"bo","city":"Boguasugua","coordinates":{"lat":"-20.2166667","long":"-63.7"}},{"country":"bo","city":"Bohorques","coordinates":{"lat":"-19.75","long":"-64.0666667"}},{"country":"bo","city":"Boicobo Mision","coordinates":{"lat":"-20.6833333","long":"-63.7"}},{"country":"bo","city":"Boicobú","coordinates":{"lat":"-20.6833333","long":"-63.7"}},{"country":"bo","city":"Boicovo","coordinates":{"lat":"-20.6833333","long":"-63.7"}},{"country":"bo","city":"Bojorquez","coordinates":{"lat":"-19.75","long":"-64.0666667"}},{"country":"bo","city":"Bola Puca","coordinates":{"lat":"-22.5","long":"-64.4666667"}},{"country":"bo","city":"Bolívar","coordinates":{"lat":"-17.9666667","long":"-66.5333333"}},{"country":"bo","city":"Bolívar","coordinates":{"lat":"-12.1833333","long":"-66.2333333"}},{"country":"bo","city":"Bolívar","coordinates":{"lat":"-12.2666667","long":"-67.4333333"}},{"country":"bo","city":"Bolívar","coordinates":{"lat":"-10.6833333","long":"-66.6166667"}},{"country":"bo","city":"Bolívar","coordinates":{"lat":"-14.8666667","long":"-61.45"}},{"country":"bo","city":"Bolivar-Sucre","coordinates":{"lat":"-19.2666667","long":"-68.6166667"}},{"country":"bo","city":"Bolpabra","coordinates":{"lat":"-10.9333333","long":"-69.5833333"}},{"country":"bo","city":"Bolpebra","coordinates":{"lat":"-10.9333333","long":"-69.5833333"}},{"country":"bo","city":"Bolsas","coordinates":{"lat":"-16.75","long":"-63.55"}},{"country":"bo","city":"Bolsón","coordinates":{"lat":"-18.0333333","long":"-64.6833333"}},{"country":"bo","city":"Bolson","coordinates":{"lat":"-17.2833333","long":"-63.6166667"}},{"country":"bo","city":"Bombo","coordinates":{"lat":"-18.3666667","long":"-66.7666667"}},{"country":"bo","city":"Bomboma","coordinates":{"lat":"-20.4166667","long":"-64.6666667"}},{"country":"bo","city":"Bom Fica","coordinates":{"lat":"-11.05","long":"-68.5"}},{"country":"bo","city":"Bonaparte","coordinates":{"lat":"-16.9333333","long":"-67.5166667"}},{"country":"bo","city":"Bon Fica","coordinates":{"lat":"-11.05","long":"-68.5"}},{"country":"bo","city":"Boqui","coordinates":{"lat":"-17.7166667","long":"-61.1666667"}},{"country":"bo","city":"Boquis","coordinates":{"lat":"-17.7166667","long":"-61.1666667"}},{"country":"bo","city":"Borigua","coordinates":{"lat":"-20.4666667","long":"-63.9"}},{"country":"bo","city":"Boroanza","coordinates":{"lat":"-21.5166667","long":"-66.45"}},{"country":"bo","city":"Borochi","coordinates":{"lat":"-12.5333333","long":"-66.5166667"}},{"country":"bo","city":"Boroica","coordinates":{"lat":"-13.2166667","long":"-64.15"}},{"country":"bo","city":"Boroico","coordinates":{"lat":"-13.2166667","long":"-64.15"}},{"country":"bo","city":"Boroigua","coordinates":{"lat":"-19.9","long":"-63.2833333"}},{"country":"bo","city":"Bororigua","coordinates":{"lat":"-20.4666667","long":"-63.9"}},{"country":"bo","city":"Borracoma","coordinates":{"lat":"-12.05","long":"-65.9166667"}},{"country":"bo","city":"Borrorigua","coordinates":{"lat":"-20.5333333","long":"-63.6666667"}},{"country":"bo","city":"Bosiperio","coordinates":{"lat":"-15.3166667","long":"-64.5166667"}},{"country":"bo","city":"Boston","coordinates":{"lat":"-15.3666667","long":"-67.5833333"}},{"country":"bo","city":"Botijlaca","coordinates":{"lat":"-16.2166667","long":"-68.1166667"}},{"country":"bo","city":"Botín Quemado","coordinates":{"lat":"-14.4333333","long":"-64.55"}},{"country":"bo","city":"Boyuguasuga","coordinates":{"lat":"-20.2166667","long":"-63.7"}},{"country":"bo","city":"Boyuibe","coordinates":{"lat":"-20.4166667","long":"-63.2833333"}},{"country":"bo","city":"Boyuy","coordinates":{"lat":"-21.55","long":"-63.8833333"}},{"country":"bo","city":"Brasil","coordinates":{"lat":"-19.35","long":"-62.5166667"}},{"country":"bo","city":"Brasilia","coordinates":{"lat":"-14.6833333","long":"-65.1166667"}},{"country":"bo","city":"Brasilia","coordinates":{"lat":"-17.2833333","long":"-62.8333333"}},{"country":"bo","city":"Bravo","coordinates":{"lat":"-10.3833333","long":"-66.1333333"}},{"country":"bo","city":"Breme","coordinates":{"lat":"-17.15","long":"-63.0833333"}},{"country":"bo","city":"Brighton","coordinates":{"lat":"-10.9666667","long":"-65.6666667"}},{"country":"bo","city":"Briones","coordinates":{"lat":"-19.75","long":"-64.3833333"}},{"country":"bo","city":"Brishton","coordinates":{"lat":"-11.0666667","long":"-65.6666667"}},{"country":"bo","city":"Broncini","coordinates":{"lat":"-15.8","long":"-67.6666667"}},{"country":"bo","city":"Buana Suerte","coordinates":{"lat":"-10.0833333","long":"-65.8"}},{"country":"bo","city":"Buararayapi","coordinates":{"lat":"-20.55","long":"-63.6333333"}},{"country":"bo","city":"Buena Esperanza","coordinates":{"lat":"-20.75","long":"-63.75"}},{"country":"bo","city":"Buena Esperanza","coordinates":{"lat":"-14.6666667","long":"-68.9666667"}},{"country":"bo","city":"Buena Esperanza","coordinates":{"lat":"-10.9333333","long":"-66.8833333"}},{"country":"bo","city":"Buena Esperanza","coordinates":{"lat":"-14.8833333","long":"-62.3166667"}},{"country":"bo","city":"Buena Hora","coordinates":{"lat":"-12.8333333","long":"-66.55"}},{"country":"bo","city":"Buena Hora","coordinates":{"lat":"-12.0333333","long":"-67.6"}},{"country":"bo","city":"Buena Hora","coordinates":{"lat":"-14.4166667","long":"-62.55"}},{"country":"bo","city":"Buen Aire","coordinates":{"lat":"-11.2166667","long":"-68.5166667"}},{"country":"bo","city":"Buena Maquina Grande","coordinates":{"lat":"-13.2166667","long":"-62.1333333"}},{"country":"bo","city":"Buena Suerte","coordinates":{"lat":"-10.0833333","long":"-65.8"}},{"country":"bo","city":"Buena Vida","coordinates":{"lat":"-11.2666667","long":"-68.1666667"}},{"country":"bo","city":"Buena Vista","coordinates":{"lat":"-18.6913889","long":"-64.7077778"}},{"country":"bo","city":"Buena Vista","coordinates":{"lat":"-17.1166667","long":"-66.7833333"}},{"country":"bo","city":"Buena Vista","coordinates":{"lat":"-15.2833333","long":"-68.3833333"}},{"country":"bo","city":"Buena Vista","coordinates":{"lat":"-10.0833333","long":"-65.8666667"}},{"country":"bo","city":"Buena Vista","coordinates":{"lat":"-19.7833333","long":"-68.55"}},{"country":"bo","city":"Buena Vista","coordinates":{"lat":"-17.45","long":"-63.6666667"}},{"country":"bo","city":"Buena Vista","coordinates":{"lat":"-21.85","long":"-65.2833333"}},{"country":"bo","city":"Buen Futuro","coordinates":{"lat":"-10.2166667","long":"-66.1166667"}},{"country":"bo","city":"Buen Horno","coordinates":{"lat":"-12.7333333","long":"-63.1166667"}},{"country":"bo","city":"Buen Jardín","coordinates":{"lat":"-10.3","long":"-66.15"}},{"country":"bo","city":"Buen Jesús","coordinates":{"lat":"-13.6333333","long":"-62.7833333"}},{"country":"bo","city":"Buen Jesús","coordinates":{"lat":"-11.4833333","long":"-69.0333333"}},{"country":"bo","city":"Bueno Esperanza","coordinates":{"lat":"-14.6666667","long":"-68.9666667"}},{"country":"bo","city":"Bueno Horno","coordinates":{"lat":"-12.7333333","long":"-63.1166667"}},{"country":"bo","city":"Buenos Aires","coordinates":{"lat":"-14.35","long":"-64.9"}},{"country":"bo","city":"Buenos Aires","coordinates":{"lat":"-15.55","long":"-68.0"}},{"country":"bo","city":"Buenos Aires","coordinates":{"lat":"-11.0166667","long":"-68.9833333"}},{"country":"bo","city":"Buenos Aires","coordinates":{"lat":"-16.3666667","long":"-60.9833333"}},{"country":"bo","city":"Buen Retiro","coordinates":{"lat":"-17.7","long":"-66.2666667"}},{"country":"bo","city":"Buen Retiro","coordinates":{"lat":"-10.5833333","long":"-65.7166667"}},{"country":"bo","city":"Buen Retiro","coordinates":{"lat":"-19.5333333","long":"-65.2666667"}},{"country":"bo","city":"Buen Retiro","coordinates":{"lat":"-17.2833333","long":"-63.7"}},{"country":"bo","city":"Buen Vista","coordinates":{"lat":"-20.2166667","long":"-65.5"}},{"country":"bo","city":"Buevtambo","coordinates":{"lat":"-19.5833333","long":"-65.3"}},{"country":"bo","city":"Bueyes","coordinates":{"lat":"-13.25","long":"-63.8"}},{"country":"bo","city":"Buey Tambo","coordinates":{"lat":"-19.5833333","long":"-65.3"}},{"country":"bo","city":"Buquis","coordinates":{"lat":"-18.1","long":"-58.9333333"}},{"country":"bo","city":"Burgoa","coordinates":{"lat":"-11.3166667","long":"-67.4166667"}},{"country":"bo","city":"Burgos","coordinates":{"lat":"-17.3","long":"-63.55"}},{"country":"bo","city":"Burguillos","coordinates":{"lat":"-17.95","long":"-67.35"}},{"country":"bo","city":"Burroscancha","coordinates":{"lat":"-21.4833333","long":"-66.0333333"}},{"country":"bo","city":"Butja","coordinates":{"lat":"-20.1333333","long":"-66.7"}},{"country":"bo","city":"Buturo","coordinates":{"lat":"-14.2833333","long":"-68.5666667"}},{"country":"bo","city":"Buturu","coordinates":{"lat":"-14.2833333","long":"-68.5666667"}},{"country":"bo","city":"Buyú","coordinates":{"lat":"-19.5833333","long":"-58.1333333"}},{"country":"bo","city":"Buyuyo","coordinates":{"lat":"-11.6","long":"-68.7833333"}},{"country":"bo","city":"Buyuyu","coordinates":{"lat":"-11.4833333","long":"-68.1166667"}},{"country":"bo","city":"Buyuyu","coordinates":{"lat":"-21.55","long":"-63.8833333"}},{"country":"bo","city":"Buzeta","coordinates":{"lat":"-11.2166667","long":"-66.4666667"}},{"country":"bo","city":"Caacupe","coordinates":{"lat":"-20.5833333","long":"-62.8833333"}},{"country":"bo","city":"Caahuazú","coordinates":{"lat":"-19.3166667","long":"-63.9"}},{"country":"bo","city":"Caama","coordinates":{"lat":"-18.6333333","long":"-60.1"}},{"country":"bo","city":"Cabacancha","coordinates":{"lat":"-18.0333333","long":"-65.2166667"}},{"country":"bo","city":"Cabacanche","coordinates":{"lat":"-18.0333333","long":"-65.2166667"}},{"country":"bo","city":"Cabacaoche","coordinates":{"lat":"-18.0333333","long":"-65.2166667"}},{"country":"bo","city":"Caballa Jigua","coordinates":{"lat":"-20.7833333","long":"-63.3666667"}},{"country":"bo","city":"Caballero","coordinates":{"lat":"-19.4080556","long":"-65.0430556"}},{"country":"bo","city":"Caballo Blanco","coordinates":{"lat":"-20.7333333","long":"-65.1666667"}},{"country":"bo","city":"Cabayo","coordinates":{"lat":"-22.0666667","long":"-62.7666667"}},{"country":"bo","city":"Cabayú Nambi","coordinates":{"lat":"-21.6333333","long":"-62.9666667"}},{"country":"bo","city":"Cabeza","coordinates":{"lat":"-20.4","long":"-65.5333333"}},{"country":"bo","city":"Cabeza","coordinates":{"lat":"-16.85","long":"-62.8"}},{"country":"bo","city":"Cabeza Colgada","coordinates":{"lat":"-21.6166667","long":"-63.8833333"}},{"country":"bo","city":"Cabeza de Puerco","coordinates":{"lat":"-17.2333333","long":"-63.5666667"}},{"country":"bo","city":"Cabeza Iguey","coordinates":{"lat":"-20.7833333","long":"-63.3666667"}},{"country":"bo","city":"Cabezas","coordinates":{"lat":"-18.7666667","long":"-63.4"}},{"country":"bo","city":"Cabracancha","coordinates":{"lat":"-18.0333333","long":"-65.2166667"}},{"country":"bo","city":"Cabra Cancha","coordinates":{"lat":"-21.8","long":"-65.3333333"}},{"country":"bo","city":"Cabral","coordinates":{"lat":"-21.5333333","long":"-65.35"}},{"country":"bo","city":"Cabrapata","coordinates":{"lat":"-15.7166667","long":"-68.75"}},{"country":"bo","city":"Cabraya","coordinates":{"lat":"-21.2666667","long":"-66.7"}},{"country":"bo","city":"Cabrera","coordinates":{"lat":"-18.2963889","long":"-64.5777778"}},{"country":"bo","city":"Cabrera Rancho","coordinates":{"lat":"-18.2963889","long":"-64.5777778"}},{"country":"bo","city":"Cabreria","coordinates":{"lat":"-21.45","long":"-65.9166667"}},{"country":"bo","city":"Cabritoyoc","coordinates":{"lat":"-21.2833333","long":"-65.8166667"}},{"country":"bo","city":"Cabza Puerco","coordinates":{"lat":"-17.2333333","long":"-63.5666667"}},{"country":"bo","city":"Cacachaca","coordinates":{"lat":"-18.7666667","long":"-66.5833333"}},{"country":"bo","city":"Cacahug","coordinates":{"lat":"-21.9666667","long":"-65.7"}},{"country":"bo","city":"Cacahuni","coordinates":{"lat":"-21.9666667","long":"-65.7"}},{"country":"bo","city":"Cacani","coordinates":{"lat":"-17.3666667","long":"-67.35"}},{"country":"bo","city":"Cacapongo","coordinates":{"lat":"-17.5833333","long":"-67.1333333"}},{"country":"bo","city":"Cacatericsa","coordinates":{"lat":"-21.4166667","long":"-66.2666667"}},{"country":"bo","city":"Cacaug","coordinates":{"lat":"-21.9666667","long":"-65.7"}},{"country":"bo","city":"Cachagas","coordinates":{"lat":"-16.8833333","long":"-68.1666667"}},{"country":"bo","city":"Cacha Labrada","coordinates":{"lat":"-19.2833333","long":"-61.6666667"}},{"country":"bo","city":"Cachalcha","coordinates":{"lat":"-21.1166667","long":"-67.3666667"}},{"country":"bo","city":"Cachallcha","coordinates":{"lat":"-21.2","long":"-67.5333333"}},{"country":"bo","city":"Cachani","coordinates":{"lat":"-15.6","long":"-68.7333333"}},{"country":"bo","city":"Cachapa","coordinates":{"lat":"-16.7166667","long":"-68.0166667"}},{"country":"bo","city":"Cachapilla","coordinates":{"lat":"-16.7","long":"-68.0166667"}},{"country":"bo","city":"Cachari","coordinates":{"lat":"-10.6333333","long":"-66.15"}},{"country":"bo","city":"Cachería","coordinates":{"lat":"-16.6833333","long":"-68.4666667"}},{"country":"bo","city":"Cachi","coordinates":{"lat":"-19.15","long":"-65.3333333"}},